"district","address","lng","lat","date"
"浦东新区","上海市浦东新区环湖南三路海港大道交界口工地生活区",121.894828827476,30.900192727463445,"2022-06-05"
"黄浦区","上海市黄浦区进贤路156弄",121.46575778199313,31.227951210049856,"2022-06-05"
"黄浦区","上海市黄浦区已对相关居住地落实终末消毒措施等",121.49158559252436,31.23724715206362,"2022-06-05"
"虹口区","上海市虹口区池沟路60弄",121.486056611941,31.307820852102928,"2022-06-05"
"虹口区","上海市虹口区昆明路56号",121.51345205541769,31.260409923037674,"2022-06-05"
"虹口区","上海市虹口区6月5日已通报",121.51158645453457,31.269746698931357,"2022-06-05"
"宝山区","上海市宝山区蕰川路1498弄",121.4353475353944,31.367418616403288,"2022-06-05"
"宝山区","上海市宝山区6月5日已通报",121.4965630135246,31.41027947347614,"2022-06-05"
