"district","address","lng","lat","date"
"浦东新区","上海市浦东新区白杨路360弄",121.56134817809034,31.212020220119758,"2022-04-29"
"浦东新区","上海市浦东新区板泉路50号",121.50119826995608,31.163464745166774,"2022-04-29"
"浦东新区","上海市浦东新区北艾路1200弄",121.53888676745775,31.188481867872763,"2022-04-29"
"浦东新区","上海市浦东新区北艾路862弄",121.54340838824224,31.19022772322093,"2022-04-29"
"浦东新区","上海市浦东新区北蔡镇北蔡村周家宅",121.56260095495458,31.18890539871745,"2022-04-29"
"浦东新区","上海市浦东新区北蔡大街31弄",121.56054356584508,31.19367809757782,"2022-04-29"
"浦东新区","上海市浦东新区北蔡镇联勤村冯桥队冯家宅",121.55744791522713,31.171212397581485,"2022-04-29"
"浦东新区","上海市浦东新区北蔡镇联勤村冯桥队张家宅",121.55744791522713,31.171212397581485,"2022-04-29"
"浦东新区","上海市浦东新区北蔡镇卫行村张浜队王家宅",121.5950273584399,31.16387255262983,"2022-04-29"
"浦东新区","上海市浦东新区北蔡镇五星村陈家队陈家宅",121.57857947438275,31.194413133383005,"2022-04-29"
"浦东新区","上海市浦东新区北蔡镇中界村陈家队陈家宅",121.57857947438275,31.194413133383005,"2022-04-29"
"浦东新区","上海市浦东新区北蔡镇中界村复兴队顾家宅",121.57806672159766,31.193715783941315,"2022-04-29"
"浦东新区","上海市浦东新区北蔡镇中界村林家队中界庙",121.57854102690692,31.190867872329996,"2022-04-29"
"浦东新区","上海市浦东新区北蔡镇中界村陆家队陆家宅",121.50741975425709,31.19056320545643,"2022-04-29"
"浦东新区","上海市浦东新区北蔡镇中界村沈家队黄家宅",121.57417373500905,31.19544617406339,"2022-04-29"
"浦东新区","上海市浦东新区北新园路350弄",121.63335446132862,31.32701601446308,"2022-04-29"
"浦东新区","上海市浦东新区北新园路460弄",121.6347431518165,31.326191717177842,"2022-04-29"
"浦东新区","上海市浦东新区北洋泾路609号",121.55775801028919,31.24917135756534,"2022-04-29"
"浦东新区","上海市浦东新区北中路280弄",121.56393853185894,31.18991772544677,"2022-04-29"
"浦东新区","上海市浦东新区博华路1018弄",121.55750199321884,31.176850857976813,"2022-04-29"
"浦东新区","上海市浦东新区博华路930弄",121.55674921320147,31.18032002999115,"2022-04-29"
"浦东新区","上海市浦东新区博华路980弄",121.55642681135393,31.17727104282873,"2022-04-29"
"浦东新区","上海市浦东新区博山东路553弄",121.57792748424362,31.261532678902576,"2022-04-29"
"浦东新区","上海市浦东新区博山东路811弄",121.57981814785047,31.265442810713736,"2022-04-29"
"浦东新区","上海市浦东新区博山路12弄",121.56321782134827,31.253252567913812,"2022-04-29"
"浦东新区","上海市浦东新区博山路13弄",121.56423874556036,31.250936765313728,"2022-04-29"
"浦东新区","上海市浦东新区博山路50弄",121.56288293305415,31.252223638107505,"2022-04-29"
"浦东新区","上海市浦东新区博兴路250弄",121.58638727638383,31.274900995229025,"2022-04-29"
"浦东新区","上海市浦东新区博兴路465弄",121.58987225260978,31.272066665151705,"2022-04-29"
"浦东新区","上海市浦东新区博兴路799弄",121.59697731021042,31.27188533546996,"2022-04-29"
"浦东新区","上海市浦东新区博兴路916弄",121.59799500052266,31.270420178729555,"2022-04-29"
"浦东新区","上海市浦东新区博兴路986弄",121.59726297136258,31.27067103482398,"2022-04-29"
"浦东新区","上海市浦东新区曹路镇顾东村苍龙桥",121.66803731842445,31.305629893530618,"2022-04-29"
"浦东新区","上海市浦东新区曹路镇顾东村船板桥",121.67028056694399,31.30311645627832,"2022-04-29"
"浦东新区","上海市浦东新区曹路镇顾东村新屋宅",121.66573451224963,31.301817865497682,"2022-04-29"
"浦东新区","上海市浦东新区曹路镇光明村沙桥宅",121.65818551206597,31.29296768284297,"2022-04-29"
"浦东新区","上海市浦东新区曹路镇黎明村张唐村",121.70091278483423,31.27455570739232,"2022-04-29"
"浦东新区","上海市浦东新区曹路镇联合村路南宅",121.34867488758638,31.408630188595996,"2022-04-29"
"浦东新区","上海市浦东新区曹路镇民建村南邵家宅",121.65451647304103,31.28037867132429,"2022-04-29"
"浦东新区","上海市浦东新区曹路镇五四村沈家宅",121.6580400764039,31.26039873322475,"2022-04-29"
"浦东新区","上海市浦东新区曹路镇迅建村蔡家宅",121.69714879491686,31.289202814595352,"2022-04-29"
"浦东新区","上海市浦东新区曹路镇迅建村撑圩村",121.69948528754833,31.28675034579566,"2022-04-29"
"浦东新区","上海市浦东新区曹路镇众三村南俞家圈",121.67245428661701,31.28855006872415,"2022-04-29"
"浦东新区","上海市浦东新区长岛路1201弄",121.59672973721186,31.2693476089323,"2022-04-29"
"浦东新区","上海市浦东新区长岛路1203弄",121.60099758668976,31.270094010785566,"2022-04-29"
"浦东新区","上海市浦东新区长岛路588弄",121.58873194359542,31.266885513110953,"2022-04-29"
"浦东新区","上海市浦东新区长岛路625弄",121.59057454785749,31.266999409719872,"2022-04-29"
"浦东新区","上海市浦东新区长清路595弄",121.49833788555121,31.165653164939044,"2022-04-29"
"浦东新区","上海市浦东新区长清路693弄",121.53688426481492,31.18970225553777,"2022-04-29"
"浦东新区","上海市浦东新区长清路773弄",121.49801207014275,31.16197386509983,"2022-04-29"
"浦东新区","上海市浦东新区昌里东路411弄",121.51930155140703,31.185511228668684,"2022-04-29"
"浦东新区","上海市浦东新区昌里东路650弄",121.52139900494227,31.18353589919409,"2022-04-29"
"浦东新区","上海市浦东新区昌里东路80弄",121.51274787372843,31.180374404948385,"2022-04-29"
"浦东新区","上海市浦东新区昌里路167弄",121.50454544611682,31.181091626219736,"2022-04-29"
"浦东新区","上海市浦东新区昌里路340弄",121.50096839357609,31.178239082858738,"2022-04-29"
"浦东新区","上海市浦东新区昌里路98弄",121.50956463832325,31.18067199914861,"2022-04-29"
"浦东新区","上海市浦东新区昌邑路1669号",121.54805702942582,31.252866836329606,"2022-04-29"
"浦东新区","上海市浦东新区昌邑路55弄",121.51912198013558,31.24605885186431,"2022-04-29"
"浦东新区","上海市浦东新区朝农新村",121.84247962472928,31.10294290675475,"2022-04-29"
"浦东新区","上海市浦东新区陈春东路99弄",121.56589701753178,31.181856496573577,"2022-04-29"
"浦东新区","上海市浦东新区陈春路620弄",121.55290760968805,31.178078194108803,"2022-04-29"
"浦东新区","上海市浦东新区成山路1488弄",121.53343153775677,31.18197984224341,"2022-04-29"
"浦东新区","上海市浦东新区成山路1728弄",121.53553420146397,31.181824984316307,"2022-04-29"
"浦东新区","上海市浦东新区成山路2008弄",121.54348528319389,31.183276545290262,"2022-04-29"
"浦东新区","上海市浦东新区成山路226弄",121.50372008301424,31.176390428994402,"2022-04-29"
"浦东新区","上海市浦东新区成山路24弄",121.49230899795155,31.17414687706441,"2022-04-29"
"浦东新区","上海市浦东新区成山路345号",121.50887545833602,31.177826240072424,"2022-04-29"
"浦东新区","上海市浦东新区成山路608弄",121.51511598671382,31.177611823719104,"2022-04-29"
"浦东新区","上海市浦东新区川环南路408弄",121.71158851700646,31.194744276018078,"2022-04-29"
"浦东新区","上海市浦东新区川沙路1258号",121.68465031103433,31.267619048052797,"2022-04-29"
"浦东新区","上海市浦东新区川沙路1666弄",121.67243200864038,31.28581336211361,"2022-04-29"
"浦东新区","上海市浦东新区川沙路2301弄",121.65277879086253,31.290487771739045,"2022-04-29"
"浦东新区","上海市浦东新区川沙路5015弄",121.65277879086253,31.290487771739045,"2022-04-29"
"浦东新区","上海市浦东新区川沙新镇八灶村郭家宅",121.72414179752509,31.16212419793255,"2022-04-29"
"浦东新区","上海市浦东新区川沙新镇高桥村陈家宅",121.73086543460617,31.17269208499918,"2022-04-29"
"浦东新区","上海市浦东新区川沙新镇其成村",121.69209061625129,31.120092933510254,"2022-04-29"
"浦东新区","上海市浦东新区川沙新镇吴店村孙家宅",121.72775541110008,31.152246988830285,"2022-04-29"
"浦东新区","上海市浦东新区川周公路2928弄",121.62099799954723,31.147934683568153,"2022-04-29"
"浦东新区","上海市浦东新区川周公路3010弄",121.61762315557678,31.147196115555047,"2022-04-29"
"浦东新区","上海市浦东新区创新西路199弄",121.66081045059668,31.207582255485885,"2022-04-29"
"浦东新区","上海市浦东新区创新西路75弄",121.66373147062347,31.209726792242737,"2022-04-29"
"浦东新区","上海市浦东新区创新中路399弄",121.67324470563524,31.215325489578447,"2022-04-29"
"浦东新区","上海市浦东新区创新中路593弄",121.67577702886787,31.216838837693654,"2022-04-29"
"浦东新区","上海市浦东新区大同路922弄",121.57933297304452,31.3423643180898,"2022-04-29"
"浦东新区","上海市浦东新区德平路100弄",121.56868266291822,31.253939981179144,"2022-04-29"
"浦东新区","上海市浦东新区德平路1125弄",121.57509494730955,31.249053580204333,"2022-04-29"
"浦东新区","上海市浦东新区德平路155弄",121.56795404731908,31.25660183659443,"2022-04-29"
"浦东新区","上海市浦东新区德州路220弄",121.53688426481492,31.18970225553777,"2022-04-29"
"浦东新区","上海市浦东新区德州路254号",121.49909228251849,31.172918021851245,"2022-04-29"
"浦东新区","上海市浦东新区德州路420弄",121.49035248855083,31.172388749436156,"2022-04-29"
"浦东新区","上海市浦东新区德州路60弄",121.53688426481492,31.18970225553777,"2022-04-29"
"浦东新区","上海市浦东新区丁香路1599弄",121.57230687649823,31.233862298835515,"2022-04-29"
"浦东新区","上海市浦东新区东八灶63弄",121.55045460683195,31.227348292436346,"2022-04-29"
"浦东新区","上海市浦东新区东波路195弄",121.5862415712301,31.29079458195699,"2022-04-29"
"浦东新区","上海市浦东新区东昌新村",121.5180936898183,31.23898198660225,"2022-04-29"
"浦东新区","上海市浦东新区东方路248号",121.52754215700281,31.24273537143582,"2022-04-29"
"浦东新区","上海市浦东新区东方路573弄",121.53133354523821,31.237684588126452,"2022-04-29"
"浦东新区","上海市浦东新区东后老街262号",121.65427123563681,31.029269324648787,"2022-04-29"
"浦东新区","上海市浦东新区东环龙路181弄",121.53536361324763,31.209338796414407,"2022-04-29"
"浦东新区","上海市浦东新区东建路670弄",121.54659081517244,31.20542724539404,"2022-04-29"
"浦东新区","上海市浦东新区东建新村",121.52686142108733,31.222713416923376,"2022-04-29"
"浦东新区","上海市浦东新区东靖路人民塘路交界口工地生活区",121.7502880573596,31.249162790540804,"2022-04-29"
"浦东新区","上海市浦东新区东陆路1182弄",121.60235600428196,31.275368269875603,"2022-04-29"
"浦东新区","上海市浦东新区东陆路1221号",121.60429939842224,31.276973852805344,"2022-04-29"
"浦东新区","上海市浦东新区东陆路1268弄",121.60156055475287,31.272878863483545,"2022-04-29"
"浦东新区","上海市浦东新区东三街102弄",121.51710618257118,31.20763978042601,"2022-04-29"
"浦东新区","上海市浦东新区东三里桥路160弄",121.5161398753341,31.20602821937022,"2022-04-29"
"浦东新区","上海市浦东新区东书房路390弄",121.5416177958692,31.16966648705868,"2022-04-29"
"浦东新区","上海市浦东新区东书房路560弄",121.54307367960921,31.167733309908424,"2022-04-29"
"浦东新区","上海市浦东新区东塘路222弄",121.57404581630445,31.306423442223387,"2022-04-29"
"浦东新区","上海市浦东新区东绣路1155弄",121.54128120079461,31.204941938527192,"2022-04-29"
"浦东新区","上海市浦东新区东绣路1389弄",121.538790289446,31.20467631206504,"2022-04-29"
"浦东新区","上海市浦东新区东园四村",121.51943288367258,31.23609222457476,"2022-04-29"
"浦东新区","上海市浦东新区渡桥路288弄",121.58485970786411,31.120077939878794,"2022-04-29"
"浦东新区","上海市浦东新区渡桥路78弄",121.58485970786411,31.120077939878794,"2022-04-29"
"浦东新区","上海市浦东新区峨山路187弄",121.53406151941093,31.22075037523499,"2022-04-29"
"浦东新区","上海市浦东新区峨山路500弄",121.53072871613834,31.219497888809606,"2022-04-29"
"浦东新区","上海市浦东新区峨山路681弄",121.52639034967791,31.219607056449476,"2022-04-29"
"浦东新区","上海市浦东新区繁荣东路159弄",121.59187017389452,31.112814326185486,"2022-04-29"
"浦东新区","上海市浦东新区方竹路88弄",121.87411974140173,30.93315324788934,"2022-04-29"
"浦东新区","上海市浦东新区芳草路352弄",121.5616260239846,31.199214895930286,"2022-04-29"
"浦东新区","上海市浦东新区芳甸路333弄",121.52969618510942,31.207201251711854,"2022-04-29"
"浦东新区","上海市浦东新区芳华路310弄",121.56401821155765,31.201334527828102,"2022-04-29"
"浦东新区","上海市浦东新区芳华路411弄",121.56557030381781,31.202399460853744,"2022-04-29"
"浦东新区","上海市浦东新区芳华路455弄",121.56615060917726,31.20261752700328,"2022-04-29"
"浦东新区","上海市浦东新区芳华路478弄",121.53688426481492,31.18970225553777,"2022-04-29"
"浦东新区","上海市浦东新区芳华路63号",121.55817159014597,31.20073105268403,"2022-04-29"
"浦东新区","上海市浦东新区芳华路713弄",121.53688426481492,31.18970225553777,"2022-04-29"
"浦东新区","上海市浦东新区芳华路739弄",121.53688426481492,31.18970225553777,"2022-04-29"
"浦东新区","上海市浦东新区芳华路933弄",121.53688426481492,31.18970225553777,"2022-04-29"
"浦东新区","上海市浦东新区芳芯路210弄",121.56219528018626,31.197753542850066,"2022-04-29"
"浦东新区","上海市浦东新区芳芯路312弄",121.56407749972132,31.19718263286784,"2022-04-29"
"浦东新区","上海市浦东新区芳芯路363弄",121.53688426481492,31.18970225553777,"2022-04-29"
"浦东新区","上海市浦东新区港辉路308弄",121.86591084599044,30.873694367599928,"2022-04-29"
"浦东新区","上海市浦东新区高宝路300弄",121.58962611690005,31.28158489894264,"2022-04-29"
"浦东新区","上海市浦东新区高宝路379弄",121.58962611690005,31.28158489894264,"2022-04-29"
"浦东新区","上海市浦东新区高宝路528弄",121.58962611690005,31.28158489894264,"2022-04-29"
"浦东新区","上海市浦东新区高东镇灯塔村王家宅",121.66762005551509,31.318000478952566,"2022-04-29"
"浦东新区","上海市浦东新区高东镇竞赛村龙稍宅",121.65845033253032,31.307521425419296,"2022-04-29"
"浦东新区","上海市浦东新区高东镇竞赛村沈家宅",121.65224349060914,31.30482168254854,"2022-04-29"
"浦东新区","上海市浦东新区高东镇先锋村卢家宅",121.59152154152609,31.290378301115442,"2022-04-29"
"浦东新区","上海市浦东新区高东镇先锋村杨树园",121.63965598465056,31.31208422282443,"2022-04-29"
"浦东新区","上海市浦东新区高科西路2111弄",121.5423303317997,31.194181224726066,"2022-04-29"
"浦东新区","上海市浦东新区高科西路3030弄",121.56984875330073,31.195892840738562,"2022-04-29"
"浦东新区","上海市浦东新区高科西路3060弄",121.57070196387411,31.195867897271857,"2022-04-29"
"浦东新区","上海市浦东新区高桥镇陆凌村西凌家宅",121.58173863520024,31.35356684063773,"2022-04-29"
"浦东新区","上海市浦东新区高桥镇南塘村顾家宅",121.5746809183,31.34539427690696,"2022-04-29"
"浦东新区","上海市浦东新区高桥镇三岔港村三岔港",121.51447127284932,31.371531268842322,"2022-04-29"
"浦东新区","上海市浦东新区高桥镇西浜头",121.61563583429707,31.292504199206448,"2022-04-29"
"浦东新区","上海市浦东新区高桥镇西新村尖角圩",121.5232757448137,31.361953760539233,"2022-04-29"
"浦东新区","上海市浦东新区高青路2861弄",121.53503303681995,31.16808069147707,"2022-04-29"
"浦东新区","上海市浦东新区高青路4567弄",121.53688426481492,31.18970225553777,"2022-04-29"
"浦东新区","上海市浦东新区高行镇朱家浜村瞿家弄",121.57802018937224,31.306348931620445,"2022-04-29"
"浦东新区","上海市浦东新区髙东镇永新村",121.79691199976904,31.075899412449523,"2022-04-29"
"浦东新区","上海市浦东新区龚华路479弄",121.69382398656333,31.26551897447492,"2022-04-29"
"浦东新区","上海市浦东新区龚新路549弄",121.69111478697579,31.26461835524657,"2022-04-29"
"浦东新区","上海市浦东新区拱川路411弄",121.74965897401097,31.069907843106915,"2022-04-29"
"浦东新区","上海市浦东新区古棕路555弄",121.92490167052519,30.887815475187587,"2022-04-29"
"浦东新区","上海市浦东新区崮山路157号",121.55848599707447,31.253071819138345,"2022-04-29"
"浦东新区","上海市浦东新区崮山路95号",121.55737820671956,31.253687382281104,"2022-04-29"
"浦东新区","上海市浦东新区关岳路229弄",121.59444804121651,31.127375227553234,"2022-04-29"
"浦东新区","上海市浦东新区光明路222弄",121.62230296796156,31.337702069276634,"2022-04-29"
"浦东新区","上海市浦东新区光泽路428弄",121.62307622934456,31.336400104686092,"2022-04-29"
"浦东新区","上海市浦东新区光泽路429弄",121.62474869454303,31.336184046972157,"2022-04-29"
"浦东新区","上海市浦东新区海鸣路顾如路交界口工地生活区",121.68025903437936,31.29084873844594,"2022-04-29"
"浦东新区","上海市浦东新区海鹏路380弄",121.67648363598202,31.293987138169218,"2022-04-29"
"浦东新区","上海市浦东新区海容路399弄",121.68625863721941,31.287655457702563,"2022-04-29"
"浦东新区","上海市浦东新区海阳路1080弄",121.51343947914056,31.16413535922777,"2022-04-29"
"浦东新区","上海市浦东新区航城五路151弄",121.75421535921869,31.148331664371444,"2022-04-29"
"浦东新区","上海市浦东新区航都南路29弄",121.61797053031748,31.0319618481551,"2022-04-29"
"浦东新区","上海市浦东新区航鹤路1858弄",121.590976180251,31.05615119264956,"2022-04-29"
"浦东新区","上海市浦东新区航鹤路999弄",121.59158855511716,31.047493511593995,"2022-04-29"
"浦东新区","上海市浦东新区航梅路525弄",121.5806510567193,31.03066676980315,"2022-04-29"
"浦东新区","上海市浦东新区航梅路526弄",121.58752462099001,31.028592642453045,"2022-04-29"
"浦东新区","上海市浦东新区航三路航吉路交界口工地生活区",121.61429035230421,31.04579326766702,"2022-04-29"
"浦东新区","上海市浦东新区航头路988弄",121.60690466406227,31.040624900894645,"2022-04-29"
"浦东新区","上海市浦东新区航头镇福善村",121.61855559669614,31.03197716526471,"2022-04-29"
"浦东新区","上海市浦东新区航头镇果园村",121.64244189952865,31.025361102765,"2022-04-29"
"浦东新区","上海市浦东新区航头镇航东村",121.60773721360891,31.03214843823002,"2022-04-29"
"浦东新区","上海市浦东新区航头镇牌楼村谈弄",121.56382300977033,31.06163647708877,"2022-04-29"
"浦东新区","上海市浦东新区航头镇王楼村",121.62415069256504,31.074255122839745,"2022-04-29"
"浦东新区","上海市浦东新区航绣路50弄",121.60439363067024,31.076577146786715,"2022-04-29"
"浦东新区","上海市浦东新区合庆镇蔡路村东蔡家宅",121.75183443079128,31.230186868212748,"2022-04-29"
"浦东新区","上海市浦东新区合庆镇蔡路村杨家宅",121.74440496474422,31.209984837533348,"2022-04-29"
"浦东新区","上海市浦东新区合庆镇大星村老顾家宅",121.72821121131584,31.227971358702003,"2022-04-29"
"浦东新区","上海市浦东新区合庆镇东风村曹家宅",121.705700034558,31.232450813592735,"2022-04-29"
"浦东新区","上海市浦东新区合庆镇东风村潘家宅",121.70232599906251,31.233515855865203,"2022-04-29"
"浦东新区","上海市浦东新区合庆镇建光村西陈家宅",121.76648145146576,31.197053052111507,"2022-04-29"
"浦东新区","上海市浦东新区合庆镇前哨村顾家宅",121.74420383414054,31.247222609396808,"2022-04-29"
"浦东新区","上海市浦东新区合庆镇勤益村陆家宅",121.71885868315981,31.219024467274412,"2022-04-29"
"浦东新区","上海市浦东新区合庆镇奚家村卫家宅",121.71794366916734,31.25361962114071,"2022-04-29"
"浦东新区","上海市浦东新区合庆镇向东村张家宅",121.7404823340738,31.241826968403426,"2022-04-29"
"浦东新区","上海市浦东新区合庆镇营房村高路二宅",121.74208131788156,31.216227432867615,"2022-04-29"
"浦东新区","上海市浦东新区合庆镇永红村薛家宅",121.71609181235851,31.24084075180815,"2022-04-29"
"浦东新区","上海市浦东新区合庆镇直属村凌北宅",121.75823842044512,31.22746493915607,"2022-04-29"
"浦东新区","上海市浦东新区和炯路77弄",121.52553031198265,31.139159418419815,"2022-04-29"
"浦东新区","上海市浦东新区菏泽路567弄",121.60177210044444,31.270406002106668,"2022-04-29"
"浦东新区","上海市浦东新区鹤永路750弄",121.6099678858513,31.07777749395087,"2022-04-29"
"浦东新区","上海市浦东新区虹盛路250弄",121.68737783605428,31.247623183151326,"2022-04-29"
"浦东新区","上海市浦东新区洪山路121弄",121.50500277345195,31.18470970220126,"2022-04-29"
"浦东新区","上海市浦东新区沪南路1168弄",121.53688426481492,31.18970225553777,"2022-04-29"
"浦东新区","上海市浦东新区沪南路1391弄",121.53688426481492,31.18970225553777,"2022-04-29"
"浦东新区","上海市浦东新区沪南路2518弄",121.53688426481492,31.18970225553777,"2022-04-29"
"浦东新区","上海市浦东新区沪南路2688弄",121.57033464675108,31.143972355375933,"2022-04-29"
"浦东新区","上海市浦东新区沪南路2727弄",121.58292197304854,31.14810481840371,"2022-04-29"
"浦东新区","上海市浦东新区沪南路3150弄",121.572258906984,31.128503519931538,"2022-04-29"
"浦东新区","上海市浦东新区沪南路3158弄",121.57200872889946,31.12772554060315,"2022-04-29"
"浦东新区","上海市浦东新区沪南路3219弄",121.57455838942843,31.129993849742835,"2022-04-29"
"浦东新区","上海市浦东新区沪南路3468弄",121.57159649650094,31.122291020369307,"2022-04-29"
"浦东新区","上海市浦东新区沪南路4855弄",121.53688426481492,31.18970225553777,"2022-04-29"
"浦东新区","上海市浦东新区沪一小区",121.59052954275143,31.27583955442008,"2022-04-29"
"浦东新区","上海市浦东新区花木街道龙王庙村南杨家堂",121.55896380577522,31.20272323948302,"2022-04-29"
"浦东新区","上海市浦东新区华丰路50弄",121.51450495930594,31.197495463859788,"2022-04-29"
"浦东新区","上海市浦东新区华鹏路300弄",121.53191420991986,31.178718348958242,"2022-04-29"
"浦东新区","上海市浦东新区华夏东路2170弄",121.6998972504552,31.205711633277275,"2022-04-29"
"浦东新区","上海市浦东新区华夏二路1255弄",121.69800191565969,31.18281197716778,"2022-04-29"
"浦东新区","上海市浦东新区华夏一路325弄",121.69413012908113,31.199287020883038,"2022-04-29"
"浦东新区","上海市浦东新区环林东路271弄",121.53316411220645,31.155298952705344,"2022-04-29"
"浦东新区","上海市浦东新区环林东路875弄",121.53759150074292,31.147101543815356,"2022-04-29"
"浦东新区","上海市浦东新区环林东路906弄",121.53547140990882,31.14792834793253,"2022-04-29"
"浦东新区","上海市浦东新区环桥路1137弄",121.58485970786411,31.120077939878794,"2022-04-29"
"浦东新区","上海市浦东新区环庆南路239弄",121.73137998400229,31.234790849212583,"2022-04-29"
"浦东新区","上海市浦东新区环庆南路508弄",121.73790500573512,31.23380795492502,"2022-04-29"
"浦东新区","上海市浦东新区惠南镇幸福村",121.78086269386668,31.032127628658696,"2022-04-29"
"浦东新区","上海市浦东新区惠南镇徐庙村",121.72120272155755,31.036218516427077,"2022-04-29"
"浦东新区","上海市浦东新区季景北路180弄",121.5909265039563,31.347849135892478,"2022-04-29"
"浦东新区","上海市浦东新区季景路333弄",121.59761771220847,31.340393689407513,"2022-04-29"
"浦东新区","上海市浦东新区济阳路95弄",121.48898329129251,31.169708122618275,"2022-04-29"
"浦东新区","上海市浦东新区佳虹路50弄",121.62059457054269,31.272324075533714,"2022-04-29"
"浦东新区","上海市浦东新区建中路171弄",121.52553031198265,31.139159418419815,"2022-04-29"
"浦东新区","上海市浦东新区江东路238号",121.55437400360253,31.365936814524236,"2022-04-29"
"浦东新区","上海市浦东新区江东路25号",121.55593013823747,31.368827676072844,"2022-04-29"
"浦东新区","上海市浦东新区江心沙路300号工地生活区",121.54560339775587,31.35108838675401,"2022-04-29"
"浦东新区","上海市浦东新区界浜路55弄",121.64995999800276,31.13373946927562,"2022-04-29"
"浦东新区","上海市浦东新区金港路333号",121.61945030898407,31.260379286098438,"2022-04-29"
"浦东新区","上海市浦东新区金高路2131弄",121.61704653326993,31.267471971131776,"2022-04-29"
"浦东新区","上海市浦东新区金海路2668弄",121.66390439443416,31.27182761854422,"2022-04-29"
"浦东新区","上海市浦东新区金沪路1218弄",121.61069129127848,31.246915347325004,"2022-04-29"
"浦东新区","上海市浦东新区金吉路33弄",121.65277879086253,31.290487771739045,"2022-04-29"
"浦东新区","上海市浦东新区金口路411弄",121.58648546117607,31.253118048256365,"2022-04-29"
"浦东新区","上海市浦东新区金口路53弄",121.58303381208452,31.256732646879147,"2022-04-29"
"浦东新区","上海市浦东新区金葵路945弄",121.60213861434853,31.244250205910852,"2022-04-29"
"浦东新区","上海市浦东新区金睦路353弄",121.68155771465513,31.29351069944203,"2022-04-29"
"浦东新区","上海市浦东新区金桥路1506弄",121.59646078454217,31.255564377215766,"2022-04-29"
"浦东新区","上海市浦东新区金桥路226弄",121.62178482534341,31.26066381567406,"2022-04-29"
"浦东新区","上海市浦东新区金桥路2552弄",121.60918438378549,31.23991303336551,"2022-04-29"
"浦东新区","上海市浦东新区金桥路2618号",121.61007999437895,31.23895589678164,"2022-04-29"
"浦东新区","上海市浦东新区金桥路351弄",121.57962303589369,31.273050854795017,"2022-04-29"
"浦东新区","上海市浦东新区金台路161弄",121.59399574439225,31.257889557480873,"2022-04-29"
"浦东新区","上海市浦东新区金湘路201弄",121.61976462608202,31.261871069580963,"2022-04-29"
"浦东新区","上海市浦东新区金杨新村街道金浜村",121.56814071520405,31.26326582816838,"2022-04-29"
"浦东新区","上海市浦东新区金杨路660弄",121.58839992987893,31.25750168417267,"2022-04-29"
"浦东新区","上海市浦东新区金杨路785弄",121.58943756257352,31.25969878847117,"2022-04-29"
"浦东新区","上海市浦东新区锦康路389弄",121.54370725448541,31.215896366181077,"2022-04-29"
"浦东新区","上海市浦东新区锦绣路3088弄",121.5462948235069,31.185731419409098,"2022-04-29"
"浦东新区","上海市浦东新区锦绣路3336弄",121.54705955098754,31.183574979857113,"2022-04-29"
"浦东新区","上海市浦东新区锦绣路3338弄",121.54528809252187,31.185490375783257,"2022-04-29"
"浦东新区","上海市浦东新区锦绣路4899弄",121.55466451560447,31.156063492623275,"2022-04-29"
"浦东新区","上海市浦东新区巨峰路176弄",121.60320166908903,31.285412489153977,"2022-04-29"
"浦东新区","上海市浦东新区巨峰路399弄",121.60283534010208,31.286491277884508,"2022-04-29"
"浦东新区","上海市浦东新区巨野路482弄",121.55494415810973,31.242174152454698,"2022-04-29"
"浦东新区","上海市浦东新区巨野路61弄",121.55233260433111,31.250494065864,"2022-04-29"
"浦东新区","上海市浦东新区康佳路39弄",121.6008710154434,31.134359526066635,"2022-04-29"
"浦东新区","上海市浦东新区康桥路1633弄",121.58485970786411,31.120077939878794,"2022-04-29"
"浦东新区","上海市浦东新区康桥镇花墙村",121.55274169266035,31.156328175262196,"2022-04-29"
"浦东新区","上海市浦东新区康桥镇火箭村",121.61498941365208,31.14512934591589,"2022-04-29"
"浦东新区","上海市浦东新区康桥镇人南村",121.63357553431462,31.14529322728839,"2022-04-29"
"浦东新区","上海市浦东新区康杉路151弄",121.56730133853553,31.15772404321492,"2022-04-29"
"浦东新区","上海市浦东新区康沈公路1300弄",121.57853779300709,31.143909537196446,"2022-04-29"
"浦东新区","上海市浦东新区康沈路1365弄",121.58357845471524,31.128538373131015,"2022-04-29"
"浦东新区","上海市浦东新区康沈路2262弄",121.58731262088966,31.107124171661162,"2022-04-29"
"浦东新区","上海市浦东新区康沈路465弄",121.58485970786411,31.120077939878794,"2022-04-29"
"浦东新区","上海市浦东新区康士路15弄",121.56951673958423,31.15566839870212,"2022-04-29"
"浦东新区","上海市浦东新区康梧路189号工地生活区",121.55714895915341,31.14227717699841,"2022-04-29"
"浦东新区","上海市浦东新区康泽路550弄",121.55045460683195,31.227348292436346,"2022-04-29"
"浦东新区","上海市浦东新区莱阳路451弄",121.5892918574198,31.282158997327386,"2022-04-29"
"浦东新区","上海市浦东新区蓝村路31弄",121.5391603913161,31.21864284083338,"2022-04-29"
"浦东新区","上海市浦东新区蓝村路471弄",121.5336015869898,31.217902204702717,"2022-04-29"
"浦东新区","上海市浦东新区蓝村路502弄",121.53109818919461,31.217261236649822,"2022-04-29"
"浦东新区","上海市浦东新区崂山路562号",121.52456993356193,31.243419157140636,"2022-04-29"
"浦东新区","上海市浦东新区崂山路571弄",121.52954349184849,31.232309393717138,"2022-04-29"
"浦东新区","上海市浦东新区崂山路645弄",121.53134881643189,31.227805460283697,"2022-04-29"
"浦东新区","上海市浦东新区崂山路80弄",121.52311467863576,31.244151178196617,"2022-04-29"
"浦东新区","上海市浦东新区崂山三村",121.52639681747759,31.238932508563483,"2022-04-29"
"浦东新区","上海市浦东新区崂山四村",121.52454199626058,31.24117281086977,"2022-04-29"
"浦东新区","上海市浦东新区老港镇牛肚村西沙",121.82734353620836,31.061069611364207,"2022-04-29"
"浦东新区","上海市浦东新区历城路100弄",121.49791550230043,31.179897773390458,"2022-04-29"
"浦东新区","上海市浦东新区历城路22弄",121.53688426481492,31.18970225553777,"2022-04-29"
"浦东新区","上海市浦东新区利川路421弄",121.68866573666394,31.21415577617192,"2022-04-29"
"浦东新区","上海市浦东新区利津路729弄",121.59658295409153,31.280678570870514,"2022-04-29"
"浦东新区","上海市浦东新区连波路26弄",121.55848438012455,31.200897848506106,"2022-04-29"
"浦东新区","上海市浦东新区连波路66弄",121.55848438012455,31.200897848506106,"2022-04-29"
"浦东新区","上海市浦东新区莲溪路550弄",121.56673648403086,31.186506523771744,"2022-04-29"
"浦东新区","上海市浦东新区莲溪路780弄",121.5687171578498,31.18347820498392,"2022-04-29"
"浦东新区","上海市浦东新区莲园路100弄",121.55499069033515,31.18933340697378,"2022-04-29"
"浦东新区","上海市浦东新区莲中路174弄",121.56363688086869,31.188634784044016,"2022-04-29"
"浦东新区","上海市浦东新区莲中路318弄",121.5644852405923,31.186504438505555,"2022-04-29"
"浦东新区","上海市浦东新区莲中路337弄",121.56475176783711,31.187770109319516,"2022-04-29"
"浦东新区","上海市浦东新区莲中路356弄",121.56492999165029,31.185761076768486,"2022-04-29"
"浦东新区","上海市浦东新区林鸣路326弄",121.5321656456321,31.13857122920478,"2022-04-29"
"浦东新区","上海市浦东新区林悦路125弄",121.52553031198265,31.139159418419815,"2022-04-29"
"浦东新区","上海市浦东新区林展路422弄",121.51619188722312,31.149587574480986,"2022-04-29"
"浦东新区","上海市浦东新区临沂北路255弄",121.52533744578967,31.209357790874485,"2022-04-29"
"浦东新区","上海市浦东新区临沂路181弄",121.52066814357934,31.19757925080322,"2022-04-29"
"浦东新区","上海市浦东新区灵山路1724弄",121.57452973348266,31.246303135635344,"2022-04-29"
"浦东新区","上海市浦东新区灵岩路56弄",121.50007296264374,31.17253829314167,"2022-04-29"
"浦东新区","上海市浦东新区灵岩南路156弄",121.50071075955583,31.164839185970084,"2022-04-29"
"浦东新区","上海市浦东新区灵岩南路769弄",121.50464470887566,31.155998287562003,"2022-04-29"
"浦东新区","上海市浦东新区凌河路420弄",121.60593224834773,31.279917054061343,"2022-04-29"
"浦东新区","上海市浦东新区凌空北路东靖路交界口工地生活区",121.70417291519104,31.25620932746729,"2022-04-29"
"浦东新区","上海市浦东新区凌兆路285弄",121.52553031198265,31.139159418419815,"2022-04-29"
"浦东新区","上海市浦东新区凌兆路379弄",121.52553031198265,31.139159418419815,"2022-04-29"
"浦东新区","上海市浦东新区凌兆路500弄",121.50674692343011,31.149108468583478,"2022-04-29"
"浦东新区","上海市浦东新区凌兆路530弄",121.50924389922127,31.147344676856857,"2022-04-29"
"浦东新区","上海市浦东新区凌兆路555弄",121.50815052578945,31.150254347365593,"2022-04-29"
"浦东新区","上海市浦东新区凌兆路586弄",121.52553031198265,31.139159418419815,"2022-04-29"
"浦东新区","上海市浦东新区柳埠路135弄",121.58893424199627,31.268891029980523,"2022-04-29"
"浦东新区","上海市浦东新区龙东大道云山路交界口工地生活区",121.65799345434795,31.23341820626681,"2022-04-29"
"浦东新区","上海市浦东新区龙居路180弄",121.56897173763133,31.258551238155807,"2022-04-29"
"浦东新区","上海市浦东新区龙阳路1188号",121.53717495647795,31.204222274391203,"2022-04-29"
"浦东新区","上海市浦东新区龙阳路1880弄",121.55929249576131,31.206698915055398,"2022-04-29"
"浦东新区","上海市浦东新区芦云路200弄",121.86504191507063,30.87912430958934,"2022-04-29"
"浦东新区","上海市浦东新区罗山路1502弄",121.575171482939,31.234888265801676,"2022-04-29"
"浦东新区","上海市浦东新区绿林路320弄",121.55483474449859,31.176162646734344,"2022-04-29"
"浦东新区","上海市浦东新区苗桥路935弄",121.60251662130713,31.104273708865044,"2022-04-29"
"浦东新区","上海市浦东新区妙川路1111弄",121.7206909569085,31.18840857614465,"2022-04-29"
"浦东新区","上海市浦东新区民冬路169号生活区",121.66090279640311,31.292515616607304,"2022-04-29"
"浦东新区","上海市浦东新区民耀路268弄",121.65922925323802,31.278209443845476,"2022-04-29"
"浦东新区","上海市浦东新区民雨路336弄",121.65277879086253,31.290487771739045,"2022-04-29"
"浦东新区","上海市浦东新区牡丹路259弄",121.5558250364928,31.214654701261765,"2022-04-29"
"浦东新区","上海市浦东新区南曹路901弄",121.67039869411853,31.20845261563489,"2022-04-29"
"浦东新区","上海市浦东新区南码头路1136弄",121.51972788720205,31.18987494042182,"2022-04-29"
"浦东新区","上海市浦东新区南码头路1378弄",121.5201362568869,31.185967442301106,"2022-04-29"
"浦东新区","上海市浦东新区南码头路144弄",121.51408347436066,31.20463778072207,"2022-04-29"
"浦东新区","上海市浦东新区南码头路450弄",121.5163195364361,31.200368116304254,"2022-04-29"
"浦东新区","上海市浦东新区南码头路451弄",121.51651428907066,31.200820319373893,"2022-04-29"
"浦东新区","上海市浦东新区南泉北路101弄",121.52204021541529,31.24412385486496,"2022-04-29"
"浦东新区","上海市浦东新区南泉北路1040弄",121.52687642278936,31.23176764245591,"2022-04-29"
"浦东新区","上海市浦东新区南泉北路170弄",121.5230033785831,31.24240169701636,"2022-04-29"
"浦东新区","上海市浦东新区南泉北路301弄",121.5231992990148,31.239984741026475,"2022-04-29"
"浦东新区","上海市浦东新区南泉路1211弄",121.52972225464497,31.219263571698672,"2022-04-29"
"浦东新区","上海市浦东新区南泉路1241弄",121.53036589054287,31.218280745927764,"2022-04-29"
"浦东新区","上海市浦东新区南泉路1250弄",121.52793112328862,31.217747714972386,"2022-04-29"
"浦东新区","上海市浦东新区年家浜路425弄",121.57891103894649,31.12004169237844,"2022-04-29"
"浦东新区","上海市浦东新区欧高路138弄",121.58406785155705,31.355366970307948,"2022-04-29"
"浦东新区","上海市浦东新区鹏岳路152弄",121.56093334060584,31.177214966797443,"2022-04-29"
"浦东新区","上海市浦东新区浦城路366弄",121.51934781414079,31.23366854412388,"2022-04-29"
"浦东新区","上海市浦东新区浦城路580弄",121.52108055563897,31.230158967011022,"2022-04-29"
"浦东新区","上海市浦东新区浦电路149弄",121.52770699606388,31.22447785725831,"2022-04-29"
"浦东新区","上海市浦东新区浦电路218号",121.53050378043865,31.22540742716823,"2022-04-29"
"浦东新区","上海市浦东新区浦电路221号",121.53004456666196,31.22498830738765,"2022-04-29"
"浦东新区","上海市浦东新区浦电路305弄",121.53191394042821,31.225381642362095,"2022-04-29"
"浦东新区","上海市浦东新区浦电路330弄",121.53452881793721,31.22662717934152,"2022-04-29"
"浦东新区","上海市浦东新区浦电路331弄",121.53518233519571,31.225922581402024,"2022-04-29"
"浦东新区","上海市浦东新区浦电路48弄",121.52301829045456,31.224774384963634,"2022-04-29"
"浦东新区","上海市浦东新区浦电路62弄",121.52494353882354,31.224365530063924,"2022-04-29"
"浦东新区","上海市浦东新区浦东北路4588弄",121.56919622417827,31.35421774378967,"2022-04-29"
"浦东新区","上海市浦东新区浦东大道136弄",121.52017353656555,31.24402420953977,"2022-04-29"
"浦东新区","上海市浦东新区浦东大道140弄",121.52166903557857,31.244048831438676,"2022-04-29"
"浦东新区","上海市浦东新区浦东大道1585弄",121.54725475277486,31.250760642806057,"2022-04-29"
"浦东新区","上海市浦东新区浦东大道1623弄",121.54904390785909,31.25176759291442,"2022-04-29"
"浦东新区","上海市浦东新区浦东大道1851弄",121.5524974433922,31.253101686701353,"2022-04-29"
"浦东新区","上海市浦东新区浦东大道2511弄",121.56640626692538,31.265127505972,"2022-04-29"
"浦东新区","上海市浦东新区浦东大道2515号",121.56712643845273,31.265071251049392,"2022-04-29"
"浦东新区","上海市浦东新区浦东大道2639弄",121.57382941450709,31.27009640284229,"2022-04-29"
"浦东新区","上海市浦东新区浦东大道2641弄",121.57542031356526,31.2714724426133,"2022-04-29"
"浦东新区","上海市浦东新区浦东大道2746弄",121.57975652409247,31.27446558512791,"2022-04-29"
"浦东新区","上海市浦东新区浦东大道2778弄",121.5813748214687,31.275651133477883,"2022-04-29"
"浦东新区","上海市浦东新区浦东大道290弄",121.52343779912772,31.24488774737473,"2022-04-29"
"浦东新区","上海市浦东新区浦东大道2970弄",121.58527436568751,31.2829352319847,"2022-04-29"
"浦东新区","上海市浦东新区浦东大道501弄",121.5251071202569,31.248512929274547,"2022-04-29"
"浦东新区","上海市浦东新区浦东南路1200号",121.52264360722634,31.23222393957297,"2022-04-29"
"浦东新区","上海市浦东新区浦东南路1288号",121.52355987884653,31.230896186745355,"2022-04-29"
"浦东新区","上海市浦东新区浦东南路1299号",121.52421420457999,31.230766807032126,"2022-04-29"
"浦东新区","上海市浦东新区浦东南路1449号",121.52469003700863,31.229342846411402,"2022-04-29"
"浦东新区","上海市浦东新区浦东南路1533号",121.5276446536615,31.227372301137734,"2022-04-29"
"浦东新区","上海市浦东新区浦东南路1700弄",121.5250607676926,31.22378497774176,"2022-04-29"
"浦东新区","上海市浦东新区浦东南路1862弄",121.5241351536951,31.221747612042826,"2022-04-29"
"浦东新区","上海市浦东新区浦东南路2108号",121.52288614971404,31.215786267718542,"2022-04-29"
"浦东新区","上海市浦东新区浦东南路2141弄",121.52295558872996,31.214304635560897,"2022-04-29"
"浦东新区","上海市浦东新区浦东南路2178弄",121.52048210450825,31.213021101599512,"2022-04-29"
"浦东新区","上海市浦东新区浦东南路2192弄",121.5198796110027,31.212275556710914,"2022-04-29"
"浦东新区","上海市浦东新区浦东南路2351弄",121.51946171927945,31.20559866583432,"2022-04-29"
"浦东新区","上海市浦东新区浦东南路3643弄",121.51224617010111,31.19512553650647,"2022-04-29"
"浦东新区","上海市浦东新区浦东南路3905弄",121.50819768682872,31.188934282771708,"2022-04-29"
"浦东新区","上海市浦东新区浦东南路575弄",121.51857302563842,31.242584396065254,"2022-04-29"
"浦东新区","上海市浦东新区浦东南路978号",121.52113418447793,31.236312064831985,"2022-04-29"
"浦东新区","上海市浦东新区浦明路233弄",121.5171928690529,31.23258212082952,"2022-04-29"
"浦东新区","上海市浦东新区浦三路12弄",121.51782779138736,31.202722003983574,"2022-04-29"
"浦东新区","上海市浦东新区浦三路277弄",121.52168933728309,31.199345245911452,"2022-04-29"
"浦东新区","上海市浦东新区浦三路288弄",121.51958191255669,31.198441132237164,"2022-04-29"
"浦东新区","上海市浦东新区浦三路635弄",121.52513218298063,31.195144302174068,"2022-04-29"
"浦东新区","上海市浦东新区浦三路637弄",121.52647389209034,31.194361315014945,"2022-04-29"
"浦东新区","上海市浦东新区浦三路741弄",121.52688172279186,31.19210877143124,"2022-04-29"
"浦东新区","上海市浦东新区浦三路秀浦路交界口工地生活区",121.61602489041343,31.135717238318502,"2022-04-29"
"浦东新区","上海市浦东新区栖山路100弄",121.5504374491967,31.247552793436665,"2022-04-29"
"浦东新区","上海市浦东新区栖山路1489弄",121.5710317318268,31.26382352513684,"2022-04-29"
"浦东新区","上海市浦东新区栖山路1558弄",121.57216036286955,31.26303980059529,"2022-04-29"
"浦东新区","上海市浦东新区栖山路401弄",121.55603344337112,31.253987830572694,"2022-04-29"
"浦东新区","上海市浦东新区栖山路465弄",121.5573284405943,31.253880941167854,"2022-04-29"
"浦东新区","上海市浦东新区栖霞路190弄",121.52608115292138,31.244186142787363,"2022-04-29"
"浦东新区","上海市浦东新区齐河路10弄",121.508225444469,31.18342313671538,"2022-04-29"
"浦东新区","上海市浦东新区齐恒路118弄",121.52509598126858,31.193085925433333,"2022-04-29"
"浦东新区","上海市浦东新区钱仓路313弄",121.52782548256064,31.245216318802356,"2022-04-29"
"浦东新区","上海市浦东新区勤政路88弄",121.630646878691,31.178079584411226,"2022-04-29"
"浦东新区","上海市浦东新区清溪路400弄",121.57747563657209,31.347650837499692,"2022-04-29"
"浦东新区","上海市浦东新区乳山路161弄",121.52801807926198,31.24159718403063,"2022-04-29"
"浦东新区","上海市浦东新区乳山路200弄",121.53552171501738,31.2435075340906,"2022-04-29"
"浦东新区","上海市浦东新区瑞福路52弄",121.60760264744353,31.101758418286778,"2022-04-29"
"浦东新区","上海市浦东新区瑞浦路611弄",121.59207364009254,31.097330078746456,"2022-04-29"
"浦东新区","上海市浦东新区瑞浦路612弄",121.59252090640595,31.09634543383294,"2022-04-29"
"浦东新区","上海市浦东新区瑞浦路8弄",121.55045460683195,31.227348292436346,"2022-04-29"
"浦东新区","上海市浦东新区三彩路166弄",121.52553031198265,31.139159418419815,"2022-04-29"
"浦东新区","上海市浦东新区三彩路59弄",121.50635553171944,31.132930313734967,"2022-04-29"
"浦东新区","上海市浦东新区三林路168号",121.50263852318024,31.141592189223104,"2022-04-29"
"浦东新区","上海市浦东新区三林路184号",121.5025309960107,31.14241486936929,"2022-04-29"
"浦东新区","上海市浦东新区三林路235号",121.50273652831137,31.143691257217654,"2022-04-29"
"浦东新区","上海市浦东新区三林路88弄",121.53688426481492,31.18970225553777,"2022-04-29"
"浦东新区","上海市浦东新区三林镇东明村北张队北张家宅",121.52958652068241,31.167835971840162,"2022-04-29"
"浦东新区","上海市浦东新区三林镇红旗村东桥队毛家塘",121.50789055617487,31.133660107274697,"2022-04-29"
"浦东新区","上海市浦东新区三林镇胡巷村吴家宅",121.5253544237638,31.166624028596264,"2022-04-29"
"浦东新区","上海市浦东新区三林镇临江村临江队王家渡",121.48103454515693,31.130823354677393,"2022-04-29"
"浦东新区","上海市浦东新区三林镇临江村王家宅队王家宅",121.48402985504939,31.126877924520862,"2022-04-29"
"浦东新区","上海市浦东新区三林镇南阜村高树队西汤家宅",121.52688154313076,31.136351345808084,"2022-04-29"
"浦东新区","上海市浦东新区三林镇天花庵村北陈队大陈家宅",121.53193954213525,31.128535900177152,"2022-04-29"
"浦东新区","上海市浦东新区三林镇天花庵村乐耕队",121.52853496425243,31.13252183088585,"2022-04-29"
"浦东新区","上海市浦东新区三林镇天花庵村闵北队闵家宅",121.53989017471241,31.12623849791897,"2022-04-29"
"浦东新区","上海市浦东新区三林镇天花庵村闵西队闵家宅",121.53989017471241,31.12623849791897,"2022-04-29"
"浦东新区","上海市浦东新区三林镇天花庵村南陈队大陈家宅",121.53193954213525,31.128535900177152,"2022-04-29"
"浦东新区","上海市浦东新区三林镇西林村圈门队西林街",121.50505047347453,31.142465402882358,"2022-04-29"
"浦东新区","上海市浦东新区三林镇西林村万家队西林街",121.50505047347453,31.142465402882358,"2022-04-29"
"浦东新区","上海市浦东新区三林镇新春村陈桥队陈家桥",121.48244489558725,31.134022953659134,"2022-04-29"
"浦东新区","上海市浦东新区三三公路5020弄",121.8799029424444,30.98125570677017,"2022-04-29"
"浦东新区","上海市浦东新区三舒路181弄",121.52553031198265,31.139159418419815,"2022-04-29"
"浦东新区","上海市浦东新区三舒路192弄",121.51063065747196,31.127855294432397,"2022-04-29"
"浦东新区","上海市浦东新区三舒路288弄",121.52553031198265,31.139159418419815,"2022-04-29"
"浦东新区","上海市浦东新区三舒路62弄",121.50989269949552,31.130409298630166,"2022-04-29"
"浦东新区","上海市浦东新区商城路108弄",121.515923024384,31.233896804114586,"2022-04-29"
"浦东新区","上海市浦东新区商城路1178弄",121.53443485518086,31.240368827626646,"2022-04-29"
"浦东新区","上海市浦东新区商城路991弄",121.53038996513054,31.239703853545254,"2022-04-29"
"浦东新区","上海市浦东新区上南路1000弄",121.50066746123024,31.180593835385782,"2022-04-29"
"浦东新区","上海市浦东新区上南路1251弄",121.50260627401242,31.178521236106434,"2022-04-29"
"浦东新区","上海市浦东新区上南路1500弄",121.50233130269582,31.17495691317739,"2022-04-29"
"浦东新区","上海市浦东新区上南路1551弄",121.50452460542898,31.17454150695551,"2022-04-29"
"浦东新区","上海市浦东新区上南路3323弄",121.58485970786411,31.120077939878794,"2022-04-29"
"浦东新区","上海市浦东新区上南路3500弄",121.52553031198265,31.139159418419815,"2022-04-29"
"浦东新区","上海市浦东新区上南路3521号",121.51158546639851,31.161595328123152,"2022-04-29"
"浦东新区","上海市浦东新区上南路3651弄",121.51345942152287,31.160585322193327,"2022-04-29"
"浦东新区","上海市浦东新区上南路6333弄",121.58485970786411,31.120077939878794,"2022-04-29"
"浦东新区","上海市浦东新区上南路6500弄",121.58485970786411,31.120077939878794,"2022-04-29"
"浦东新区","上海市浦东新区上南路6733弄",121.58485970786411,31.120077939878794,"2022-04-29"
"浦东新区","上海市浦东新区上南路929弄",121.50767882556616,31.18609371739358,"2022-04-29"
"浦东新区","上海市浦东新区上浦路510弄",121.50622294182614,31.152101739360106,"2022-04-29"
"浦东新区","上海市浦东新区申江路2877号",121.63314201207551,31.257179870039007,"2022-04-29"
"浦东新区","上海市浦东新区沈家弄路877弄",121.55290653172145,31.244431203293697,"2022-04-29"
"浦东新区","上海市浦东新区沈家弄路901弄",121.55289826731075,31.244971955008257,"2022-04-29"
"浦东新区","上海市浦东新区盛夏路1107弄",121.6408936699822,31.203976413616545,"2022-04-29"
"浦东新区","上海市浦东新区世博家园大道站路94弄",121.5456103147083,31.165459346349106,"2022-04-29"
"浦东新区","上海市浦东新区寿光路161弄",121.59052532071554,31.280396185422553,"2022-04-29"
"浦东新区","上海市浦东新区寿光路31弄",121.58946046936401,31.278797451050615,"2022-04-29"
"浦东新区","上海市浦东新区寿光路78弄",121.59210202654666,31.279390855434528,"2022-04-29"
"浦东新区","上海市浦东新区双桥路1108弄",121.58962611690005,31.28158489894264,"2022-04-29"
"浦东新区","上海市浦东新区硕川路125弄",121.69351928133435,31.206800376084324,"2022-04-29"
"浦东新区","上海市浦东新区思浦路13弄",121.50015946946435,31.164910255877725,"2022-04-29"
"浦东新区","上海市浦东新区松林路283号",121.5404480224341,31.233375904274755,"2022-04-29"
"浦东新区","上海市浦东新区台儿庄路663弄",121.60033796095378,31.264978881782035,"2022-04-29"
"浦东新区","上海市浦东新区唐安路1047弄",121.66241212932098,31.20981944772514,"2022-04-29"
"浦东新区","上海市浦东新区唐陆公路568弄",121.66143872547036,31.216980512569677,"2022-04-29"
"浦东新区","上海市浦东新区唐镇大众村小包新村",121.64158985675243,31.231177255064335,"2022-04-29"
"浦东新区","上海市浦东新区唐镇虹二村盛家宅",121.66420900983259,31.253451761612126,"2022-04-29"
"浦东新区","上海市浦东新区唐镇虹二村朱家宅",121.6683389694147,31.258308838536237,"2022-04-29"
"浦东新区","上海市浦东新区唐镇虹四村吴张家宅",121.65836822740671,31.246790543527457,"2022-04-29"
"浦东新区","上海市浦东新区唐镇虹一村奚家宅",121.6784437386048,31.23792225545962,"2022-04-29"
"浦东新区","上海市浦东新区唐镇机口村杨家宅",121.66776432337997,31.221193061059513,"2022-04-29"
"浦东新区","上海市浦东新区唐镇吕三村百胜新村",121.64555866032607,31.222123744432952,"2022-04-29"
"浦东新区","上海市浦东新区唐镇民丰村李家宅",121.64861595329873,31.214212833818383,"2022-04-29"
"浦东新区","上海市浦东新区唐镇民丰村陆家宅",121.64861595329873,31.214212833818383,"2022-04-29"
"浦东新区","上海市浦东新区唐镇民丰村西曹家宅",121.64861595329873,31.214212833818383,"2022-04-29"
"浦东新区","上海市浦东新区唐镇前进村墙圈西宅",121.6488813382852,31.20928905382768,"2022-04-29"
"浦东新区","上海市浦东新区唐镇前进村西李家宅",121.64855217360753,31.2141666626809,"2022-04-29"
"浦东新区","上海市浦东新区唐镇唐四村龚家宅",121.66768949453099,31.221019816280922,"2022-04-29"
"浦东新区","上海市浦东新区唐镇唐四村黄家东宅",121.6737448821432,31.224156161077826,"2022-04-29"
"浦东新区","上海市浦东新区唐镇小湾村北街",121.69783994129489,31.23973798369629,"2022-04-29"
"浦东新区","上海市浦东新区唐镇小湾村小湾新村",121.69666496756919,31.239619872733037,"2022-04-29"
"浦东新区","上海市浦东新区唐镇新虹村缪家宅",121.65503362752312,31.248713367963926,"2022-04-29"
"浦东新区","上海市浦东新区唐镇新镇村石家观音堂",121.64851480409831,31.22184743550307,"2022-04-29"
"浦东新区","上海市浦东新区唐镇新镇村谢家宅",121.64851480409831,31.22184743550307,"2022-04-29"
"浦东新区","上海市浦东新区唐镇一心村缪家宅",121.68884881132688,31.250038784030753,"2022-04-29"
"浦东新区","上海市浦东新区唐镇一心村徐家宅",121.69668850317356,31.258134582069808,"2022-04-29"
"浦东新区","上海市浦东新区塘南路159弄",121.51640083308476,31.208002070914677,"2022-04-29"
"浦东新区","上海市浦东新区塘桥路400弄",121.52454792507694,31.217074087356593,"2022-04-29"
"浦东新区","上海市浦东新区听悦路960弄",121.74632814701053,31.065708607149787,"2022-04-29"
"浦东新区","上海市浦东新区庭安路825弄",121.59522211107446,31.330511234667426,"2022-04-29"
"浦东新区","上海市浦东新区通济路616弄",121.75302402645134,31.061788826504,"2022-04-29"
"浦东新区","上海市浦东新区万祥镇万兴村万一",121.83031881388794,30.960326945814295,"2022-04-29"
"浦东新区","上海市浦东新区潍坊路280号",121.54108698714336,31.234311638397287,"2022-04-29"
"浦东新区","上海市浦东新区潍坊路328号工地生活区",121.54157988737668,31.234246410575576,"2022-04-29"
"浦东新区","上海市浦东新区潍坊路375弄",121.54147209071549,31.234748161879693,"2022-04-29"
"浦东新区","上海市浦东新区潍坊路606号",121.52801879790638,31.229204895697556,"2022-04-29"
"浦东新区","上海市浦东新区潍坊路716号",121.52839779300106,31.229747279368976,"2022-04-29"
"浦东新区","上海市浦东新区潍坊路89弄",121.52638702594753,31.229708372361436,"2022-04-29"
"浦东新区","上海市浦东新区五莲路100弄",121.58579735915542,31.281678100479343,"2022-04-29"
"浦东新区","上海市浦东新区五莲路1047弄",121.60139041568928,31.277745809783077,"2022-04-29"
"浦东新区","上海市浦东新区五莲路108弄",121.58877362497108,31.277157873113886,"2022-04-29"
"浦东新区","上海市浦东新区五莲路1769弄",121.60380012021979,31.290088693222955,"2022-04-29"
"浦东新区","上海市浦东新区五莲路30弄",121.58450074498232,31.281555271944608,"2022-04-29"
"浦东新区","上海市浦东新区五莲路759弄",121.59770287157082,31.276387222961237,"2022-04-29"
"浦东新区","上海市浦东新区五星路151弄",121.53688426481492,31.18970225553777,"2022-04-29"
"浦东新区","上海市浦东新区五星路231弄",121.53688426481492,31.18970225553777,"2022-04-29"
"浦东新区","上海市浦东新区西泰林路850弄",121.5468220390107,31.14873915128947,"2022-04-29"
"浦东新区","上海市浦东新区西营路170弄",121.48978601709622,31.172160880211475,"2022-04-29"
"浦东新区","上海市浦东新区西营南路68弄",121.52553031198265,31.139159418419815,"2022-04-29"
"浦东新区","上海市浦东新区下南路1071弄",121.54152697718213,31.191389935442906,"2022-04-29"
"浦东新区","上海市浦东新区下南路225弄",121.55278588929146,31.17539958371751,"2022-04-29"
"浦东新区","上海市浦东新区下南路276弄",121.53688426481492,31.18970225553777,"2022-04-29"
"浦东新区","上海市浦东新区下南路309弄",121.52969618510942,31.207201251711854,"2022-04-29"
"浦东新区","上海市浦东新区下南路320弄",121.547891741212,31.175548813657176,"2022-04-29"
"浦东新区","上海市浦东新区下南路339弄",121.55064127471694,31.17679107417024,"2022-04-29"
"浦东新区","上海市浦东新区下南路370弄",121.53688426481492,31.18970225553777,"2022-04-29"
"浦东新区","上海市浦东新区下南路500弄",121.5437208188986,31.177967587760506,"2022-04-29"
"浦东新区","上海市浦东新区下南路526弄",121.54440200396682,31.17804189176027,"2022-04-29"
"浦东新区","上海市浦东新区下南路551弄",121.54679904238965,31.179016875274282,"2022-04-29"
"浦东新区","上海市浦东新区夏碧路380弄",121.59318699994161,31.34344584073284,"2022-04-29"
"浦东新区","上海市浦东新区新场镇众安村",121.65674471985852,31.003942768973364,"2022-04-29"
"浦东新区","上海市浦东新区新川路640弄",121.70007250986019,31.199402853132074,"2022-04-29"
"浦东新区","上海市浦东新区新川路742弄",121.6983041954638,31.197288197034478,"2022-04-29"
"浦东新区","上海市浦东新区新德路365弄",121.704561252663,31.203165624453405,"2022-04-29"
"浦东新区","上海市浦东新区新德西路508弄",121.67638760712302,31.198096102613977,"2022-04-29"
"浦东新区","上海市浦东新区新龙路203弄",121.63662186796006,31.32035094299062,"2022-04-29"
"浦东新区","上海市浦东新区新龙路289弄",121.65277879086253,31.290487771739045,"2022-04-29"
"浦东新区","上海市浦东新区新龙路423弄",121.63752789889742,31.317993846329205,"2022-04-29"
"浦东新区","上海市浦东新区新龙路69弄",121.63439002792052,31.32351248858295,"2022-04-29"
"浦东新区","上海市浦东新区新浦路199弄",121.54524578233234,31.1712264561122,"2022-04-29"
"浦东新区","上海市浦东新区新浦路346弄",121.54187632819497,31.17754663363552,"2022-04-29"
"浦东新区","上海市浦东新区新浦路543弄",121.536926664835,31.1758010055361,"2022-04-29"
"浦东新区","上海市浦东新区新浦路587弄",121.532965137536,31.19272295943645,"2022-04-29"
"浦东新区","上海市浦东新区新浦路629弄",121.54201269097139,31.17757706597876,"2022-04-29"
"浦东新区","上海市浦东新区新元南路正茂路交界口工地生活区",121.82788341781985,30.883671131631182,"2022-04-29"
"浦东新区","上海市浦东新区新园路251弄",121.65277879086253,31.290487771739045,"2022-04-29"
"浦东新区","上海市浦东新区新跃路154弄",121.65277879086253,31.290487771739045,"2022-04-29"
"浦东新区","上海市浦东新区秀浦路788弄",121.58085533139229,31.13305774209223,"2022-04-29"
"浦东新区","上海市浦东新区秀浦路800弄",121.58485970786411,31.120077939878794,"2022-04-29"
"浦东新区","上海市浦东新区秀沿路1168弄",121.58485970786411,31.120077939878794,"2022-04-29"
"浦东新区","上海市浦东新区秀沿路1弄",121.58485970786411,31.120077939878794,"2022-04-29"
"浦东新区","上海市浦东新区秀沿路2501弄",121.60721008793567,31.144675483422116,"2022-04-29"
"浦东新区","上海市浦东新区秀沿路2875弄",121.61606648195854,31.14493023082232,"2022-04-29"
"浦东新区","上海市浦东新区秀沿西路68弄",121.5437560324746,31.137587866279553,"2022-04-29"
"浦东新区","上海市浦东新区宣桥镇新安村宣治",121.6928753759448,31.02321599120978,"2022-04-29"
"浦东新区","上海市浦东新区宣桥镇腰路村丰乐",121.69316382184405,31.079587573682847,"2022-04-29"
"浦东新区","上海市浦东新区宣桥镇张家桥村胡桥",121.69352741279583,31.05082231080263,"2022-04-29"
"浦东新区","上海市浦东新区宣中路289号生活区",121.7105209707384,31.03714786266747,"2022-04-29"
"浦东新区","上海市浦东新区学北路20弄",121.71138639826671,31.195721248087228,"2022-04-29"
"浦东新区","上海市浦东新区学前二村",121.59049253256443,31.352587432129926,"2022-04-29"
"浦东新区","上海市浦东新区雪野二路296号工地生活区",121.48186305578379,31.183182003977617,"2022-04-29"
"浦东新区","上海市浦东新区雪野路34弄",121.50382231018129,31.186552940240503,"2022-04-29"
"浦东新区","上海市浦东新区严民路280弄",121.53597113726404,31.19393302081896,"2022-04-29"
"浦东新区","上海市浦东新区严民路40弄",121.53536082850054,31.198209156327895,"2022-04-29"
"浦东新区","上海市浦东新区严桥路108弄",121.53382301929801,31.195882878797548,"2022-04-29"
"浦东新区","上海市浦东新区严桥路150弄",121.53448201622014,31.195514826808072,"2022-04-29"
"浦东新区","上海市浦东新区严桥路240弄",121.53492065880066,31.193886685231437,"2022-04-29"
"浦东新区","上海市浦东新区严杨路165弄",121.53577251722662,31.201033280595517,"2022-04-29"
"浦东新区","上海市浦东新区严杨路30弄",121.53251293054227,31.198276108155607,"2022-04-29"
"浦东新区","上海市浦东新区严镇路75弄",121.53464398070359,31.197513842937667,"2022-04-29"
"浦东新区","上海市浦东新区严中路373弄",121.53998216119663,31.194854708119824,"2022-04-29"
"浦东新区","上海市浦东新区严中路388弄",121.53951540165365,31.194842892663416,"2022-04-29"
"浦东新区","上海市浦东新区杨高北路4705弄",121.61156103067324,31.284400886766342,"2022-04-29"
"浦东新区","上海市浦东新区杨高南路1218弄",121.53687276650439,31.21100851827807,"2022-04-29"
"浦东新区","上海市浦东新区杨高南路2140弄",121.5300002802003,31.194284938858367,"2022-04-29"
"浦东新区","上海市浦东新区杨高南路3288弄",121.52558241370224,31.17462515993693,"2022-04-29"
"浦东新区","上海市浦东新区杨高南路5055弄",121.5375261041018,31.15615318813709,"2022-04-29"
"浦东新区","上海市浦东新区杨高南路5777弄",121.55032695761899,31.13422383103704,"2022-04-29"
"浦东新区","上海市浦东新区杨高中路10弄",121.60637358584478,31.263420011224802,"2022-04-29"
"浦东新区","上海市浦东新区杨高中路750弄",121.59125249902587,31.258041279869,"2022-04-29"
"浦东新区","上海市浦东新区杨莲路310弄",121.53688426481492,31.18970225553777,"2022-04-29"
"浦东新区","上海市浦东新区杨南路1015弄",121.513807514908,31.158434098472167,"2022-04-29"
"浦东新区","上海市浦东新区杨南路1899弄",121.5254800068741,31.16142174137021,"2022-04-29"
"浦东新区","上海市浦东新区杨南路399弄",121.50366115417279,31.157416719188546,"2022-04-29"
"浦东新区","上海市浦东新区杨南路694弄",121.5075548594058,31.15539096668121,"2022-04-29"
"浦东新区","上海市浦东新区杨思路1121弄",121.51244631256873,31.17079365323609,"2022-04-29"
"浦东新区","上海市浦东新区杨思路502弄",121.50139050733522,31.165181479780415,"2022-04-29"
"浦东新区","上海市浦东新区杨思新村",121.60064563059096,31.22441717742983,"2022-04-29"
"浦东新区","上海市浦东新区杨新路197弄",121.4985201517392,31.168845590720398,"2022-04-29"
"浦东新区","上海市浦东新区杨新路198弄",121.49847972799125,31.16923244104267,"2022-04-29"
"浦东新区","上海市浦东新区杨新路80弄",121.50033351024607,31.169613156321486,"2022-04-29"
"浦东新区","上海市浦东新区杨新路89号",121.50026124747863,31.169317102961088,"2022-04-29"
"浦东新区","上海市浦东新区杨新路93弄",121.500194952532,31.169327994680454,"2022-04-29"
"浦东新区","上海市浦东新区杨新路95号",121.50000567956104,31.169272995347065,"2022-04-29"
"浦东新区","上海市浦东新区耀华路220弄",121.49739223934087,31.179261334020538,"2022-04-29"
"浦东新区","上海市浦东新区耀华路414弄",121.4922269826585,31.1790527910542,"2022-04-29"
"浦东新区","上海市浦东新区耀华路550弄",121.48745123124523,31.17598769660649,"2022-04-29"
"浦东新区","上海市浦东新区耀华路579弄",121.48605966617973,31.178810494440008,"2022-04-29"
"浦东新区","上海市浦东新区耀华支路2号工地生活区",121.47580380200287,31.18162347553838,"2022-04-29"
"浦东新区","上海市浦东新区耀元路228弄",121.48032983521631,31.176939830936618,"2022-04-29"
"浦东新区","上海市浦东新区益江路299弄",121.63722957163755,31.203502759161672,"2022-04-29"
"浦东新区","上海市浦东新区银冬路568号生活区",121.6430255286185,31.211687980386134,"2022-04-29"
"浦东新区","上海市浦东新区银山路185弄",121.58695895801038,31.25051351504703,"2022-04-29"
"浦东新区","上海市浦东新区银山路200弄",121.5865512171394,31.249723658859708,"2022-04-29"
"浦东新区","上海市浦东新区英伦路111号生活区",121.61571695128461,31.31625801087798,"2022-04-29"
"浦东新区","上海市浦东新区樱花路801弄",121.56703597908788,31.214397826976995,"2022-04-29"
"浦东新区","上海市浦东新区樱花路802弄",121.567473903024,31.213807021168357,"2022-04-29"
"浦东新区","上海市浦东新区永泰路133弄",121.50921573646319,31.141593889142552,"2022-04-29"
"浦东新区","上海市浦东新区永泰路2079弄",121.52553031198265,31.139159418419815,"2022-04-29"
"浦东新区","上海市浦东新区永泰路595弄",121.52107274038106,31.1462686284638,"2022-04-29"
"浦东新区","上海市浦东新区永泰路630弄",121.52411305537956,31.145365857319558,"2022-04-29"
"浦东新区","上海市浦东新区永业路188弄",121.62271349357962,31.2730736171925,"2022-04-29"
"浦东新区","上海市浦东新区御衡路68弄",121.58833740781544,31.159592610343985,"2022-04-29"
"浦东新区","上海市浦东新区御桥路1978弄",121.53688426481492,31.18970225553777,"2022-04-29"
"浦东新区","上海市浦东新区御青路260弄",121.58485970786411,31.120077939878794,"2022-04-29"
"浦东新区","上海市浦东新区御青路56弄",121.57846907263557,31.165031924344618,"2022-04-29"
"浦东新区","上海市浦东新区御山路360弄",121.57468244541937,31.162035666910167,"2022-04-29"
"浦东新区","上海市浦东新区园二路299弄",121.64100182596562,31.32307691964883,"2022-04-29"
"浦东新区","上海市浦东新区源深路600弄",121.54036717493821,31.237760542935803,"2022-04-29"
"浦东新区","上海市浦东新区源深路836号",121.54275496081428,31.233473322337247,"2022-04-29"
"浦东新区","上海市浦东新区云山路1395弄",121.58422676180179,31.251544007243965,"2022-04-29"
"浦东新区","上海市浦东新区云山路999弄",121.57850922689187,31.258196243274657,"2022-04-29"
"浦东新区","上海市浦东新区云台路183弄",121.51061853034757,31.18339896227592,"2022-04-29"
"浦东新区","上海市浦东新区运通路6号",121.70354122675643,31.220848887294732,"2022-04-29"
"浦东新区","上海市浦东新区韵涛路36弄",121.58485970786411,31.120077939878794,"2022-04-29"
"浦东新区","上海市浦东新区枣庄路1029弄",121.59182229421084,31.253388167854528,"2022-04-29"
"浦东新区","上海市浦东新区枣庄路118弄",121.57682670067167,31.265418040115406,"2022-04-29"
"浦东新区","上海市浦东新区枣庄路210弄",121.57738921958203,31.264391559266734,"2022-04-29"
"浦东新区","上海市浦东新区枣庄路212弄",121.57786065031368,31.264191617202933,"2022-04-29"
"浦东新区","上海市浦东新区张东路2281弄",121.64333032367801,31.207984388824055,"2022-04-29"
"浦东新区","上海市浦东新区张江镇环东中心村桥弄天主堂宅",121.66135985424658,31.186761234826417,"2022-04-29"
"浦东新区","上海市浦东新区张江镇沔北村朱家宅",121.63755026670462,31.173264843515458,"2022-04-29"
"浦东新区","上海市浦东新区张江镇沔北村诸家宅",121.62881011341473,31.167725971391313,"2022-04-29"
"浦东新区","上海市浦东新区张江镇钱堂村立达宅",121.59951870632868,31.16388174546565,"2022-04-29"
"浦东新区","上海市浦东新区张杨北路5848弄",121.57990160043234,31.354634741889846,"2022-04-29"
"浦东新区","上海市浦东新区张杨北路588弄",121.59521528395258,31.275260170384,"2022-04-29"
"浦东新区","上海市浦东新区张杨路1673弄",121.54977189464437,31.243332632552367,"2022-04-29"
"浦东新区","上海市浦东新区张杨路1698弄",121.55169444809684,31.241769773219296,"2022-04-29"
"浦东新区","上海市浦东新区张杨路310弄",121.51973938551258,31.230805867990643,"2022-04-29"
"浦东新区","上海市浦东新区张杨路370弄",121.52153842195742,31.232164345489466,"2022-04-29"
"浦东新区","上海市浦东新区招远路19弄",121.5212299438453,31.241645116927586,"2022-04-29"
"浦东新区","上海市浦东新区赵高公路610号",121.63297295097853,31.3220401216688,"2022-04-29"
"浦东新区","上海市浦东新区中科路2500弄",121.64225927401847,31.19489787699694,"2022-04-29"
"浦东新区","上海市浦东新区中科路2635弄",121.64420248849765,31.19692918571442,"2022-04-29"
"浦东新区","上海市浦东新区周东路191弄",121.59391561554075,31.118618136099798,"2022-04-29"
"浦东新区","上海市浦东新区周东路782弄",121.59005002727021,31.131798210671896,"2022-04-29"
"浦东新区","上海市浦东新区周汇路158弄",121.58485970786411,31.120077939878794,"2022-04-29"
"浦东新区","上海市浦东新区周浦镇果园村",121.65534489038232,31.119031239374493,"2022-04-29"
"浦东新区","上海市浦东新区周浦镇里仁村",121.57510536765346,31.11385058423264,"2022-04-29"
"浦东新区","上海市浦东新区周浦镇沈西村梅林",121.5686535578197,31.092572579867824,"2022-04-29"
"浦东新区","上海市浦东新区周浦镇周南村",121.58997088655478,31.111919735760996,"2022-04-29"
"浦东新区","上海市浦东新区周泰路32弄",121.6074340354993,31.107255809071958,"2022-04-29"
"浦东新区","上海市浦东新区周星路500弄",121.58569980317705,31.10805931117418,"2022-04-29"
"浦东新区","上海市浦东新区周阳路259弄",121.60888848195052,31.099949769998247,"2022-04-29"
"浦东新区","上海市浦东新区周园路1680弄",121.58485970786411,31.120077939878794,"2022-04-29"
"浦东新区","上海市浦东新区竹柏路366弄",121.91499695397218,30.907133597652976,"2022-04-29"
"浦东新区","上海市浦东新区祝家港路255弄",121.59479110409077,31.11633571743616,"2022-04-29"
"浦东新区","上海市浦东新区祝家港路399弄",121.59834659729927,31.11752350025074,"2022-04-29"
"浦东新区","上海市浦东新区祝桥镇红旗村俞家宅",121.76247042753317,31.175560477063783,"2022-04-29"
"浦东新区","上海市浦东新区祝桥镇义泓村果园",121.84381262027553,31.081963820725456,"2022-04-29"
"浦东新区","上海市浦东新区梓康路580弄",121.5673160707459,31.12887508064723,"2022-04-29"
"浦东新区","上海市浦东新区紫叶路147弄",121.55761715598521,31.189430793638948,"2022-04-29"
"浦东新区","上海市浦东新区紫叶路51弄",121.55761401191593,31.190270894229712,"2022-04-29"
"浦东新区","上海市浦东新区邹平路191号工地生活区",121.52160058469872,31.17630685482829,"2022-04-29"
"浦东新区","上海市浦东新区祖冲之路集创路交界口工地生活区",121.61474219997574,31.21136917429053,"2022-04-29"
"黄浦区","上海市黄浦区保屯路180号",121.49690715436547,31.21032241096919,"2022-04-29"
"黄浦区","上海市黄浦区保屯路211弄",121.4983058160445,31.209535149529046,"2022-04-29"
"黄浦区","上海市黄浦区保屯路50弄",121.4963149913733,31.211889115666636,"2022-04-29"
"黄浦区","上海市黄浦区北海路267弄",121.48451934172178,31.236080259939193,"2022-04-29"
"黄浦区","上海市黄浦区北京东路228弄",121.49144446872876,31.246235400016047,"2022-04-29"
"黄浦区","上海市黄浦区北京东路288弄",121.49064632428312,31.24648026991378,"2022-04-29"
"黄浦区","上海市黄浦区北京东路316弄",121.47709924837882,31.20540045126984,"2022-04-29"
"黄浦区","上海市黄浦区北京东路345号",121.48980955270059,31.24591737537902,"2022-04-29"
"黄浦区","上海市黄浦区北京东路431弄",121.48868846742414,31.24544624864965,"2022-04-29"
"黄浦区","上海市黄浦区北京东路460号",121.48788717890925,31.245762623168268,"2022-04-29"
"黄浦区","上海市黄浦区北京西路256号",121.47543316114945,31.241795244763107,"2022-04-29"
"黄浦区","上海市黄浦区北京西路266号",121.47505937622675,31.241763289552495,"2022-04-29"
"黄浦区","上海市黄浦区曹家街45号",121.49297203724846,31.2246563452789,"2022-04-29"
"黄浦区","上海市黄浦区曹家街48弄",121.49272518289433,31.224468361562568,"2022-04-29"
"黄浦区","上海市黄浦区曹家弄11号",121.49158559252436,31.23724715206362,"2022-04-29"
"黄浦区","上海市黄浦区曹市弄42弄",121.49565482665402,31.22491172460565,"2022-04-29"
"黄浦区","上海市黄浦区长乐路434弄",121.46552934290195,31.226872671844372,"2022-04-29"
"黄浦区","上海市黄浦区成都北路274弄",121.47402731302634,31.23458605790647,"2022-04-29"
"黄浦区","上海市黄浦区成都北路600号",121.4734697347963,31.240024184075967,"2022-04-29"
"黄浦区","上海市黄浦区成都南路132弄",121.4741907147986,31.227598106146772,"2022-04-29"
"黄浦区","上海市黄浦区重庆北路212号",121.4764415090844,31.233133439385597,"2022-04-29"
"黄浦区","上海市黄浦区重庆南路169弄",121.47815610481129,31.223155630252226,"2022-04-29"
"黄浦区","上海市黄浦区重庆南路177号",121.47780998769831,31.222069856921387,"2022-04-29"
"黄浦区","上海市黄浦区重庆南路18号",121.47785274704057,31.226858853258328,"2022-04-29"
"黄浦区","上海市黄浦区重庆南路205弄",121.47758550115135,31.220500929265803,"2022-04-29"
"黄浦区","上海市黄浦区重庆南路26弄",121.49158559252436,31.23724715206362,"2022-04-29"
"黄浦区","上海市黄浦区重庆南路283号",121.4799154361526,31.215368262979844,"2022-04-29"
"黄浦区","上海市黄浦区重庆南路30弄",121.47781816227844,31.225337947135458,"2022-04-29"
"黄浦区","上海市黄浦区打浦路25号",121.47709745176779,31.209731965509583,"2022-04-29"
"黄浦区","上海市黄浦区打浦路303弄",121.47819518110099,31.205904673705177,"2022-04-29"
"黄浦区","上海市黄浦区打浦路316弄",121.4771429060266,31.205298679857936,"2022-04-29"
"黄浦区","上海市黄浦区打浦路318号",121.47860561688849,31.20485661383005,"2022-04-29"
"黄浦区","上海市黄浦区打浦路339弄",121.4785522575412,31.20529674944314,"2022-04-29"
"黄浦区","上海市黄浦区打浦路350号",121.47811352513013,31.20448373240891,"2022-04-29"
"黄浦区","上海市黄浦区打浦路38弄",121.47639291075632,31.210670792891353,"2022-04-29"
"黄浦区","上海市黄浦区打浦路470弄",121.4793632477556,31.203063078428812,"2022-04-29"
"黄浦区","上海市黄浦区打浦路92号",121.47714245687384,31.20872726539746,"2022-04-29"
"黄浦区","上海市黄浦区大夫坊25号",121.49158559252436,31.23724715206362,"2022-04-29"
"黄浦区","上海市黄浦区大夫坊39号",121.49158559252436,31.23724715206362,"2022-04-29"
"黄浦区","上海市黄浦区大沽路183弄",121.4776655401723,31.231942951592927,"2022-04-29"
"黄浦区","上海市黄浦区大沽路191号",121.47719725350996,31.23195283250325,"2022-04-29"
"黄浦区","上海市黄浦区大沽路254号",121.47588581729593,31.231991738577477,"2022-04-29"
"黄浦区","上海市黄浦区大吉路26弄",121.44960310485445,31.229682897526317,"2022-04-29"
"黄浦区","上海市黄浦区大吉路44弄",121.49289433382184,31.220721578194794,"2022-04-29"
"黄浦区","上海市黄浦区大吉路57号",121.49302997795387,31.221047841193307,"2022-04-29"
"黄浦区","上海市黄浦区大林路256号",121.49097833799962,31.2181194626927,"2022-04-29"
"黄浦区","上海市黄浦区大林路31弄",121.494257961586,31.21938293066933,"2022-04-29"
"黄浦区","上海市黄浦区大林路39号",121.49412923440642,31.219539502231903,"2022-04-29"
"黄浦区","上海市黄浦区大林路43弄",121.49331950181971,31.219241105018995,"2022-04-29"
"黄浦区","上海市黄浦区淡水路208号",121.47968070892283,31.223454014985784,"2022-04-29"
"黄浦区","上海市黄浦区淡水路210号",121.47965304111312,31.22346984131636,"2022-04-29"
"黄浦区","上海市黄浦区淡水路214弄",121.47901048318184,31.22338754436811,"2022-04-29"
"黄浦区","上海市黄浦区淡水路219号",121.47987438359078,31.223029250713488,"2022-04-29"
"黄浦区","上海市黄浦区淡水路225弄",121.47987824630448,31.222755183320498,"2022-04-29"
"黄浦区","上海市黄浦区淡水路227弄",121.4798842649514,31.222721059943833,"2022-04-29"
"黄浦区","上海市黄浦区淡水路229弄",121.48032443465128,31.222361837307538,"2022-04-29"
"黄浦区","上海市黄浦区淡水路232号",121.47969454282769,31.223005626907845,"2022-04-29"
"黄浦区","上海市黄浦区淡水路266弄",121.47956931903958,31.22204785413196,"2022-04-29"
"黄浦区","上海市黄浦区淡水路274号",121.47971205978513,31.222110156753878,"2022-04-29"
"黄浦区","上海市黄浦区淡水路460弄",121.48045567708628,31.21706227470301,"2022-04-29"
"黄浦区","上海市黄浦区定兴路16号",121.47778178090529,31.241308659890365,"2022-04-29"
"黄浦区","上海市黄浦区豆市街75号",121.50962096207874,31.22554986107413,"2022-04-29"
"黄浦区","上海市黄浦区多稼路168号",121.50854613953605,31.217449003221493,"2022-04-29"
"黄浦区","上海市黄浦区多稼路208号",121.50854919377478,31.217548136407576,"2022-04-29"
"黄浦区","上海市黄浦区方斜路401弄",121.49001086296538,31.22040782112921,"2022-04-29"
"黄浦区","上海市黄浦区方斜路403号",121.49002604432849,31.22035130768771,"2022-04-29"
"黄浦区","上海市黄浦区方斜路405号",121.48998984261645,31.22031185634426,"2022-04-29"
"黄浦区","上海市黄浦区凤阳路228弄",121.4782059607671,31.240573683460127,"2022-04-29"
"黄浦区","上海市黄浦区凤阳路358弄",121.47565019176066,31.240041088234957,"2022-04-29"
"黄浦区","上海市黄浦区福建中路225号",121.48776069749343,31.240106234828197,"2022-04-29"
"黄浦区","上海市黄浦区福州路105号",121.494982804302,31.240828710592687,"2022-04-29"
"黄浦区","上海市黄浦区福州路384弄",121.4896390543148,31.24003344662922,"2022-04-29"
"黄浦区","上海市黄浦区福州路614弄",121.48585503218456,31.238969867958666,"2022-04-29"
"黄浦区","上海市黄浦区福州路646号",121.4849942758449,31.238336994702173,"2022-04-29"
"黄浦区","上海市黄浦区复兴东路322号",121.50490144459042,31.22644823188489,"2022-04-29"
"黄浦区","上海市黄浦区复兴东路330号",121.50468549194582,31.226560942574764,"2022-04-29"
"黄浦区","上海市黄浦区复兴东路338号",121.50448732575032,31.226565034124658,"2022-04-29"
"黄浦区","上海市黄浦区复兴东路346号",121.50437126467844,31.226603324847012,"2022-04-29"
"黄浦区","上海市黄浦区复兴东路354号",121.5043178155006,31.22667620069466,"2022-04-29"
"黄浦区","上海市黄浦区复兴东路404弄",121.50363519314355,31.226892511933613,"2022-04-29"
"黄浦区","上海市黄浦区复兴东路427弄",121.50331701333192,31.227640333552948,"2022-04-29"
"黄浦区","上海市黄浦区复兴东路443弄",121.50292265721305,31.22774671256482,"2022-04-29"
"黄浦区","上海市黄浦区复兴东路663弄",121.49812238205936,31.227977302939546,"2022-04-29"
"黄浦区","上海市黄浦区复兴中路408弄",121.48013579049419,31.222547895195856,"2022-04-29"
"黄浦区","上海市黄浦区复兴中路480弄",121.47929767145337,31.221615826383537,"2022-04-29"
"黄浦区","上海市黄浦区复兴中路616弄",121.47034767399637,31.22099541993162,"2022-04-29"
"黄浦区","上海市黄浦区高家横弄11号",121.49158559252436,31.23724715206362,"2022-04-29"
"黄浦区","上海市黄浦区高家横弄18弄",121.47198797985759,31.216227432867615,"2022-04-29"
"黄浦区","上海市黄浦区高家横弄19弄",121.49158559252436,31.23724715206362,"2022-04-29"
"黄浦区","上海市黄浦区高家弄45弄",121.49158559252436,31.23724715206362,"2022-04-29"
"黄浦区","上海市黄浦区高家弄47号",121.49158559252436,31.23724715206362,"2022-04-29"
"黄浦区","上海市黄浦区高家弄60号",121.49158559252436,31.23724715206362,"2022-04-29"
"黄浦区","上海市黄浦区高家弄66弄",121.48457854005488,31.235498236464565,"2022-04-29"
"黄浦区","上海市黄浦区高家弄69号",121.49158559252436,31.23724715206362,"2022-04-29"
"黄浦区","上海市黄浦区牯岭路145弄",121.47755549774732,31.24176792074311,"2022-04-29"
"黄浦区","上海市黄浦区光启路103弄",121.5013700259696,31.229773834936267,"2022-04-29"
"黄浦区","上海市黄浦区光启路215号",121.50080651892318,31.22807796893098,"2022-04-29"
"黄浦区","上海市黄浦区光启南路77号",121.501123261446,31.226405926741588,"2022-04-29"
"黄浦区","上海市黄浦区广东路138号",121.49468869907803,31.239072374652263,"2022-04-29"
"黄浦区","上海市黄浦区广东路154号",121.49473226689527,31.23924836479793,"2022-04-29"
"黄浦区","上海市黄浦区广东路543号",121.48757789232216,31.237774668670987,"2022-04-29"
"黄浦区","上海市黄浦区广东路658号",121.48564419988136,31.237121023127695,"2022-04-29"
"黄浦区","上海市黄浦区广西北路134号",121.48530068785436,31.237511837019422,"2022-04-29"
"黄浦区","上海市黄浦区广西北路228弄",121.48509955725068,31.239119228201453,"2022-04-29"
"黄浦区","上海市黄浦区广西北路255弄",121.48385756005258,31.23977409479168,"2022-04-29"
"黄浦区","上海市黄浦区广西北路425号",121.48325982756623,31.242142814863154,"2022-04-29"
"黄浦区","上海市黄浦区广西南路21号",121.4871400582166,31.234939907359664,"2022-04-29"
"黄浦区","上海市黄浦区贵州路169号",121.48244407633263,31.242832856936698,"2022-04-29"
"黄浦区","上海市黄浦区国货路236号",121.50191969911116,31.214328570399072,"2022-04-29"
"黄浦区","上海市黄浦区海潮路256弄",121.50354920089032,31.212886788443296,"2022-04-29"
"黄浦区","上海市黄浦区海潮路93弄",121.50591203828914,31.214961528834515,"2022-04-29"
"黄浦区","上海市黄浦区海口路7号",121.4875090821201,31.237125345786836,"2022-04-29"
"黄浦区","上海市黄浦区汉口路425号",121.48889507769142,31.24069556243378,"2022-04-29"
"黄浦区","上海市黄浦区汉口路678号",121.48426682804292,31.239647583321876,"2022-04-29"
"黄浦区","上海市黄浦区河南南路1009弄",121.49991432189067,31.21898161833823,"2022-04-29"
"黄浦区","上海市黄浦区河南南路600弄",121.49730555285915,31.22561733375389,"2022-04-29"
"黄浦区","上海市黄浦区河南南路790弄",121.49854009412151,31.222041137489935,"2022-04-29"
"黄浦区","上海市黄浦区河南中路130号",121.4928857999195,31.23889167565376,"2022-04-29"
"黄浦区","上海市黄浦区河南中路166弄",121.49293673384192,31.239567539063756,"2022-04-29"
"黄浦区","上海市黄浦区河南中路505号",121.49065342089666,31.244347458279506,"2022-04-29"
"黄浦区","上海市黄浦区湖北路20号",121.4884643401994,31.237066372348682,"2022-04-29"
"黄浦区","上海市黄浦区淮海中路567弄",121.47462962687078,31.226221960905182,"2022-04-29"
"黄浦区","上海市黄浦区淮海中路593弄",121.47422476057743,31.22635265928944,"2022-04-29"
"黄浦区","上海市黄浦区淮海中路605号",121.47389211804708,31.22618691240016,"2022-04-29"
"黄浦区","上海市黄浦区淮海中路606弄",121.47366709251683,31.226468072064126,"2022-04-29"
"黄浦区","上海市黄浦区淮海中路613弄",121.47382303835336,31.225783544850167,"2022-04-29"
"黄浦区","上海市黄浦区淮海中路637弄",121.47295132268648,31.225788408430976,"2022-04-29"
"黄浦区","上海市黄浦区淮海中路697弄",121.47197423578328,31.224941446761353,"2022-04-29"
"黄浦区","上海市黄浦区淮海中路833弄",121.46898988521804,31.224196151207956,"2022-04-29"
"黄浦区","上海市黄浦区淮海中路927弄",121.46719695725068,31.22261969336921,"2022-04-29"
"黄浦区","上海市黄浦区黄陂南路584号",121.48307280035905,31.221956445996966,"2022-04-29"
"黄浦区","上海市黄浦区黄陂南路596弄",121.48299842066284,31.2218577034941,"2022-04-29"
"黄浦区","上海市黄浦区黄河路215弄",121.4344569553118,31.2533728868238,"2022-04-29"
"黄浦区","上海市黄浦区黄河路223弄",121.47603987669088,31.242534611188706,"2022-04-29"
"黄浦区","上海市黄浦区黄家路88弄",121.50359063719026,31.22123451932127,"2022-04-29"
"黄浦区","上海市黄浦区黄家阙路88弄",121.49395819703733,31.219937955604067,"2022-04-29"
"黄浦区","上海市黄浦区徽宁路144号",121.50028631020236,31.217125198298074,"2022-04-29"
"黄浦区","上海市黄浦区火腿弄21号",121.49158559252436,31.23724715206362,"2022-04-29"
"黄浦区","上海市黄浦区济南路241号",121.48655930370438,31.223507670095685,"2022-04-29"
"黄浦区","上海市黄浦区建国东路115弄",121.47743269938411,31.214314441124376,"2022-04-29"
"黄浦区","上海市黄浦区建国东路127号",121.48529736412397,31.218842957502233,"2022-04-29"
"黄浦区","上海市黄浦区建国东路131号",121.48526439631175,31.218805435659412,"2022-04-29"
"黄浦区","上海市黄浦区建国东路143弄",121.48532709803635,31.21823318708983,"2022-04-29"
"黄浦区","上海市黄浦区建国东路61弄",121.48644240421402,31.219232432313035,"2022-04-29"
"黄浦区","上海市黄浦区建国西路120弄",121.47145348807915,31.214046756593756,"2022-04-29"
"黄浦区","上海市黄浦区建国西路180号",121.46889062245917,31.213002493933736,"2022-04-29"
"黄浦区","上海市黄浦区建国西路91弄",121.47809636749489,31.218166326734593,"2022-04-29"
"黄浦区","上海市黄浦区建国中路103弄",121.47583488337352,31.215426014761544,"2022-04-29"
"黄浦区","上海市黄浦区建国中路155弄",121.47445041492153,31.21479027995086,"2022-04-29"
"黄浦区","上海市黄浦区江西中路24弄",121.49505628569273,31.23835189224358,"2022-04-29"
"黄浦区","上海市黄浦区江西中路261号",121.49323299499912,31.243067886883228,"2022-04-29"
"黄浦区","上海市黄浦区江西中路304号",121.49311001697481,31.2440498348388,"2022-04-29"
"黄浦区","上海市黄浦区江西中路38号",121.49472840418159,31.238386936191723,"2022-04-29"
"黄浦区","上海市黄浦区江西中路412弄",121.49218557077448,31.246727331150872,"2022-04-29"
"黄浦区","上海市黄浦区江西中路42号",121.49479541777262,31.238426071157956,"2022-04-29"
"黄浦区","上海市黄浦区江西中路451号",121.4916062535511,31.24738391965078,"2022-04-29"
"黄浦区","上海市黄浦区江西中路452号",121.4919360215038,31.247525857007712,"2022-04-29"
"黄浦区","上海市黄浦区江西中路473号",121.4914681839942,31.24781636868584,"2022-04-29"
"黄浦区","上海市黄浦区江西中路481号",121.49141105176378,31.248127178134823,"2022-04-29"
"黄浦区","上海市黄浦区江阴路120号",121.47482312187762,31.235609006463218,"2022-04-29"
"黄浦区","上海市黄浦区江阴路88弄",121.47555173747676,31.235860033180316,"2022-04-29"
"黄浦区","上海市黄浦区金陵东路511号",121.48842427577365,31.233394430696986,"2022-04-29"
"黄浦区","上海市黄浦区金陵东路57号",121.49795053621531,31.237093157409618,"2022-04-29"
"黄浦区","上海市黄浦区金陵东路63号",121.49771877339374,31.23702291414992,"2022-04-29"
"黄浦区","上海市黄浦区金陵东路67号",121.49757576315655,31.23695730226629,"2022-04-29"
"黄浦区","上海市黄浦区金坛路15号",121.504809098784,31.224731075456315,"2022-04-29"
"黄浦区","上海市黄浦区金坛路35弄",121.50458335460934,31.2247265978234,"2022-04-29"
"黄浦区","上海市黄浦区进贤路138弄",121.46617046354442,31.227847456002312,"2022-04-29"
"黄浦区","上海市黄浦区进贤路154号",121.46581491422356,31.227802217966403,"2022-04-29"
"黄浦区","上海市黄浦区进贤路156弄",121.46575778199313,31.227951210049856,"2022-04-29"
"黄浦区","上海市黄浦区进贤路174弄",121.46549161407053,31.227765394497823,"2022-04-29"
"黄浦区","上海市黄浦区静修路104弄",121.49324548144571,31.225768104909392,"2022-04-29"
"黄浦区","上海市黄浦区静修路107号",121.49339244422714,31.225406732368153,"2022-04-29"
"黄浦区","上海市黄浦区静修路10弄",121.49508628909676,31.225386660363835,"2022-04-29"
"黄浦区","上海市黄浦区静修路114弄",121.49302979829275,31.2257417798045,"2022-04-29"
"黄浦区","上海市黄浦区静修路126弄",121.48653334267514,31.22551241911987,"2022-04-29"
"黄浦区","上海市黄浦区静修路36弄",121.49462959057549,31.225816586314842,"2022-04-29"
"黄浦区","上海市黄浦区静修路37弄",121.49472499062064,31.22592482018991,"2022-04-29"
"黄浦区","上海市黄浦区静修路50弄",121.49456697868143,31.22523187418595,"2022-04-29"
"黄浦区","上海市黄浦区静修路64弄",121.49421972371479,31.22560194525226,"2022-04-29"
"黄浦区","上海市黄浦区静修路69号",121.49401488011499,31.225612238564658,"2022-04-29"
"黄浦区","上海市黄浦区静修路76号",121.4940189224898,31.225548162676528,"2022-04-29"
"黄浦区","上海市黄浦区静修路79弄",121.4938548469884,31.225607490774465,"2022-04-29"
"黄浦区","上海市黄浦区静修路89号",121.49358899347271,31.22551203312026,"2022-04-29"
"黄浦区","上海市黄浦区静修路95号",121.49355360023563,31.22549373673709,"2022-04-29"
"黄浦区","上海市黄浦区九江路210号",121.49264496421227,31.242806845375934,"2022-04-29"
"黄浦区","上海市黄浦区九江路595号",121.48584937285985,31.24054180501966,"2022-04-29"
"黄浦区","上海市黄浦区九江路619号",121.4851466284594,31.240162350399974,"2022-04-29"
"黄浦区","上海市黄浦区九江路700号",121.48354485990455,31.24033216347948,"2022-04-29"
"黄浦区","上海市黄浦区局门后路5号",121.48708121920568,31.21525368581015,"2022-04-29"
"黄浦区","上海市黄浦区局门后路77号",121.48715254466318,31.214357678242408,"2022-04-29"
"黄浦区","上海市黄浦区局门后路85号",121.48721865994871,31.214225032877668,"2022-04-29"
"黄浦区","上海市黄浦区局门后路95弄",121.48740739393637,31.21401286167072,"2022-04-29"
"黄浦区","上海市黄浦区局门后路9号",121.48719296841112,31.215033178409747,"2022-04-29"
"黄浦区","上海市黄浦区局门路241弄",121.48761041098162,31.212027091902875,"2022-04-29"
"黄浦区","上海市黄浦区局门路295弄",121.48918909308485,31.210922426988578,"2022-04-29"
"黄浦区","上海市黄浦区局门路599弄",121.48965782889995,31.206398855387498,"2022-04-29"
"黄浦区","上海市黄浦区局门路699号",121.48991601701138,31.20586034463847,"2022-04-29"
"黄浦区","上海市黄浦区巨鹿路310弄",121.4683930510372,31.223077810739706,"2022-04-29"
"黄浦区","上海市黄浦区巨鹿路318号",121.46549412932596,31.228954545897167,"2022-04-29"
"黄浦区","上海市黄浦区巨鹿路367号",121.46612500928562,31.228929842827828,"2022-04-29"
"黄浦区","上海市黄浦区巨鹿路383弄",121.46518663934988,31.228627306896506,"2022-04-29"
"黄浦区","上海市黄浦区巨鹿路395弄",121.4648954985341,31.228566938548187,"2022-04-29"
"黄浦区","上海市黄浦区聚奎新村",121.50270850117947,31.22949600466016,"2022-04-29"
"黄浦区","上海市黄浦区老道前街16弄",121.49371233081925,31.223986897644714,"2022-04-29"
"黄浦区","上海市黄浦区老道前街55号",121.49425014632807,31.223274829856273,"2022-04-29"
"黄浦区","上海市黄浦区丽园路17号",121.49655474911391,31.21683876048658,"2022-04-29"
"黄浦区","上海市黄浦区丽园路41号",121.49615437434811,31.21670380242153,"2022-04-29"
"黄浦区","上海市黄浦区丽园路574弄",121.48735825662496,31.212948369540506,"2022-04-29"
"黄浦区","上海市黄浦区丽园路710弄",121.48600639666299,31.212344042699645,"2022-04-29"
"黄浦区","上海市黄浦区丽园路842弄",121.483621395534,31.211378208045655,"2022-04-29"
"黄浦区","上海市黄浦区丽园路866弄",121.48215949314707,31.212257643794672,"2022-04-29"
"黄浦区","上海市黄浦区丽园路881号",121.48205403208019,31.21255984658679,"2022-04-29"
"黄浦区","上海市黄浦区丽园路891号",121.48129963511292,31.212524406912802,"2022-04-29"
"黄浦区","上海市黄浦区龙华东路72号",121.49311248323174,31.201493916502013,"2022-04-29"
"黄浦区","上海市黄浦区龙华东路888弄",121.47773012833846,31.19906060703334,"2022-04-29"
"黄浦区","上海市黄浦区鲁班路168弄",121.48069247041873,31.2107777316744,"2022-04-29"
"黄浦区","上海市黄浦区陆家浜路1034弄",121.4960365166652,31.21713616166859,"2022-04-29"
"黄浦区","上海市黄浦区陆家浜路1060弄",121.49486800085782,31.217355119982727,"2022-04-29"
"黄浦区","上海市黄浦区陆家浜路1088号",121.49459024479414,31.21760364785768,"2022-04-29"
"黄浦区","上海市黄浦区陆家浜路1300号",121.49057401068958,31.21716588629347,"2022-04-29"
"黄浦区","上海市黄浦区陆家浜路305弄",121.50738552881717,31.21716202595311,"2022-04-29"
"黄浦区","上海市黄浦区陆家浜路413弄",121.50586370945271,31.217303468719948,"2022-04-29"
"黄浦区","上海市黄浦区陆家浜路468弄",121.50449810541643,31.21610714338139,"2022-04-29"
"黄浦区","上海市黄浦区陆家浜路688弄",121.50167895323447,31.218053065492683,"2022-04-29"
"黄浦区","上海市黄浦区陆家浜路976号",121.49660379659475,31.217753196621352,"2022-04-29"
"黄浦区","上海市黄浦区陆家宅路91弄",121.50235061985752,31.2301080052278,"2022-04-29"
"黄浦区","上海市黄浦区马当路222弄",121.48081230437376,31.22549419993671,"2022-04-29"
"黄浦区","上海市黄浦区马当路278弄",121.48038956180075,31.223680369859316,"2022-04-29"
"黄浦区","上海市黄浦区马当路306弄",121.48012563964191,31.223088619009204,"2022-04-29"
"黄浦区","上海市黄浦区马当路312号",121.48113299944082,31.22309186148981,"2022-04-29"
"黄浦区","上海市黄浦区马当路328弄",121.48128104018886,31.222870137319102,"2022-04-29"
"黄浦区","上海市黄浦区马当路436号",121.48186116588721,31.219139811880797,"2022-04-29"
"黄浦区","上海市黄浦区毛家园路88弄",121.50760175095341,31.259874894138658,"2022-04-29"
"黄浦区","上海市黄浦区茂名南路12号",121.46678346722442,31.2290071170949,"2022-04-29"
"黄浦区","上海市黄浦区茂名南路58号",121.4661380347155,31.22566488883991,"2022-04-29"
"黄浦区","上海市黄浦区蒙自路345弄",121.48562317953244,31.210186208109956,"2022-04-29"
"黄浦区","上海市黄浦区蒙自路490弄",121.48548061844801,31.20723285827842,"2022-04-29"
"黄浦区","上海市黄浦区蒙自路601弄",121.48752812619689,31.205122548647797,"2022-04-29"
"黄浦区","上海市黄浦区蒙自西路14号",121.4831213088566,31.21346907424592,"2022-04-29"
"黄浦区","上海市黄浦区蒙自西路76号",121.4812300164359,31.213192971399792,"2022-04-29"
"黄浦区","上海市黄浦区梦花街113号",121.49419678698077,31.22459165113084,"2022-04-29"
"黄浦区","上海市黄浦区梦花街13弄",121.49248865905355,31.22366492957156,"2022-04-29"
"黄浦区","上海市黄浦区梦花街151号",121.4936189070462,31.22432237476919,"2022-04-29"
"黄浦区","上海市黄浦区梦花街163弄",121.49339019846336,31.224326157613344,"2022-04-29"
"黄浦区","上海市黄浦区梦花街17号",121.49578364366414,31.225359485951135,"2022-04-29"
"黄浦区","上海市黄浦区梦花街181号",121.49307911526525,31.224147900566184,"2022-04-29"
"黄浦区","上海市黄浦区梦花街31号",121.49549492827323,31.225392527565543,"2022-04-29"
"黄浦区","上海市黄浦区梦花街3弄",121.49158559252436,31.23724715206362,"2022-04-29"
"黄浦区","上海市黄浦区梦花街57弄",121.49505489331918,31.22503987720957,"2022-04-29"
"黄浦区","上海市黄浦区梦花街71号",121.4949241449522,31.22499957863858,"2022-04-29"
"黄浦区","上海市黄浦区梦花街73弄",121.49469831094699,31.224742037936004,"2022-04-29"
"黄浦区","上海市黄浦区梦花街79号",121.49469238213062,31.224829120123374,"2022-04-29"
"黄浦区","上海市黄浦区面筋弄11号",121.5047911326738,31.225824383481207,"2022-04-29"
"黄浦区","上海市黄浦区面筋弄12弄",121.5047955343708,31.226327415138474,"2022-04-29"
"黄浦区","上海市黄浦区面筋弄24号",121.5047955343708,31.226327415138474,"2022-04-29"
"黄浦区","上海市黄浦区面筋弄29号",121.5047955343708,31.226327415138474,"2022-04-29"
"黄浦区","上海市黄浦区面筋弄35号",121.5047955343708,31.226327415138474,"2022-04-29"
"黄浦区","上海市黄浦区南昌路136弄",121.47462809975141,31.225123871110185,"2022-04-29"
"黄浦区","上海市黄浦区南昌路152号",121.47394466891943,31.224768208921034,"2022-04-29"
"黄浦区","上海市黄浦区南昌路230号",121.47152292709508,31.223945942409994,"2022-04-29"
"黄浦区","上海市黄浦区南昌路280号",121.46946544815502,31.22324163309061,"2022-04-29"
"黄浦区","上海市黄浦区南昌路282号",121.46927473789525,31.223424060752766,"2022-04-29"
"黄浦区","上海市黄浦区南昌路302号",121.46867368167851,31.22294448291259,"2022-04-29"
"黄浦区","上海市黄浦区南昌路312号",121.46850480024266,31.222757422184145,"2022-04-29"
"黄浦区","上海市黄浦区南昌路69弄",121.47210098669075,31.223981840967312,"2022-04-29"
"黄浦区","上海市黄浦区南昌路74弄",121.47776749784768,31.225337329534938,"2022-04-29"
"黄浦区","上海市黄浦区南车站路192弄",121.4977067360999,31.214937439740865,"2022-04-29"
"黄浦区","上海市黄浦区南车站路30弄",121.49621968115869,31.21723568121971,"2022-04-29"
"黄浦区","上海市黄浦区南车站路438号",121.49989653544158,31.21102619979769,"2022-04-29"
"黄浦区","上海市黄浦区南车站路450弄",121.50015381013964,31.21062068218494,"2022-04-29"
"黄浦区","上海市黄浦区南车站路90号",121.496743393271,31.216621962767857,"2022-04-29"
"黄浦区","上海市黄浦区南京东路120号",121.49405000386044,31.24427583114796,"2022-04-29"
"黄浦区","上海市黄浦区南京西路455弄",121.47452057258187,31.236831713273617,"2022-04-29"
"黄浦区","上海市黄浦区南京西路457号",121.47481072526159,31.236855102017056,"2022-04-29"
"黄浦区","上海市黄浦区南塘浜路93弄",121.48067306701971,31.209789334703416,"2022-04-29"
"黄浦区","上海市黄浦区宁安路99弄",121.49262798623815,31.222318835494008,"2022-04-29"
"黄浦区","上海市黄浦区宁波路120弄",121.49121189743221,31.245492713088552,"2022-04-29"
"黄浦区","上海市黄浦区宁波路219号",121.48970076790333,31.244703123223573,"2022-04-29"
"黄浦区","上海市黄浦区宁波路51号",121.49250078617793,31.24520960382349,"2022-04-29"
"黄浦区","上海市黄浦区宁波路587弄",121.48300129524047,31.242358704412634,"2022-04-29"
"黄浦区","上海市黄浦区牌楼路41弄",121.49317020344397,31.21940879433308,"2022-04-29"
"黄浦区","上海市黄浦区蓬莱路252弄",121.49668257798798,31.223207201084016,"2022-04-29"
"黄浦区","上海市黄浦区蓬莱路257号",121.49647596772068,31.22332184572052,"2022-04-29"
"黄浦区","上海市黄浦区蓬莱路303弄",121.495558797795,31.223221483420122,"2022-04-29"
"黄浦区","上海市黄浦区蓬莱路362弄",121.494954597509,31.22225977552042,"2022-04-29"
"黄浦区","上海市黄浦区蓬莱路391弄",121.49430970398338,31.222251978057074,"2022-04-29"
"黄浦区","上海市黄浦区蓬莱路401号",121.49422939547078,31.222122895203068,"2022-04-29"
"黄浦区","上海市黄浦区蓬莱路405弄",121.49387914615244,31.2220148113367,"2022-04-29"
"黄浦区","上海市黄浦区平望街6弄",121.49158559252436,31.23724715206362,"2022-04-29"
"黄浦区","上海市黄浦区普育东路101弄",121.50287621481819,31.21521747507171,"2022-04-29"
"黄浦区","上海市黄浦区普育东路200弄",121.50230875522753,31.21362364824667,"2022-04-29"
"黄浦区","上海市黄浦区普育东路26号",121.50261265198155,31.21670040530525,"2022-04-29"
"黄浦区","上海市黄浦区普育东路71弄",121.50353934394565,31.215349192530727,"2022-04-29"
"黄浦区","上海市黄浦区普育西支路71号",121.49932332669567,31.217830557323246,"2022-04-29"
"黄浦区","上海市黄浦区瞿溪路1003弄",121.48385693123872,31.205771630284882,"2022-04-29"
"黄浦区","上海市黄浦区瞿溪路1072弄",121.48143060805627,31.20475592286575,"2022-04-29"
"黄浦区","上海市黄浦区瞿溪路114号",121.50180076346163,31.21261119162443,"2022-04-29"
"黄浦区","上海市黄浦区瞿溪路115号",121.50160178879116,31.212705234041426,"2022-04-29"
"黄浦区","上海市黄浦区瞿溪路1162号",121.47972301911236,31.204421881360766,"2022-04-29"
"黄浦区","上海市黄浦区瞿溪路116号",121.50155103452987,31.212322886942978,"2022-04-29"
"黄浦区","上海市黄浦区瞿溪路117号",121.50143811752726,31.21257938086759,"2022-04-29"
"黄浦区","上海市黄浦区瞿溪路118号",121.50141287514242,31.212315474705928,"2022-04-29"
"黄浦区","上海市黄浦区瞿溪路1200弄",121.47791751486785,31.202302396543868,"2022-04-29"
"黄浦区","上海市黄浦区瞿溪路120弄",121.5017221617295,31.212085926699476,"2022-04-29"
"黄浦区","上海市黄浦区瞿溪路121号",121.50109586312794,31.21231331280335,"2022-04-29"
"黄浦区","上海市黄浦区瞿溪路122号",121.50094297153015,31.211909499409913,"2022-04-29"
"黄浦区","上海市黄浦区瞿溪路124号",121.50092814948923,31.211928956615274,"2022-04-29"
"黄浦区","上海市黄浦区瞿溪路1254弄",121.47683415842282,31.20249351352583,"2022-04-29"
"黄浦区","上海市黄浦区瞿溪路128号",121.50024202374073,31.211352187740083,"2022-04-29"
"黄浦区","上海市黄浦区瞿溪路129号",121.50038826787774,31.21182194193579,"2022-04-29"
"黄浦区","上海市黄浦区瞿溪路131号",121.50023654407711,31.21170705158098,"2022-04-29"
"黄浦区","上海市黄浦区瞿溪路132号",121.50024202374073,31.211352187740083,"2022-04-29"
"黄浦区","上海市黄浦区瞿溪路501弄",121.4944210938666,31.209007782583218,"2022-04-29"
"黄浦区","上海市黄浦区瞿溪路639号",121.4910790380473,31.207984852110314,"2022-04-29"
"黄浦区","上海市黄浦区瞿溪路883弄",121.4857689745167,31.2063427195683,"2022-04-29"
"黄浦区","上海市黄浦区瞿溪路904弄",121.4856468947979,31.20580761302777,"2022-04-29"
"黄浦区","上海市黄浦区瞿溪路913号",121.48507512334079,31.205890929239864,"2022-04-29"
"黄浦区","上海市黄浦区瞿溪路937弄",121.48468409095231,31.206350981651095,"2022-04-29"
"黄浦区","上海市黄浦区汝南街51号",121.49065997852689,31.208663872875473,"2022-04-29"
"黄浦区","上海市黄浦区瑞金二路129弄",121.47334442117766,31.219376754270964,"2022-04-29"
"黄浦区","上海市黄浦区瑞金二路149号",121.47193471034085,31.21951742164279,"2022-04-29"
"黄浦区","上海市黄浦区瑞金二路40弄",121.47082898608862,31.222843193782065,"2022-04-29"
"黄浦区","上海市黄浦区瑞金二路410弄",121.47339849916935,31.213301683132133,"2022-04-29"
"黄浦区","上海市黄浦区瑞金二路456弄",121.47341718392396,31.211447466805947,"2022-04-29"
"黄浦区","上海市黄浦区瑞金二路52弄",121.47064600125623,31.221863184902386,"2022-04-29"
"黄浦区","上海市黄浦区瑞金二路70弄",121.47087210475308,31.221357118319393,"2022-04-29"
"黄浦区","上海市黄浦区瑞金南路1号",121.4741731080106,31.210761362713356,"2022-04-29"
"黄浦区","上海市黄浦区瑞金南路345弄",121.47618297675864,31.203406854267385,"2022-04-29"
"黄浦区","上海市黄浦区桑园街38弄",121.50415836627258,31.219051566321212,"2022-04-29"
"黄浦区","上海市黄浦区山西南路200号",121.48903000317902,31.243287865115775,"2022-04-29"
"黄浦区","上海市黄浦区山西南路9弄",121.49158559252436,31.23724715206362,"2022-04-29"
"黄浦区","上海市黄浦区陕西南路271弄",121.46934498538613,31.21423985704883,"2022-04-29"
"黄浦区","上海市黄浦区陕西南路287弄",121.46860289520434,31.21362758594266,"2022-04-29"
"黄浦区","上海市黄浦区陕西南路307弄",121.46913100901365,31.21159887847694,"2022-04-29"
"黄浦区","上海市黄浦区陕西南路39弄",121.46472625777602,31.225395075166176,"2022-04-29"
"黄浦区","上海市黄浦区陕西南路5号",121.46383154548809,31.228898346404968,"2022-04-29"
"黄浦区","上海市黄浦区尚文路133弄",121.49799257691318,31.221508436760633,"2022-04-29"
"黄浦区","上海市黄浦区尚文路149弄",121.49790493223891,31.221349475187548,"2022-04-29"
"黄浦区","上海市黄浦区尚文路161号",121.49765391573592,31.22156332823677,"2022-04-29"
"黄浦区","上海市黄浦区绍兴路102弄",121.46861017147897,31.214989864395072,"2022-04-29"
"黄浦区","上海市黄浦区绍兴路18弄",121.47191566626402,31.216374744813525,"2022-04-29"
"黄浦区","上海市黄浦区绍兴路92号",121.46921401244278,31.21511231715487,"2022-04-29"
"黄浦区","上海市黄浦区顺昌路491弄",121.48607008652364,31.21888549768034,"2022-04-29"
"黄浦区","上海市黄浦区顺昌路497号",121.48601672717636,31.218837784738792,"2022-04-29"
"黄浦区","上海市黄浦区顺昌路520弄",121.48577220841653,31.21768147192145,"2022-04-29"
"黄浦区","上海市黄浦区顺昌路526号",121.48594603053273,31.21827634519215,"2022-04-29"
"黄浦区","上海市黄浦区思南路78号",121.47663374646353,31.215861391017313,"2022-04-29"
"黄浦区","上海市黄浦区思南路82弄",121.4766426396881,31.21547365223381,"2022-04-29"
"黄浦区","上海市黄浦区四川中路126弄",121.49640239649942,31.240246948227217,"2022-04-29"
"黄浦区","上海市黄浦区四川中路146号",121.495874103029,31.240514249070838,"2022-04-29"
"黄浦区","上海市黄浦区四川中路629号",121.49267541676907,31.24811683584547,"2022-04-29"
"黄浦区","上海市黄浦区四牌楼路81弄",121.50211858395106,31.229726127545458,"2022-04-29"
"黄浦区","上海市黄浦区四牌楼路95弄",121.50207604918516,31.229580534937064,"2022-04-29"
"黄浦区","上海市黄浦区泗泾路30号",121.49311540680786,31.239171330555617,"2022-04-29"
"黄浦区","上海市黄浦区天津路179弄",121.48962099837405,31.243313490616583,"2022-04-29"
"黄浦区","上海市黄浦区天津路268号",121.4875136634782,31.243361885745042,"2022-04-29"
"黄浦区","上海市黄浦区天津路305弄",121.48715532941026,31.243017639151194,"2022-04-29"
"黄浦区","上海市黄浦区天津路478弄",121.48354683617669,31.242347049322753,"2022-04-29"
"黄浦区","上海市黄浦区天津路480号",121.48384462445323,31.242193371809854,"2022-04-29"
"黄浦区","上海市黄浦区天柱山路17弄",121.50017698642179,31.216806951166113,"2022-04-29"
"黄浦区","上海市黄浦区铁道路140号",121.49343843746924,31.20585927063233,"2022-04-29"
"黄浦区","上海市黄浦区文庙路107号",121.4962753761003,31.224137324022173,"2022-04-29"
"黄浦区","上海市黄浦区文庙路163号",121.49540572653609,31.223724220262653,"2022-04-29"
"黄浦区","上海市黄浦区文庙路91号",121.49642799820646,31.22424895668181,"2022-04-29"
"黄浦区","上海市黄浦区吾园街86号",121.49800218878214,31.222419507572226,"2022-04-29"
"黄浦区","上海市黄浦区五里桥路256号",121.48653927149151,31.20926374509549,"2022-04-29"
"黄浦区","上海市黄浦区五里桥路269弄",121.48593902374974,31.209584102620525,"2022-04-29"
"黄浦区","上海市黄浦区西仓桥街112弄",121.49629127610783,31.225973533112793,"2022-04-29"
"黄浦区","上海市黄浦区西仓桥街129号",121.49610667432553,31.226085626778833,"2022-04-29"
"黄浦区","上海市黄浦区西仓桥街138弄",121.51727686061808,31.260385305447492,"2022-04-29"
"黄浦区","上海市黄浦区西仓桥街162弄",121.49564243003799,31.225699011143245,"2022-04-29"
"黄浦区","上海市黄浦区西仓桥街93号",121.4967025203703,31.226371650297605,"2022-04-29"
"黄浦区","上海市黄浦区西仓桥街98号",121.49666524069164,31.226005956914285,"2022-04-29"
"黄浦区","上海市黄浦区西藏南路1090弄",121.49265879811713,31.216956115167616,"2022-04-29"
"黄浦区","上海市黄浦区西藏南路1277弄",121.49416058526872,31.213954877388943,"2022-04-29"
"黄浦区","上海市黄浦区西藏南路1341弄",121.4946357888835,31.211611849990653,"2022-04-29"
"黄浦区","上海市黄浦区西藏南路1374弄",121.493515512082,31.211693925657812,"2022-04-29"
"黄浦区","上海市黄浦区西藏南路1407号",121.49515995014856,31.210954856003784,"2022-04-29"
"黄浦区","上海市黄浦区西藏南路1501弄",121.4956678520839,31.20879405527981,"2022-04-29"
"黄浦区","上海市黄浦区西藏南路1717弄",121.49862291788953,31.205351804857617,"2022-04-29"
"黄浦区","上海市黄浦区西藏南路1739弄",121.49815948207694,31.204502959505437,"2022-04-29"
"黄浦区","上海市黄浦区西藏南路381号",121.4883917571142,31.228126217546457,"2022-04-29"
"黄浦区","上海市黄浦区西凌家宅路111弄",121.49301659320176,31.210318627559108,"2022-04-29"
"黄浦区","上海市黄浦区西凌家宅路27弄",121.49375212575332,31.210565784292413,"2022-04-29"
"黄浦区","上海市黄浦区西姚家弄11号",121.5037379592939,31.22816389004813,"2022-04-29"
"黄浦区","上海市黄浦区西姚家弄29号",121.50316088783428,31.228153236760257,"2022-04-29"
"黄浦区","上海市黄浦区西姚家弄31号",121.50306126575323,31.228153313958,"2022-04-29"
"黄浦区","上海市黄浦区西姚家弄52号",121.50238277560155,31.228465732700393,"2022-04-29"
"黄浦区","上海市黄浦区先棉祠街105弄",121.49694515268855,31.222969882380106,"2022-04-29"
"黄浦区","上海市黄浦区先棉祠街31号",121.49808393458355,31.22326101073897,"2022-04-29"
"黄浦区","上海市黄浦区先棉祠街32弄",121.49794829045155,31.222769002512486,"2022-04-29"
"黄浦区","上海市黄浦区先棉祠街38号",121.49784103277365,31.22288287566486,"2022-04-29"
"黄浦区","上海市黄浦区县左街20弄",121.50137038529179,31.22977360334704,"2022-04-29"
"黄浦区","上海市黄浦区县左街32号",121.50129861068154,31.230074128472033,"2022-04-29"
"黄浦区","上海市黄浦区香港路55号",121.49387986479685,31.248302147886616,"2022-04-29"
"黄浦区","上海市黄浦区香山路36号",121.4716427610501,31.221882022415738,"2022-04-29"
"黄浦区","上海市黄浦区小桃园街50弄",121.49613326416862,31.22671819692006,"2022-04-29"
"黄浦区","上海市黄浦区斜土东路158弄",121.49544579096184,31.21356450557723,"2022-04-29"
"黄浦区","上海市黄浦区斜土东路23弄",121.4968869424915,31.214477738349405,"2022-04-29"
"黄浦区","上海市黄浦区斜土路118弄",121.48937099995062,31.211599882225087,"2022-04-29"
"黄浦区","上海市黄浦区斜土路195弄",121.4886325928214,31.21209418827557,"2022-04-29"
"黄浦区","上海市黄浦区斜土路22号",121.49057311238407,31.212251621347917,"2022-04-29"
"黄浦区","上海市黄浦区斜土路251弄",121.48710259887683,31.211316361550864,"2022-04-29"
"黄浦区","上海市黄浦区斜土路262弄",121.48748473804076,31.2107963397823,"2022-04-29"
"黄浦区","上海市黄浦区斜土路298弄",121.48664850544152,31.2107846035487,"2022-04-29"
"黄浦区","上海市黄浦区斜土路486弄",121.48399823469545,31.20840937579005,"2022-04-29"
"黄浦区","上海市黄浦区斜土路520号",121.48301135626217,31.209060442197963,"2022-04-29"
"黄浦区","上海市黄浦区斜土路530号",121.48280223073945,31.208908177072594,"2022-04-29"
"黄浦区","上海市黄浦区斜土路540号",121.48267853407073,31.208983846384914,"2022-04-29"
"黄浦区","上海市黄浦区斜土路550弄",121.48303138847504,31.20882324205738,"2022-04-29"
"黄浦区","上海市黄浦区斜土路645号",121.48075220773512,31.20891620728824,"2022-04-29"
"黄浦区","上海市黄浦区斜土路80弄",121.49047914962772,31.21070993944921,"2022-04-29"
"黄浦区","上海市黄浦区斜土路85弄",121.48975502555614,31.212280343782787,"2022-04-29"
"黄浦区","上海市黄浦区斜土支路5号",121.49068333447015,31.21176990156404,"2022-04-29"
"黄浦区","上海市黄浦区新昌路328弄",121.4746492099309,31.242473016839636,"2022-04-29"
"黄浦区","上海市黄浦区新闸路274号",121.47443599711809,31.24521981136301,"2022-04-29"
"黄浦区","上海市黄浦区兴安路163弄",121.47679903467738,31.22684287310322,"2022-04-29"
"黄浦区","上海市黄浦区徐家汇路135弄",121.4847466130158,31.215348343239388,"2022-04-29"
"黄浦区","上海市黄浦区徐家汇路177号",121.48381776511849,31.21503773371494,"2022-04-29"
"黄浦区","上海市黄浦区徐家汇路1弄",121.48837666558163,31.21657625606222,"2022-04-29"
"黄浦区","上海市黄浦区徐家汇路528号",121.4773109789875,31.21314641370877,"2022-04-29"
"黄浦区","上海市黄浦区徐家汇路536弄",121.47704984157576,31.213221384705662,"2022-04-29"
"黄浦区","上海市黄浦区徐家汇路7号",121.48769592966616,31.216566913979435,"2022-04-29"
"黄浦区","上海市黄浦区薛家浜路159弄",121.5098069113193,31.21740978227464,"2022-04-29"
"黄浦区","上海市黄浦区薛家浜路218号",121.50870639723904,31.21683752517337,"2022-04-29"
"黄浦区","上海市黄浦区薛家浜路236号",121.50870262435589,31.216563130821683,"2022-04-29"
"黄浦区","上海市黄浦区薛家浜路242弄",121.50862932262628,31.216213998747815,"2022-04-29"
"黄浦区","上海市黄浦区学前街111弄",121.49611448958346,31.22191560567808,"2022-04-29"
"黄浦区","上海市黄浦区学前街156号",121.49659472370911,31.220583691976135,"2022-04-29"
"黄浦区","上海市黄浦区学前街159号",121.49661107286938,31.22107362719345,"2022-04-29"
"黄浦区","上海市黄浦区学西街19号",121.49366454096611,31.223388161981504,"2022-04-29"
"黄浦区","上海市黄浦区学西街1号",121.49391211396465,31.22347694386385,"2022-04-29"
"黄浦区","上海市黄浦区学西街20弄",121.49362714151336,31.223373596597977,"2022-04-29"
"黄浦区","上海市黄浦区学西街33号",121.49345793069881,31.223307872206682,"2022-04-29"
"黄浦区","上海市黄浦区学西街39弄",121.49334730437526,31.223264716424257,"2022-04-29"
"黄浦区","上海市黄浦区学西街9弄",121.49158559252436,31.23724715206362,"2022-04-29"
"黄浦区","上海市黄浦区学院路228号",121.49958895563495,31.228699563589586,"2022-04-29"
"黄浦区","上海市黄浦区学院路32弄",121.50353161851825,31.22860715838561,"2022-04-29"
"黄浦区","上海市黄浦区学院路72号",121.50245104682031,31.228808102918983,"2022-04-29"
"黄浦区","上海市黄浦区巡道街15号",121.50416160017241,31.226418355809404,"2022-04-29"
"黄浦区","上海市黄浦区巡道街23号",121.50415252728676,31.226253689826823,"2022-04-29"
"黄浦区","上海市黄浦区巡道街37弄",121.50421388155308,31.225976621094365,"2022-04-29"
"黄浦区","上海市黄浦区巡道街51号",121.50412773405468,31.225764785321786,"2022-04-29"
"黄浦区","上海市黄浦区巡道街53弄",121.50428781209655,31.22573336503335,"2022-04-29"
"黄浦区","上海市黄浦区巡道街60号",121.50402353061551,31.225551019072483,"2022-04-29"
"黄浦区","上海市黄浦区巡道街62号",121.5040254170571,31.22552338150803,"2022-04-29"
"黄浦区","上海市黄浦区巡道街70号",121.50394277295018,31.225333932731992,"2022-04-29"
"黄浦区","上海市黄浦区延安东路1256弄",121.47833980828808,31.231823222667014,"2022-04-29"
"黄浦区","上海市黄浦区延安东路1292弄",121.47803330644808,31.231757993110342,"2022-04-29"
"黄浦区","上海市黄浦区延安中路545弄",121.46534267501698,31.229671935625426,"2022-04-29"
"黄浦区","上海市黄浦区雁荡路51弄",121.47677612788686,31.226187143998253,"2022-04-29"
"黄浦区","上海市黄浦区仪凤弄61弄",121.49247105226554,31.223973580440287,"2022-04-29"
"黄浦区","上海市黄浦区迎勋北路8弄",121.49158559252436,31.23724715206362,"2022-04-29"
"黄浦区","上海市黄浦区永年路140号",121.48540264552975,31.21796072698275,"2022-04-29"
"黄浦区","上海市黄浦区永年路178弄",121.4848359045835,31.21791012164655,"2022-04-29"
"黄浦区","上海市黄浦区永年路74号",121.48680957161946,31.218216510608467,"2022-04-29"
"黄浦区","上海市黄浦区永胜路67号",121.49648414230083,31.23560568722475,"2022-04-29"
"黄浦区","上海市黄浦区永泰街26号",121.50382410679231,31.221757957247828,"2022-04-29"
"黄浦区","上海市黄浦区永泰街27号",121.50411713404965,31.221512142515312,"2022-04-29"
"黄浦区","上海市黄浦区永泰街28号",121.50390711022143,31.221602701849605,"2022-04-29"
"黄浦区","上海市黄浦区肇嘉浜路168弄",121.47033518754978,31.209930943034088,"2022-04-29"
"黄浦区","上海市黄浦区肇周路130号",121.4879655111497,31.222508830790225,"2022-04-29"
"黄浦区","上海市黄浦区浙江中路109弄",121.48668964783388,31.237629551727068,"2022-04-29"
"黄浦区","上海市黄浦区浙江中路118弄",121.48669764275293,31.237833410093312,"2022-04-29"
"黄浦区","上海市黄浦区浙江中路128弄",121.4866102376268,31.237968878016,"2022-04-29"
"黄浦区","上海市黄浦区浙江中路168弄",121.4860150203959,31.239099081950066,"2022-04-29"
"黄浦区","上海市黄浦区制造局路365弄",121.49109439907151,31.21098489143879,"2022-04-29"
"黄浦区","上海市黄浦区制造局路370弄",121.49096774352816,31.212175378451143,"2022-04-29"
"黄浦区","上海市黄浦区制造局路455弄",121.49101040750632,31.210925129406952,"2022-04-29"
"黄浦区","上海市黄浦区制造局路529号",121.49145569754762,31.209601707196057,"2022-04-29"
"黄浦区","上海市黄浦区制造局路567弄",121.49182867399537,31.209308606024834,"2022-04-29"
"黄浦区","上海市黄浦区制造局路859弄",121.49300778980776,31.20459407581285,"2022-04-29"
"黄浦区","上海市黄浦区中华路1022号",121.49728210708534,31.22024353059267,"2022-04-29"
"黄浦区","上海市黄浦区中华路1141弄",121.4952663993515,31.22080217900347,"2022-04-29"
"黄浦区","上海市黄浦区中华路1299弄",121.49712880793531,31.218566318105758,"2022-04-29"
"黄浦区","上海市黄浦区中华路1349弄",121.52297633958723,31.187811118992286,"2022-04-29"
"黄浦区","上海市黄浦区中华路313号",121.50538643973526,31.225973069915547,"2022-04-29"
"黄浦区","上海市黄浦区中华路319号",121.50537826515512,31.225860435717262,"2022-04-29"
"黄浦区","上海市黄浦区中华路333号",121.50525627526686,31.225535424693543,"2022-04-29"
"黄浦区","上海市黄浦区中华路367号",121.50510571926338,31.225121555102913,"2022-04-29"
"黄浦区","上海市黄浦区中华路989号",121.49759651401384,31.220345362965787,"2022-04-29"
"黄浦区","上海市黄浦区中华路999号",121.49714565447837,31.22050957611955,"2022-04-29"
"黄浦区","上海市黄浦区中山南路1358弄",121.50624378251398,31.216168060220113,"2022-04-29"
"黄浦区","上海市黄浦区中山南路1726弄",121.49944953861981,31.209989701935054,"2022-04-29"
"黄浦区","上海市黄浦区中山南路1748号",121.49960638276185,31.209627496348993,"2022-04-29"
"黄浦区","上海市黄浦区中山南路1887弄",121.49909354014622,31.207753594767183,"2022-04-29"
"黄浦区","上海市黄浦区中山南路1891号",121.49773404458742,31.207437863869796,"2022-04-29"
"黄浦区","上海市黄浦区中山南路36号",121.50628303846477,31.229621140321466,"2022-04-29"
"黄浦区","上海市黄浦区中山南路398弄",121.51018410980295,31.22655770021435,"2022-04-29"
"黄浦区","上海市黄浦区中山南路891号",121.51322379598761,31.218398870859005,"2022-04-29"
"黄浦区","上海市黄浦区中山南一路101弄",121.49463839396947,31.207138733150366,"2022-04-29"
"黄浦区","上海市黄浦区中山南一路161弄",121.49440303792586,31.20679481657874,"2022-04-29"
"黄浦区","上海市黄浦区中山南一路247弄",121.49296071859904,31.20630496106852,"2022-04-29"
"黄浦区","上海市黄浦区中山南一路254号",121.49335633234564,31.205938262698982,"2022-04-29"
"黄浦区","上海市黄浦区中山南一路256弄",121.49308225933454,31.205811551052427,"2022-04-29"
"黄浦区","上海市黄浦区中山南一路270号",121.49314235597316,31.205864135248323,"2022-04-29"
"黄浦区","上海市黄浦区中山南一路500弄",121.49210643005905,31.205224783551003,"2022-04-29"
"黄浦区","上海市黄浦区昼锦路180弄",121.49724069520134,31.228702960270365,"2022-04-29"
"黄浦区","上海市黄浦区昼锦路99号",121.49785720227283,31.229977478832538,"2022-04-29"
"黄浦区","上海市黄浦区庄家街34号",121.49478544658146,31.226400291200992,"2022-04-29"
"黄浦区","上海市黄浦区庄家街35号",121.49510829758174,31.22638678134199,"2022-04-29"
"黄浦区","上海市黄浦区庄家街45弄",121.49519562571025,31.22623365108959,"2022-04-29"
"黄浦区","上海市黄浦区庄家街51弄",121.49512509589478,31.22583048225445,"2022-04-29"
"黄浦区","上海市黄浦区庄家街58号",121.4949782229439,31.22613912598119,"2022-04-29"
"黄浦区","上海市黄浦区庄家街70号",121.49506490942561,31.22568511518411,"2022-04-29"
"黄浦区","上海市黄浦区庄家街79弄",121.50150872434034,31.223385768729585,"2022-04-29"
"黄浦区","上海市黄浦区庄家街84号",121.49526918409859,31.22550686072538,"2022-04-29"
"静安区","上海市静安区安远路515弄",121.44648391863214,31.243867678946206,"2022-04-29"
"静安区","上海市静安区安远路5弄",121.45343177276851,31.233844930401652,"2022-04-29"
"静安区","上海市静安区安远路693号",121.44249265742076,31.241849506846936,"2022-04-29"
"静安区","上海市静安区安远路703号",121.44243992688733,31.24180906114306,"2022-04-29"
"静安区","上海市静安区宝昌路600弄",121.47839801848514,31.266236778220005,"2022-04-29"
"静安区","上海市静安区宝昌路610弄",121.47854309482499,31.266862903537238,"2022-04-29"
"静安区","上海市静安区宝昌路632弄",121.47799854202485,31.267667970754843,"2022-04-29"
"静安区","上海市静安区宝昌路731弄",121.47710230261755,31.270603131672043,"2022-04-29"
"静安区","上海市静安区宝昌路738弄",121.47725501455425,31.26952608848716,"2022-04-29"
"静安区","上海市静安区宝山路499弄",121.48471723842562,31.26366154873471,"2022-04-29"
"静安区","上海市静安区宝山路611号",121.48519235220985,31.26545947877619,"2022-04-29"
"静安区","上海市静安区宝通路239弄",121.48459120616258,31.262535654503093,"2022-04-29"
"静安区","上海市静安区宝通路425弄",121.4826983866225,31.265213393051873,"2022-04-29"
"静安区","上海市静安区宝源路209弄",121.486628203737,31.26230129085208,"2022-04-29"
"静安区","上海市静安区保德路1238弄",121.45156644137705,31.32536178303074,"2022-04-29"
"静安区","上海市静安区保德路241弄",121.46949581088126,31.32350624194654,"2022-04-29"
"静安区","上海市静安区北宝兴路42弄",121.47278828023643,31.277279935860676,"2022-04-29"
"静安区","上海市静安区北京西路1065号",121.46147618844093,31.23630519483176,"2022-04-29"
"静安区","上海市静安区北京西路1094弄",121.46044673032648,31.23636362841301,"2022-04-29"
"静安区","上海市静安区北京西路1110弄",121.46034135909018,31.23633198011066,"2022-04-29"
"静安区","上海市静安区北京西路1630号",121.45130835820403,31.232763295179954,"2022-04-29"
"静安区","上海市静安区北京西路1701号",121.4505170408803,31.231800836197067,"2022-04-29"
"静安区","上海市静安区北京西路1729弄",121.44998470503509,31.231405675523394,"2022-04-29"
"静安区","上海市静安区北京西路605弄",121.46933079215907,31.239337826328363,"2022-04-29"
"静安区","上海市静安区昌化路320号",121.45851923619374,31.24368096878807,"2022-04-29"
"静安区","上海市静安区昌化路430弄",121.45699454225165,31.245161441202367,"2022-04-29"
"静安区","上海市静安区昌化路443弄",121.45656955391487,31.24498160299076,"2022-04-29"
"静安区","上海市静安区昌化路453弄",121.4566166251236,31.245158122302875,"2022-04-29"
"静安区","上海市静安区昌平路1005号",121.44275370500196,31.23829068108678,"2022-04-29"
"静安区","上海市静安区昌平路1009号",121.44239501161182,31.238058186391058,"2022-04-29"
"静安区","上海市静安区昌平路1018弄",121.44141882301413,31.237949657792758,"2022-04-29"
"静安区","上海市静安区昌平路317号",121.45565642636397,31.243089653173516,"2022-04-29"
"静安区","上海市静安区昌平路418弄",121.46070454400785,31.2135391035576,"2022-04-29"
"静安区","上海市静安区昌平路868号",121.44668702550796,31.240346906327755,"2022-04-29"
"静安区","上海市静安区昌平路88弄",121.45870231085667,31.2451041708738,"2022-04-29"
"静安区","上海市静安区昌平路923弄",121.445470809678,31.239353649972383,"2022-04-29"
"静安区","上海市静安区昌平路999弄",121.44392536487862,31.238681026957256,"2022-04-29"
"静安区","上海市静安区常德路519弄",121.4525393960749,31.236180685639255,"2022-04-29"
"静安区","上海市静安区常德路545弄",121.45231311291694,31.236549040935106,"2022-04-29"
"静安区","上海市静安区常德路617弄",121.4513146463426,31.237565329688536,"2022-04-29"
"静安区","上海市静安区常德路619号",121.45131365820654,31.237485283648496,"2022-04-29"
"静安区","上海市静安区常德路695号",121.45025743058791,31.238281881497265,"2022-04-29"
"静安区","上海市静安区常熟路113弄",121.4546496055484,31.222945718145212,"2022-04-29"
"静安区","上海市静安区长安路1001号",121.45863996845428,31.25134288001556,"2022-04-29"
"静安区","上海市静安区长安路1028号",121.45629134869843,31.251023668760123,"2022-04-29"
"静安区","上海市静安区长安路550弄",121.46086543052469,31.24813682579177,"2022-04-29"
"静安区","上海市静安区长乐路682弄",121.45939146217,31.224719547674137,"2022-04-29"
"静安区","上海市静安区长乐路764弄",121.45761015101763,31.22360146996214,"2022-04-29"
"静安区","上海市静安区长乐路774弄",121.45622424527684,31.22310220654623,"2022-04-29"
"静安区","上海市静安区长临路380弄",121.4431406051851,31.324593381735777,"2022-04-29"
"静安区","上海市静安区长寿路999弄",121.43594724415287,31.238930501653403,"2022-04-29"
"静安区","上海市静安区场中路1011弄",121.47196219848944,31.3147642425747,"2022-04-29"
"静安区","上海市静安区场中路1129弄",121.47136563380026,31.312477808309293,"2022-04-29"
"静安区","上海市静安区场中路1177弄",121.47067025550498,31.312498324379554,"2022-04-29"
"静安区","上海市静安区场中路2601弄",121.44665765091777,31.311671662005885,"2022-04-29"
"静安区","上海市静安区场中路3332弄",121.4374503787627,31.30971704451895,"2022-04-29"
"静安区","上海市静安区成都北路527弄",121.47286346840761,31.238583768696177,"2022-04-29"
"静安区","上海市静安区大沽路368弄",121.4719450408542,31.23178284982251,"2022-04-29"
"静安区","上海市静安区大宁路660弄",121.4554140635374,31.27883718634688,"2022-04-29"
"静安区","上海市静安区大统路1033弄",121.4661100075836,31.26279586923471,"2022-04-29"
"静安区","上海市静安区大统路933弄",121.46622139746682,31.261523032628112,"2022-04-29"
"静安区","上海市静安区大统路938弄",121.46501793757511,31.26044272075746,"2022-04-29"
"静安区","上海市静安区汾西路260弄",121.47003326706788,31.323463595146062,"2022-04-29"
"静安区","上海市静安区汾西路261弄",121.46833367304299,31.319468513689554,"2022-04-29"
"静安区","上海市静安区汾西路815弄",121.45724004914753,31.319592526282378,"2022-04-29"
"静安区","上海市静安区汾西路885弄",121.45590040614049,31.319208379773347,"2022-04-29"
"静安区","上海市静安区汾西路88弄",121.47417957581027,31.31992114343126,"2022-04-29"
"静安区","上海市静安区奉贤路68弄",121.46433378809871,31.24214173425636,"2022-04-29"
"静安区","上海市静安区富民路255弄",121.45870365831493,31.224424279905428,"2022-04-29"
"静安区","上海市静安区高平路811号",121.43394608896828,31.297576396306795,"2022-04-29"
"静安区","上海市静安区共和新路1207号",121.46810667124062,31.268705527264295,"2022-04-29"
"静安区","上海市静安区共和新路1700弄",121.46231502612613,31.274841119709045,"2022-04-29"
"静安区","上海市静安区共和新路1725弄",121.46434753217301,31.27720262432909,"2022-04-29"
"静安区","上海市静安区共和新路2999弄",121.46114956455749,31.294451077299822,"2022-04-29"
"静安区","上海市静安区共和新路3550号",121.45474338864365,31.307986068578717,"2022-04-29"
"静安区","上海市静安区共和新路4699弄",121.45502231250448,31.323576265945533,"2022-04-29"
"静安区","上海市静安区共和新路555弄",121.47060997920528,31.25892390415751,"2022-04-29"
"静安区","上海市静安区共和新路619弄",121.4715034338655,31.26046625793751,"2022-04-29"
"静安区","上海市静安区共和新路688弄",121.4691756547975,31.260511171490865,"2022-04-29"
"静安区","上海市静安区共和新路710弄",121.46863730030537,31.261505283480474,"2022-04-29"
"静安区","上海市静安区共和新路736弄",121.46920377175995,31.262594071693048,"2022-04-29"
"静安区","上海市静安区共和新路802弄",121.46978497542491,31.263048752192734,"2022-04-29"
"静安区","上海市静安区共和新路966号",121.46858007824437,31.265266484037504,"2022-04-29"
"静安区","上海市静安区共和新路970弄",121.46864206132457,31.265722077534534,"2022-04-29"
"静安区","上海市静安区公兴路220弄",121.48022696850346,31.261046196747248,"2022-04-29"
"静安区","上海市静安区广中路809号",121.4631030197195,31.286288837181974,"2022-04-29"
"静安区","上海市静安区广中西路818弄",121.44098610924998,31.28016634155461,"2022-04-29"
"静安区","上海市静安区海防路100弄",121.45616037575508,31.247381141103308,"2022-04-29"
"静安区","上海市静安区海防路223弄",121.45522110751385,31.245543731324616,"2022-04-29"
"静安区","上海市静安区海防路338弄",121.45322103029588,31.245084874933095,"2022-04-29"
"静安区","上海市静安区海防路403弄",121.45223594847364,31.244151332565703,"2022-04-29"
"静安区","上海市静安区海防路410弄",121.4518140143756,31.244756843331913,"2022-04-29"
"静安区","上海市静安区海防路440号",121.45130395650703,31.2442328394058,"2022-04-29"
"静安区","上海市静安区海防路58弄",121.45646993183382,31.24736076508598,"2022-04-29"
"静安区","上海市静安区海宁路1388号",121.4751672627185,31.250809960228814,"2022-04-29"
"静安区","上海市静安区汉中路18号",121.46660838748052,31.24975067183541,"2022-04-29"
"静安区","上海市静安区汉中路28弄",121.45343177276851,31.233844930401652,"2022-04-29"
"静安区","上海市静安区汉中路48号",121.46601406855514,31.24953626577337,"2022-04-29"
"静安区","上海市静安区汉中路68号",121.46585947017687,31.24941980093532,"2022-04-29"
"静安区","上海市静安区汉中路78弄",121.46570002094884,31.24937495923268,"2022-04-29"
"静安区","上海市静安区和田路118弄",121.47025236378175,31.2708539872752,"2022-04-29"
"静安区","上海市静安区和田路441弄",121.46614108895423,31.274018058896743,"2022-04-29"
"静安区","上海市静安区和田路448号",121.46635987126119,31.274177393912783,"2022-04-29"
"静安区","上海市静安区和田路451弄",121.45816988518091,31.277218673035517,"2022-04-29"
"静安区","上海市静安区恒丰北路100号",121.45802013765238,31.261691340682233,"2022-04-29"
"静安区","上海市静安区沪太路1051弄",121.43583971698331,31.284966867000147,"2022-04-29"
"静安区","上海市静安区沪太路1170弄",121.43392722455256,31.283330252014437,"2022-04-29"
"静安区","上海市静安区沪太路1188弄",121.43195463548321,31.284014049338282,"2022-04-29"
"静安区","上海市静安区沪太路365号",121.45843695140903,31.262089305838305,"2022-04-29"
"静安区","上海市静安区沪太路549号",121.45741090685551,31.263272927694082,"2022-04-29"
"静安区","上海市静安区沪太路617号",121.45507567185177,31.26638740672989,"2022-04-29"
"静安区","上海市静安区沪太路631弄",121.45662632682311,31.26730614278311,"2022-04-29"
"静安区","上海市静安区沪太路651弄",121.4552847973745,31.267443805797818,"2022-04-29"
"静安区","上海市静安区沪太路655弄",121.47044801472184,31.261024897661006,"2022-04-29"
"静安区","上海市静安区沪太路935弄",121.43919210331599,31.279907255375004,"2022-04-29"
"静安区","上海市静安区华山路251弄",121.45272193175454,31.225976852692988,"2022-04-29"
"静安区","上海市静安区华山路343号",121.45257964016176,31.22429682126687,"2022-04-29"
"静安区","上海市静安区淮安路687弄",121.45821668689796,31.24550753230674,"2022-04-29"
"静安区","上海市静安区淮安路703号",121.45790156132506,31.246123917082738,"2022-04-29"
"静安区","上海市静安区淮安路801号",121.45632000464421,31.24531835554824,"2022-04-29"
"静安区","上海市静安区淮安路811号",121.45611438251296,31.245259850377757,"2022-04-29"
"静安区","上海市静安区淮安路826弄",121.4558012332122,31.24535154448092,"2022-04-29"
"静安区","上海市静安区黄山路250号",121.47494223718824,31.27223873511996,"2022-04-29"
"静安区","上海市静安区黄山路280弄",121.4745494980193,31.272077159114005,"2022-04-29"
"静安区","上海市静安区江场西路1200号",121.43516338276486,31.30333135646076,"2022-04-29"
"静安区","上海市静安区江宁路495号",121.45819952926271,31.241368788456356,"2022-04-29"
"静安区","上海市静安区江宁路81号",121.46164776479333,31.235547870703186,"2022-04-29"
"静安区","上海市静安区江宁路906弄",121.45412068326412,31.246327525385976,"2022-04-29"
"静安区","上海市静安区江杨南路466弄",121.47443155050583,31.322721398879402,"2022-04-29"
"静安区","上海市静安区交城路229弄",121.43672239197741,31.300196587915686,"2022-04-29"
"静安区","上海市静安区交通路97号",121.48095567393314,31.25691825053829,"2022-04-29"
"静安区","上海市静安区胶州路120弄",121.45122733104704,31.232808685205118,"2022-04-29"
"静安区","上海市静安区胶州路274弄",121.45037160521824,31.234727397148337,"2022-04-29"
"静安区","上海市静安区胶州路565弄",121.4470871307821,31.239263802514216,"2022-04-29"
"静安区","上海市静安区胶州路718弄",121.44614804220197,31.241671900677332,"2022-04-29"
"静安区","上海市静安区景凤路403弄",121.46545604117233,31.325365021962973,"2022-04-29"
"静安区","上海市静安区景凤路480弄",121.46552539035771,31.32641419873316,"2022-04-29"
"静安区","上海市静安区巨鹿路845弄",121.45615839948296,31.22527919786751,"2022-04-29"
"静安区","上海市静安区康定路367弄",121.45578111116878,31.240800305668024,"2022-04-29"
"静安区","上海市静安区康定路418弄",121.45456130211676,31.24160752704108,"2022-04-29"
"静安区","上海市静安区康定路445弄",121.45444425290881,31.240236373502988,"2022-04-29"
"静安区","上海市静安区康定路460弄",121.45423431891115,31.24038943673042,"2022-04-29"
"静安区","上海市静安区康定路733弄",121.45043763067322,31.238234101255536,"2022-04-29"
"静安区","上海市静安区康定路950弄",121.44459999231663,31.23824151144002,"2022-04-29"
"静安区","上海市静安区康定路980弄",121.4448729873611,31.237696861316287,"2022-04-29"
"静安区","上海市静安区康定路988号",121.4444361413916,31.237507051238012,"2022-04-29"
"静安区","上海市静安区康乐路256弄",121.4833066292833,31.25532660036909,"2022-04-29"
"静安区","上海市静安区老沪太路199弄",121.46029761161184,31.274734099837392,"2022-04-29"
"静安区","上海市静安区老沪太路228号",121.45842177004589,31.27393611506837,"2022-04-29"
"静安区","上海市静安区老沪太路255弄",121.45813422245214,31.273646147535352,"2022-04-29"
"静安区","上海市静安区临汾路1051弄",121.45288183013531,31.31527373686876,"2022-04-29"
"静安区","上海市静安区临汾路1231弄",121.44938796068482,31.316857347061983,"2022-04-29"
"静安区","上海市静安区临汾路135弄",121.47125011171168,31.31627166199595,"2022-04-29"
"静安区","上海市静安区临汾路1564弄",121.44314806112084,31.318263932540905,"2022-04-29"
"静安区","上海市静安区临汾路1565弄",121.4438240360171,31.31590146147899,"2022-04-29"
"静安区","上海市静安区临汾路299弄",121.46826108995778,31.31580474635182,"2022-04-29"
"静安区","上海市静安区临汾路300弄",121.46855995620095,31.31818688632554,"2022-04-29"
"静安区","上海市静安区临汾路375弄",121.46593753292568,31.315580774093256,"2022-04-29"
"静安区","上海市静安区临汾路385号",121.4650621342062,31.316828965252625,"2022-04-29"
"静安区","上海市静安区临汾路80弄",121.45685135235337,31.317523622979795,"2022-04-29"
"静安区","上海市静安区临汾路850弄",121.45696139477833,31.317487837474452,"2022-04-29"
"静安区","上海市静安区临汾路951号",121.45447317834625,31.31688140989358,"2022-04-29"
"静安区","上海市静安区临汾路971弄",121.45414439852958,31.316802357298506,"2022-04-29"
"静安区","上海市静安区临山路203弄",121.47979371575599,31.26127292367599,"2022-04-29"
"静安区","上海市静安区临山路204号",121.47998227008253,31.260572599614793,"2022-04-29"
"静安区","上海市静安区临山路20号",121.4827832764932,31.261997859660973,"2022-04-29"
"静安区","上海市静安区灵石路1123弄",121.43409628564955,31.2800337123583,"2022-04-29"
"静安区","上海市静安区灵石路1201弄",121.43196227108004,31.279644465025537,"2022-04-29"
"静安区","上海市静安区灵石路735弄",121.44529528078134,31.292598701299823,"2022-04-29"
"静安区","上海市静安区灵石路963弄",121.43721663966902,31.283503921424433,"2022-04-29"
"静安区","上海市静安区岭南路700弄",121.46235832445173,31.312386257218943,"2022-04-29"
"静安区","上海市静安区柳营路1025弄",121.45655976238481,31.268273869351653,"2022-04-29"
"静安区","上海市静安区柳营路1079号",121.45568831620959,31.26693420469992,"2022-04-29"
"静安区","上海市静安区柳营路1081号",121.4556342382179,31.266914913265165,"2022-04-29"
"静安区","上海市静安区柳营路309弄",121.470841113213,31.274315664079303,"2022-04-29"
"静安区","上海市静安区柳营路319弄",121.46987678224804,31.273721070046967,"2022-04-29"
"静安区","上海市静安区柳营路328弄",121.47055886562177,31.273656255519317,"2022-04-29"
"静安区","上海市静安区柳营路463号",121.46868913253329,31.27297423420951,"2022-04-29"
"静安区","上海市静安区柳营路669弄",121.46370506407229,31.27100406820447,"2022-04-29"
"静安区","上海市静安区陆丰路116号",121.480947499353,31.2635353782603,"2022-04-29"
"静安区","上海市静安区陆丰路146号",121.48069103312992,31.263195681738683,"2022-04-29"
"静安区","上海市静安区陆丰路4号",121.48203067613693,31.264870615933056,"2022-04-29"
"静安区","上海市静安区洛川东路230号",121.47035791467917,31.277284565291676,"2022-04-29"
"静安区","上海市静安区洛川东路260号",121.46977239914777,31.27695417765656,"2022-04-29"
"静安区","上海市静安区洛川东路321号",121.46790033046497,31.276306361423224,"2022-04-29"
"静安区","上海市静安区洛川东路400弄",121.46711063009116,31.274956318323543,"2022-04-29"
"静安区","上海市静安区洛川中路1100弄",121.4560534773994,31.27070760991036,"2022-04-29"
