"district","address","lng","lat","date"
"浦东新区","上海市浦东新区张东路2281弄",121.643330323678,31.2079843888241,2022-04-01
"浦东新区","上海市浦东新区临江村西新队罗汉松",121.487328612543,31.1320833628314,2022-04-01
"浦东新区","上海市浦东新区临江村丁家队丁家宅",121.484386212845,31.1273406057646,2022-04-01
"浦东新区","上海市浦东新区浦电路221号",121.530044566662,31.2249883073877,2022-04-01
"浦东新区","上海市浦东新区龚路支路473弄",121.695481180568,31.2694697590493,2022-04-01
"浦东新区","上海市浦东新区繁荣东路159弄",121.591870173895,31.1128143261855,2022-04-01
"浦东新区","上海市浦东新区建新村",121.682639184659,31.3011430694013,2022-04-01
"浦东新区","上海市浦东新区新川路709弄",121.698909833039,31.1971445617822,2022-04-01
"浦东新区","上海市浦东新区瑞阳路81弄",121.594743853221,31.1053716682663,2022-04-01
"浦东新区","上海市浦东新区下南路500弄",121.543720818899,31.1779675877605,2022-04-01
"浦东新区","上海市浦东新区年家浜路461弄",121.576889312566,31.1200151830037,2022-04-01
"浦东新区","上海市浦东新区利津路1313弄",121.599145101067,31.2885047829117,2022-04-01
"浦东新区","上海市浦东新区千汇路198弄",121.774671033309,31.1118828667661,2022-04-01
"浦东新区","上海市浦东新区张江诸家宅",121.555771317823,31.2244951502302,2022-04-01
"浦东新区","上海市浦东新区民耀路227弄",121.660517423339,31.2798933674713,2022-04-01
"浦东新区","上海市浦东新区上川路620号",121.654460957761,31.2797095840184,2022-04-01
"浦东新区","上海市浦东新区瑞安路700弄",121.608342042709,31.0969418498795,2022-04-01
"浦东新区","上海市浦东新区海阳路1001弄",121.511333940856,31.1644801276135,2022-04-01
"浦东新区","上海市浦东新区新环西路27号",121.646674625261,31.0212296674051,2022-04-01
"浦东新区","上海市浦东新区东书房路560弄",121.543073679609,31.1677333099084,2022-04-01
"浦东新区","上海市浦东新区沪东新村",121.588773624971,31.2771578731139,2022-04-01
"浦东新区","上海市浦东新区妙境北路323号",121.693462238934,31.2109856635578,2022-04-01
"浦东新区","上海市浦东新区南塘村顾家宅",121.5746809183,31.345394276907,2022-04-01
"浦东新区","上海市浦东新区靖海南路567弄",121.777844297523,31.0388168570214,2022-04-01
"浦东新区","上海市浦东新区潍坊七村",121.528343355687,31.2294396510998,2022-04-01
"浦东新区","上海市浦东新区银冬路568号",121.643025528618,31.2116879803861,2022-04-01
"浦东新区","上海市浦东新区江绣路633弄",121.704637698462,31.1956847208981,2022-04-01
"浦东新区","上海市浦东新区国展路1776号工地生活区",121.496566767973,31.1889226474886,2022-04-01
"浦东新区","上海市浦东新区沈家弄路801弄",121.550238025374,31.2436243922176,2022-04-01
"浦东新区","上海市浦东新区鹏飞路411弄",121.562375031119,31.1774448319688,2022-04-01
"浦东新区","上海市浦东新区航鹤路1858弄",121.590976180251,31.0561511926496,2022-04-01
"浦东新区","上海市浦东新区中界村陈家队陈家宅",121.578579474383,31.194413133383,2022-04-01
"浦东新区","上海市浦东新区卫行村朱家队朱家宅",121.587201410668,31.1666652020159,2022-04-01
"浦东新区","上海市浦东新区浦电路149弄",121.527706996064,31.2244778572583,2022-04-01
"浦东新区","上海市浦东新区一心村",121.688848811327,31.2500387840308,2022-04-01
"浦东新区","上海市浦东新区洪山路1889弄",121.51638699918,31.1575965710788,2022-04-01
"浦东新区","上海市浦东新区苗圃路400弄",121.557724952646,31.2456136594517,2022-04-01
"浦东新区","上海市浦东新区莲振路269号",121.574360941877,31.173909356805,2022-04-01
"浦东新区","上海市浦东新区上南路3827弄",121.513376418094,31.1574412866063,2022-04-01
"浦东新区","上海市浦东新区云山路1415弄",121.583126427383,31.2495984729104,2022-04-01
"浦东新区","上海市浦东新区康沈路465弄",121.584859707864,31.1200779398788,2022-04-01
"浦东新区","上海市浦东新区杨思路502弄",121.501390507335,31.1651814797804,2022-04-01
"浦东新区","上海市浦东新区华夏二路1255弄",121.69800191566,31.1828119771678,2022-04-01
"浦东新区","上海市浦东新区关岳路181弄",121.593389118681,31.1261347085398,2022-04-01
"浦东新区","上海市浦东新区长岛路1560弄",121.608314285069,31.2706988133719,2022-04-01
"浦东新区","上海市浦东新区金桥路530弄",121.621784825343,31.2606638156741,2022-04-01
"浦东新区","上海市浦东新区灵岩南路1065号",121.506511836878,31.1484926041448,2022-04-01
"浦东新区","上海市浦东新区创新中路380弄",121.672441890001,31.2138392947654,2022-04-01
"浦东新区","上海市浦东新区御青路918弄",121.581132278981,31.1587678403555,2022-04-01
"浦东新区","上海市浦东新区五星村三联队黄家宅",121.57836549801,31.1799884502015,2022-04-01
"浦东新区","上海市浦东新区天花庵村芦家队芦家油车",121.533159710509,31.1300725193346,2022-04-01
"浦东新区","上海市浦东新区施湾二路766弄",121.753094902756,31.1521468594324,2022-04-01
"浦东新区","上海市浦东新区光明村",121.664900525414,31.296640292705,2022-04-01
"浦东新区","上海市浦东新区浦东大道1097号",121.537874556809,31.248656871619,2022-04-01
"浦东新区","上海市浦东新区联勤村冯桥队冯家宅",121.557447915227,31.1712123975815,2022-04-01
"浦东新区","上海市浦东新区启明村",121.699185882322,31.2841232959702,2022-04-01
"浦东新区","上海市浦东新区陈胡村",121.775553708303,31.200086337707,2022-04-01
"浦东新区","上海市浦东新区园洲路189弄",121.641902287409,31.321913567362,2022-04-01
"浦东新区","上海市浦东新区南码头路1349弄",121.522360102007,31.186235979404,2022-04-01
"浦东新区","上海市浦东新区卫行村张浜队顾家宅",121.587971438151,31.1702257460932,2022-04-01
"浦东新区","上海市浦东新区康杉路359弄",121.536884264815,31.1897022555378,2022-04-01
"浦东新区","上海市浦东新区前进村东窑队南李家宅",121.603576442148,31.2406625262236,2022-04-01
"浦东新区","上海市浦东新区下南路370弄",121.536884264815,31.1897022555378,2022-04-01
"浦东新区","上海市浦东新区川周公路4318弄",121.587429400606,31.1268947718151,2022-04-01
"浦东新区","上海市浦东新区林德路718弄",121.517756825252,31.1348698488989,2022-04-01
"浦东新区","上海市浦东新区五莲路1047弄",121.601390415689,31.2777458097831,2022-04-01
"浦东新区","上海市浦东新区罗山路1700弄",121.575072579502,31.2314363219569,2022-04-01
"浦东新区","上海市浦东新区上南路3521号",121.511585466399,31.1615953281232,2022-04-01
"浦东新区","上海市浦东新区下南路320弄",121.547891741212,31.1755488136572,2022-04-01
"浦东新区","上海市浦东新区东方路3344弄",121.520630235087,31.1975387859662,2022-04-01
"浦东新区","上海市浦东新区环东中心村",121.665447234148,31.1907304827522,2022-04-01
"浦东新区","上海市浦东新区博山路12弄",121.563217821348,31.2532525679138,2022-04-01
"浦东新区","上海市浦东新区博华路999弄",121.557113925239,31.1768062904657,2022-04-01
"浦东新区","上海市浦东新区柳埠路135弄",121.588934241996,31.2688910299805,2022-04-01
"浦东新区","上海市浦东新区瑞意路399弄",121.59268628445,31.1027918607619,2022-04-01
"浦东新区","上海市浦东新区德州路255弄",121.497632266573,31.1762287646668,2022-04-01
"浦东新区","上海市浦东新区金业路72号",121.596777527065,31.2601737791154,2022-04-01
"浦东新区","上海市浦东新区灵山路1390弄",121.569665768468,31.2431500121506,2022-04-01
"浦东新区","上海市浦东新区银峰路676弄",121.652778790863,31.290487771739,2022-04-01
"浦东新区","上海市浦东新区五星村陈家队陈家宅",121.578579474383,31.194413133383,2022-04-01
"浦东新区","上海市浦东新区城南村一队朱家宅",121.805643978479,30.942819291076,2022-04-01
"浦东新区","上海市浦东新区东方路573弄",121.531333545238,31.2376845881265,2022-04-01
"浦东新区","上海市浦东新区临江村王家宅",121.532353481314,31.2226591437399,2022-04-01
"浦东新区","上海市浦东新区周市路380弄",121.587868043186,31.1226080426831,2022-04-01
"浦东新区","上海市浦东新区海春路65弄",121.591274148189,31.3559000641284,2022-04-01
"浦东新区","上海市浦东新区秀龙村",121.569139900423,31.1326056758834,2022-04-01
"浦东新区","上海市浦东新区瑞浦路77弄",121.592640920022,31.1039600259099,2022-04-01
"浦东新区","上海市浦东新区康弘路508弄",121.606984613253,31.1269347261659,2022-04-01
"浦东新区","上海市浦东新区柳埠路142弄",121.588915647072,31.2693304014172,2022-04-01
"浦东新区","上海市浦东新区钱堂村",121.614687762662,31.1631872589463,2022-04-01
"浦东新区","上海市浦东新区碧云路86弄",121.580076859837,31.2413684025222,2022-04-01
"浦东新区","上海市浦东新区浦东大道2639弄",121.573829414507,31.2700964028423,2022-04-01
"浦东新区","上海市浦东新区华夏西路5778号",121.586719020609,31.1726628869663,2022-04-01
"浦东新区","上海市浦东新区莲安西路123弄",121.559968201166,31.1847215961689,2022-04-01
"浦东新区","上海市浦东新区东陆路429弄",121.59239119109,31.2862846710958,2022-04-01
"浦东新区","上海市浦东新区商城路1177弄",121.533303080069,31.2409195599813,2022-04-01
"浦东新区","上海市浦东新区高青路4567弄",121.536884264815,31.1897022555378,2022-04-01
"浦东新区","上海市浦东新区康士路15弄",121.569516739584,31.1556683987021,2022-04-01
"浦东新区","上海市浦东新区金口路471弄",121.58930820658,31.2526068254862,2022-04-01
"浦东新区","上海市浦东新区周秀路118弄",121.611806088416,31.105759862334,2022-04-01
"浦东新区","上海市浦东新区严杨路45弄",121.533665815834,31.2001061834731,2022-04-01
"浦东新区","上海市浦东新区浦东大道1623弄",121.549043907859,31.2517675929144,2022-04-01
"浦东新区","上海市浦东新区兰陵路24弄",121.522661573337,31.2007156086114,2022-04-01
"浦东新区","上海市浦东新区南新村西钟家宅",121.548654941573,31.1732516349633,2022-04-01
"浦东新区","上海市浦东新区长岛路825弄",121.595186987329,31.2692838716632,2022-04-01
"浦东新区","上海市浦东新区板泉路2000弄",121.536884264815,31.1897022555378,2022-04-01
"浦东新区","上海市浦东新区东陆路1018弄",121.599020955246,31.2779119282265,2022-04-01
"浦东新区","上海市浦东新区周康路169号",121.579171278053,31.1146825504272,2022-04-01
"浦东新区","上海市浦东新区杨高北路3885弄",121.614215972608,31.2898991438308,2022-04-01
"浦东新区","上海市浦东新区鹤永路751弄",121.610426021661,31.0775687255746,2022-04-01
"浦东新区","上海市浦东新区临江村益民队罗汉松",121.487328612543,31.1320833628314,2022-04-01
"浦东新区","上海市浦东新区周园路1680弄",121.584859707864,31.1200779398788,2022-04-01
"浦东新区","上海市浦东新区霞玉路436弄",121.696086997804,31.2622910273004,2022-04-01
"浦东新区","上海市浦东新区盛荣路288弄",121.636263803384,31.1944164540822,2022-04-01
"浦东新区","上海市浦东新区御青路56弄",121.578469072636,31.1650319243446,2022-04-01
"浦东新区","上海市浦东新区杨莲路310弄",121.536884264815,31.1897022555378,2022-04-01
"浦东新区","上海市浦东新区红星村一队张家宅",121.691947606014,31.2362337931142,2022-04-01
"浦东新区","上海市浦东新区康弘路515弄",121.606533484226,31.127466032407,2022-04-01
"浦东新区","上海市浦东新区绿林路320弄",121.554834744499,31.1761626467343,2022-04-01
"浦东新区","上海市浦东新区德州路465弄",121.536884264815,31.1897022555378,2022-04-01
"浦东新区","上海市浦东新区枣庄路998弄",121.59064021399,31.253395808369,2022-04-01
"浦东新区","上海市浦东新区航绣路50弄",121.60439363067,31.0765771467867,2022-04-01
"浦东新区","上海市浦东新区金晓路96弄",121.681231989077,31.2838057397283,2022-04-01
"浦东新区","上海市浦东新区韩荡村南曹家宅",121.612718497323,31.1619299085374,2022-04-01
"浦东新区","上海市浦东新区张家桥村",121.693207659153,31.0432861601919,2022-04-01
"浦东新区","上海市浦东新区莲振路298号",121.574994965906,31.1733958475341,2022-04-01
"浦东新区","上海市浦东新区寿光路78弄",121.592102026547,31.2793908554345,2022-04-01
"浦东新区","上海市浦东新区川沙路1215号",121.684426004149,31.2686208780239,2022-04-01
"浦东新区","上海市浦东新区芳华路478弄",121.536884264815,31.1897022555378,2022-04-01
"浦东新区","上海市浦东新区周星路500弄",121.585699803177,31.1080593111742,2022-04-01
"浦东新区","上海市浦东新区利津路1111弄",121.599224870596,31.2848039242965,2022-04-01
"浦东新区","上海市浦东新区联勤村张家宅",121.641939387426,31.3298699592958,2022-04-01
"浦东新区","上海市浦东新区兰谷路1888弄",121.598513322802,31.3041258503248,2022-04-01
"浦东新区","上海市浦东新区光泽路428弄",121.623076229345,31.3364001046861,2022-04-01
"浦东新区","上海市浦东新区金台路200弄",121.594221578397,31.2570844831908,2022-04-01
"浦东新区","上海市浦东新区胶东路818弄",121.607414811761,31.2664211283456,2022-04-01
"浦东新区","上海市浦东新区永泰路775弄",121.52441470637,31.1479803464903,2022-04-01
"浦东新区","上海市浦东新区翔川路458弄",121.701523183428,31.1890314381616,2022-04-01
"浦东新区","上海市浦东新区乳山路161弄",121.528018079262,31.2415971840306,2022-04-01
"浦东新区","上海市浦东新区博山东路41弄",121.56481087634,31.2537794540025,2022-04-01
"浦东新区","上海市浦东新区东陆路1182弄",121.602356004282,31.2753682698756,2022-04-01
"浦东新区","上海市浦东新区五星村家务队顾家宅",121.57836549801,31.1799884502015,2022-04-01
"浦东新区","上海市浦东新区莲安西路125弄",121.559745780722,31.1853271824863,2022-04-01
"浦东新区","上海市浦东新区巨峰路667弄",121.602812792634,31.2880466003474,2022-04-01
"浦东新区","上海市浦东新区一六村赵家队南赵家宅",121.602726734966,31.1731882956816,2022-04-01
"浦东新区","上海市浦东新区张杨路1269弄",121.538690487704,31.238534367636,2022-04-01
"浦东新区","上海市浦东新区海阳路1080弄",121.513439479141,31.1641353592278,2022-04-01
"浦东新区","上海市浦东新区联合村西柴场",121.67746314831,31.3033290423911,2022-04-01
"浦东新区","上海市浦东新区上南路7992弄",121.58100651621,31.1250013643354,2022-04-01
"浦东新区","上海市浦东新区果园村",121.737440132634,30.9836647732627,2022-04-01
"浦东新区","上海市浦东新区博华路1018弄",121.557501993219,31.1768508579768,2022-04-01
"浦东新区","上海市浦东新区柳埠路196弄",121.589881325495,31.2710215840607,2022-04-01
"浦东新区","上海市浦东新区福山路40弄",121.530906490799,31.242456421864,2022-04-01
"浦东新区","上海市浦东新区南桥路237弄",121.71515946107,31.1975804091475,2022-04-01
"浦东新区","上海市浦东新区横桥路136弄",121.581984231927,31.1141296075322,2022-04-01
"浦东新区","上海市浦东新区双桥路180弄",121.600158299852,31.2903926503377,2022-04-01
"浦东新区","上海市浦东新区浦东大道501弄",121.525107120257,31.2485129292745,2022-04-01
"浦东新区","上海市浦东新区莲园路18弄",121.550383281374,31.1909158312077,2022-04-01
"浦东新区","上海市浦东新区张杨北路555弄",121.593490267882,31.2720642731454,2022-04-01
"浦东新区","上海市浦东新区五莲路959弄",121.598657680497,31.2773239154459,2022-04-01
"浦东新区","上海市浦东新区丁香路1089弄",121.562914194086,31.2347233059554,2022-04-01
"浦东新区","上海市浦东新区周秀路516弄",121.613691991004,31.0962398333974,2022-04-01
"浦东新区","上海市浦东新区陈春路620弄",121.552907609688,31.1780781941088,2022-04-01
"浦东新区","上海市浦东新区上南路3333弄",121.510000496157,31.1650199506295,2022-04-01
"浦东新区","上海市浦东新区罗山路5011号",121.597248328983,31.1700255255625,2022-04-01
"浦东新区","上海市浦东新区招远路19弄",121.521229943845,31.2416451169276,2022-04-01
"浦东新区","上海市浦东新区蒋桥村",121.667276184166,31.0543212498287,2022-04-01
"浦东新区","上海市浦东新区五星村陈家队奚家宅",121.578579474383,31.194413133383,2022-04-01
"浦东新区","上海市浦东新区芳甸路333弄",121.529696185109,31.2072012517119,2022-04-01
"浦东新区","上海市浦东新区博兴路462弄",121.589409086289,31.2720183620453,2022-04-01
"浦东新区","上海市浦东新区周市路1321号",121.589701664393,31.1193185943326,2022-04-01
"浦东新区","上海市浦东新区康巴路250弄",121.576373415711,31.1471010802282,2022-04-01
"浦东新区","上海市浦东新区南新村赵家厍",121.543435157746,31.1767913831306,2022-04-01
"浦东新区","上海市浦东新区商城路1317弄",121.537666599084,31.2426375770902,2022-04-01
"浦东新区","上海市浦东新区中科路申江路交界口工地生活区",121.628613025186,31.1856755801367,2022-04-01
"浦东新区","上海市浦东新区康花路661号工地生活区",121.554831420768,31.1531383976349,2022-04-01
"浦东新区","上海市浦东新区栖山路401弄",121.556033443371,31.2539878305727,2022-04-01
"浦东新区","上海市浦东新区乳山路200弄",121.535521715017,31.2435075340906,2022-04-01
"浦东新区","上海市浦东新区永业路193弄",121.620843221508,31.2730704536054,2022-04-01
"浦东新区","上海市浦东新区民丰村李家宅",121.648615953299,31.2142128338184,2022-04-01
"浦东新区","上海市浦东新区鹏飞路28弄",121.561872249525,31.1809195430465,2022-04-01
"浦东新区","上海市浦东新区浦三路858弄",121.525334122059,31.1878640994469,2022-04-01
"浦东新区","上海市浦东新区苗桥路935弄",121.602516621307,31.104273708865,2022-04-01
"浦东新区","上海市浦东新区上南路1251弄",121.502606274012,31.1785212361064,2022-04-01
"浦东新区","上海市浦东新区凌河路354弄",121.606028636529,31.2799354941061,2022-04-01
"浦东新区","上海市浦东新区浦三路817弄",121.525675029,31.1889618539061,2022-04-01
"浦东新区","上海市浦东新区创业路78弄",121.584859707864,31.1200779398788,2022-04-01
"浦东新区","上海市浦东新区勤益村",121.716810366936,31.2151954706716,2022-04-01
"浦东新区","上海市浦东新区芳甸路77弄",121.564410142252,31.2361624685333,2022-04-01
"浦东新区","上海市浦东新区南阜村",121.526167659742,31.1360516018922,2022-04-01
"浦东新区","上海市浦东新区周秀路336弄",121.613561107891,31.1004840889994,2022-04-01
"浦东新区","上海市浦东新区御桥村印家队东印家圈",121.564637683037,31.1740750417323,2022-04-01
"浦东新区","上海市浦东新区永建路86弄",121.622445259554,31.2689667279465,2022-04-01
"浦东新区","上海市浦东新区宁桥路825号",121.626860520966,31.2591913831259,2022-04-01
"浦东新区","上海市浦东新区浦三路637弄",121.52647389209,31.1943613150149,2022-04-01
"浦东新区","上海市浦东新区北艾路828弄",121.544077176694,31.1899350248015,2022-04-01
"浦东新区","上海市浦东新区航东村",121.607737213609,31.03214843823,2022-04-01
"浦东新区","上海市浦东新区五星村南黄队陈家宅",121.57836549801,31.1799884502015,2022-04-01
"浦东新区","上海市浦东新区浦三路628弄",121.522452447814,31.1943233972342,2022-04-01
"浦东新区","上海市浦东新区红枫路108弄",121.594524307354,31.2505991840194,2022-04-01
"浦东新区","上海市浦东新区尚博路650弄",121.528447918449,31.1552413956385,2022-04-01
"浦东新区","上海市浦东新区汤巷中心村",121.618456872921,31.1498058407497,2022-04-01
"浦东新区","上海市浦东新区新丰村万翔宅",121.655689210884,31.1676141168701,2022-04-01
"浦东新区","上海市浦东新区顾东村",121.668134784572,31.29938100167,2022-04-01
"浦东新区","上海市浦东新区胡巷村金家宅",121.52500489309,31.1587157705195,2022-04-01
"浦东新区","上海市浦东新区大众村中心新村",121.654636127335,31.2345319459938,2022-04-01
"浦东新区","上海市浦东新区施湾二路1026弄",121.755632525991,31.1472254760431,2022-04-01
"浦东新区","上海市浦东新区佳虹路50弄",121.620594570543,31.2723240755337,2022-04-01
"浦东新区","上海市浦东新区红旗村",121.760312787529,31.1744514428127,2022-04-01
"浦东新区","上海市浦东新区羽山路600弄",121.554654454583,31.2403090843563,2022-04-01
"浦东新区","上海市浦东新区金高路2131弄",121.61704653327,31.2674719711318,2022-04-01
"浦东新区","上海市浦东新区三彩路59弄",121.506355531719,31.132930313735,2022-04-01
"浦东新区","上海市浦东新区瑞建路88弄",121.599359796084,31.1025420236639,2022-04-01
"浦东新区","上海市浦东新区拱乐路2400弄",121.749606962122,31.067545829755,2022-04-01
"浦东新区","上海市浦东新区锦绣路666弄",121.56437888122,31.2286034529119,2022-04-01
"浦东新区","上海市浦东新区临江村周南队周家宅",121.478736410171,31.1240123722048,2022-04-01
"浦东新区","上海市浦东新区崮山路251弄",121.560059469006,31.2522828335212,2022-04-01
"浦东新区","上海市浦东新区牟平路154弄",121.5896261169,31.2815848989426,2022-04-01
"浦东新区","上海市浦东新区枣庄路399弄",121.584712206099,31.261941757194,2022-04-01
"浦东新区","上海市浦东新区昌里东路71弄",121.51070692361,31.1826643807287,2022-04-01
"浦东新区","上海市浦东新区长岛路259弄",121.583252369815,31.2731793272369,2022-04-01
"浦东新区","上海市浦东新区金杨路785弄",121.589437562574,31.2596987884712,2022-04-01
"浦东新区","上海市浦东新区梅花路230弄",121.548698060238,31.2144220706276,2022-04-01
"浦东新区","上海市浦东新区南泉路1211弄",121.529722254645,31.2192635716987,2022-04-01
"浦东新区","上海市浦东新区康杉路151弄",121.567301338536,31.1577240432149,2022-04-01
"浦东新区","上海市浦东新区成山路558号",121.515106015523,31.1779565425663,2022-04-01
"浦东新区","上海市浦东新区上浦路510弄",121.506222941826,31.1521017393601,2022-04-01
"浦东新区","上海市浦东新区柴场村",121.732663662576,31.1867538977984,2022-04-01
"浦东新区","上海市浦东新区民众村运河西",121.676911049744,31.2824490155834,2022-04-01
"浦东新区","上海市浦东新区康杉路608弄",121.536884264815,31.1897022555378,2022-04-01
"浦东新区","上海市浦东新区拱川路561弄",121.774859587635,31.0609104552718,2022-04-01
"浦东新区","上海市浦东新区峨山路280弄",121.534409702627,31.2202734086393,2022-04-01
"浦东新区","上海市浦东新区锦和路289弄",121.54364599005,31.2106408345678,2022-04-01
"浦东新区","上海市浦东新区栏学路328弄",121.672919968193,31.1731138333494,2022-04-01
"浦东新区","上海市浦东新区南泉路1111弄",121.529533610488,31.2193315893455,2022-04-01
"浦东新区","上海市浦东新区迎春路1355弄",121.569082498701,31.235478938542,2022-04-01
"浦东新区","上海市浦东新区清溪路365弄",121.578081633469,31.347103664356,2022-04-01
"浦东新区","上海市浦东新区龚路公路700号",121.702157297288,31.2701500311948,2022-04-01
"浦东新区","上海市浦东新区海鸣路98弄",121.677548217842,31.2886278337477,2022-04-01
"浦东新区","上海市浦东新区海容路399弄",121.686258637219,31.2876554577026,2022-04-01
"浦东新区","上海市浦东新区龚华路35弄",121.652778790863,31.290487771739,2022-04-01
"浦东新区","上海市浦东新区新安村",121.687760154879,31.0293322194091,2022-04-01
"浦东新区","上海市浦东新区清溪路400弄",121.577475636572,31.3476508374997,2022-04-01
"浦东新区","上海市浦东新区浦东大道1695弄",121.550783925632,31.2536836006242,2022-04-01
"浦东新区","上海市浦东新区花墙村",121.55274169266,31.1563281752622,2022-04-01
"浦东新区","上海市浦东新区博山路51弄",121.563650984265,31.2507948331348,2022-04-01
"浦东新区","上海市浦东新区成山路350弄",121.510295409856,31.1773702957771,2022-04-01
"浦东新区","上海市浦东新区华戴路599弄",121.705983000794,31.1821038828723,2022-04-01
"浦东新区","上海市浦东新区瑞浦路8弄",121.550454606832,31.2273482924363,2022-04-01
"浦东新区","上海市浦东新区瑞安路80弄",121.592960267631,31.0952153638675,2022-04-01
"浦东新区","上海市浦东新区成山路300弄",121.507887861258,31.1768400443712,2022-04-01
"浦东新区","上海市浦东新区航瑞路459弄",121.597673676642,31.0823698171719,2022-04-01
"浦东新区","上海市浦东新区五莲路1168号",121.602929392689,31.2784563440545,2022-04-01
"浦东新区","上海市浦东新区上南路5588号",121.534100685531,31.1291441675857,2022-04-01
"浦东新区","上海市浦东新区懿德村",121.522822549684,31.1249738516842,2022-04-01
"浦东新区","上海市浦东新区杨思路436弄",121.500760435851,31.1656608126153,2022-04-01
"浦东新区","上海市浦东新区金湘路201弄",121.619764626082,31.261871069581,2022-04-01
"浦东新区","上海市浦东新区浦东大道691弄",121.568688412073,31.2656972298435,2022-04-01
"浦东新区","上海市浦东新区五莲路593弄",121.593416966152,31.2756029093837,2022-04-01
"浦东新区","上海市浦东新区灵山路1415弄",121.570780206284,31.2449987378052,2022-04-01
"浦东新区","上海市浦东新区川周公路4011弄",121.593959991833,31.1314798283761,2022-04-01
"浦东新区","上海市浦东新区五莲路1769弄",121.60380012022,31.290088693223,2022-04-01
"浦东新区","上海市浦东新区桃林路299弄",121.543789000287,31.2452268929635,2022-04-01
"浦东新区","上海市浦东新区秋岚路58弄",121.59669685923,31.3330073547233,2022-04-01
"浦东新区","上海市浦东新区南码头路551弄",121.518424535738,31.1974252681048,2022-04-01
"浦东新区","上海市浦东新区永业路225弄",121.621783208393,31.2730764721369,2022-04-01
"浦东新区","上海市浦东新区严中路140弄",121.536105883091,31.1992723487879,2022-04-01
"浦东新区","上海市浦东新区灵山路600弄",121.550404750876,31.2341249863555,2022-04-01
"浦东新区","上海市浦东新区御青路999弄",121.579524761271,31.1602976299725,2022-04-01
"浦东新区","上海市浦东新区栖山路400弄",121.557578978001,31.2520178816585,2022-04-01
"浦东新区","上海市浦东新区严杨路60弄",121.536194994997,31.2003668807737,2022-04-01
"浦东新区","上海市浦东新区龙东大道4288弄",121.666165339572,31.2285108160206,2022-04-01
"浦东新区","上海市浦东新区胡巷村",121.52500489309,31.1587157705195,2022-04-01
"浦东新区","上海市浦东新区年家浜东路129弄",121.598925375539,31.1203651370632,2022-04-01
"浦东新区","上海市浦东新区宣春路201号",121.732443128573,31.0900012347801,2022-04-01
"浦东新区","上海市浦东新区航头路166号",121.610102452017,31.0410924928042,2022-04-01
"浦东新区","上海市浦东新区临江村庞家队庞信隆",121.479922892088,31.1219352770893,2022-04-01
"浦东新区","上海市浦东新区五莲路759弄",121.597702871571,31.2763872229612,2022-04-01
"浦东新区","上海市浦东新区丁香路910弄",121.560392021706,31.2312404779508,2022-04-01
"浦东新区","上海市浦东新区一六村油车队",121.596814896574,31.1680199751116,2022-04-01
"浦东新区","上海市浦东新区临江村庞家队庞家宅",121.482806722267,31.124007039641,2022-04-01
"浦东新区","上海市浦东新区一六村金桥队南赵家宅",121.602726734966,31.1731882956816,2022-04-01
"浦东新区","上海市浦东新区虹桥村",121.716854563567,31.1816569960014,2022-04-01
"浦东新区","上海市浦东新区和平村钱家宅",121.736251135461,31.2055576639467,2022-04-01
"浦东新区","上海市浦东新区双店村",121.823464653016,31.0050102493191,2022-04-01
"浦东新区","上海市浦东新区尚博路799弄",121.530770397514,31.1561646994414,2022-04-01
"浦东新区","上海市浦东新区临江村张塘队张家宅",121.732101682649,31.2614765761563,2022-04-01
"浦东新区","上海市浦东新区下南路276弄",121.536884264815,31.1897022555378,2022-04-01
"浦东新区","上海市浦东新区和平村龚家宅",121.736251135461,31.2055576639467,2022-04-01
"浦东新区","上海市浦东新区东陆路1350弄",121.5896261169,31.2815848989426,2022-04-01
"浦东新区","上海市浦东新区学前二村",121.590492532564,31.3525874321299,2022-04-01
"浦东新区","上海市浦东新区一六村船舫队",121.59622237426,31.1750988058813,2022-04-01
"浦东新区","上海市浦东新区新金桥路230号",121.606037799245,31.2552516631071,2022-04-01
"浦东新区","上海市浦东新区巨野路469弄",121.556437860512,31.2434342854279,2022-04-01
"浦东新区","上海市浦东新区迅建村",121.699225138273,31.2840908923215,2022-04-01
"浦东新区","上海市浦东新区五星村吴家队吴家宅",121.522180979889,31.1256048631317,2022-04-01
"浦东新区","上海市浦东新区张杨路1776弄",121.556913962432,31.2438853542581,2022-04-01
"浦东新区","上海市浦东新区峨山路500弄",121.530728716138,31.2194978888096,2022-04-01
"浦东新区","上海市浦东新区北园路258弄",121.53086597722,31.2096526677908,2022-04-01
"浦东新区","上海市浦东新区唐陆公路陈家宅",121.68909710297,31.1957176185363,2022-04-01
"浦东新区","上海市浦东新区新虹村赵家宅",121.655033627523,31.2487133679639,2022-04-01
"浦东新区","上海市浦东新区虹三村七队龚家宅",121.842774268937,30.9559508004424,2022-04-01
"浦东新区","上海市浦东新区前进村唐家宅",121.758661702001,31.1245035850386,2022-04-01
"浦东新区","上海市浦东新区上南路929弄",121.507678825566,31.1860937173936,2022-04-01
"浦东新区","上海市浦东新区沪南公路7518号",121.660889591312,31.035401250406,2022-04-01
"浦东新区","上海市浦东新区新卫村",121.64761515113,31.044082628274,2022-04-01
"浦东新区","上海市浦东新区韩荡村西丁家宅",121.669724605664,31.2288207632593,2022-04-01
"浦东新区","上海市浦东新区碧云路1198号",121.596007679243,31.2488803870134,2022-04-01
"浦东新区","上海市浦东新区上南路6393号",121.584859707864,31.1200779398788,2022-04-01
"浦东新区","上海市浦东新区林展路411弄",121.515681739524,31.128169902288,2022-04-01
"浦东新区","上海市浦东新区板泉路2101弄",121.539604693221,31.1688158507634,2022-04-01
"浦东新区","上海市浦东新区牟平路304弄",121.606641999531,31.269810513048,2022-04-01
"浦东新区","上海市浦东新区高科西路2757弄",121.560650913354,31.1958814887592,2022-04-01
"浦东新区","上海市浦东新区巨野路236号",121.551835841384,31.2469460658594,2022-04-01
"浦东新区","上海市浦东新区民建村",121.667798908142,31.2822498065456,2022-04-01
"浦东新区","上海市浦东新区和龙路295弄",121.577540943383,31.3492056027673,2022-04-01
"浦东新区","上海市浦东新区南泉路1300弄",121.528930308507,31.217418043381,2022-04-01
"浦东新区","上海市浦东新区中界村张家队张家宅",121.691947606014,31.2362337931142,2022-04-01
"浦东新区","上海市浦东新区巨峰路176弄",121.603201669089,31.285412489154,2022-04-01
"浦东新区","上海市浦东新区永泰路133弄",121.509215736463,31.1415938891426,2022-04-01
"浦东新区","上海市浦东新区东陆路1031弄",121.5896261169,31.2815848989426,2022-04-01
"浦东新区","上海市浦东新区航亭环路399弄",121.768482426989,31.105525647467,2022-04-01
"浦东新区","上海市浦东新区拱海路78弄",121.774859587635,31.0609104552718,2022-04-01
"浦东新区","上海市浦东新区严杨路166弄",121.536194994997,31.2003668807737,2022-04-01
"浦东新区","上海市浦东新区张杨路1734弄",121.554515217229,31.2428223596905,2022-04-01
"浦东新区","上海市浦东新区张杨路1698弄",121.551694448097,31.2417697732193,2022-04-01
"浦东新区","上海市浦东新区浦东大道1851弄",121.552497443392,31.2531016867014,2022-04-01
"浦东新区","上海市浦东新区灵山路1724弄",121.574529733483,31.2463031356353,2022-04-01
"浦东新区","上海市浦东新区灵山路708弄",121.554943080143,31.2366683006687,2022-04-01
"浦东新区","上海市浦东新区碧云路777号",121.59185804677,31.2467122033963,2022-04-01
"浦东新区","上海市浦东新区浦东南路1475弄",121.525751744291,31.2285494147365,2022-04-01
"浦东新区","上海市浦东新区凌河路188弄",121.602161970292,31.2819038514981,2022-04-01
"浦东新区","上海市浦东新区潍坊路154弄",121.532304344003,31.2313464668942,2022-04-01
"浦东新区","上海市浦东新区莱阳路111弄",121.589537813468,31.332463488478,2022-04-01
"浦东新区","上海市浦东新区利津路729弄",121.596582954092,31.2806785708705,2022-04-01
"浦东新区","上海市浦东新区新建村",121.844814859733,30.9656173016138,2022-04-01
"浦东新区","上海市浦东新区五莲路400弄",121.587997039858,31.2780022786352,2022-04-01
"浦东新区","上海市浦东新区长岛路1066弄",121.597067769575,31.2660140759925,2022-04-01
"浦东新区","上海市浦东新区上南路1000弄",121.50066746123,31.1805938353858,2022-04-01
"浦东新区","上海市浦东新区荷泽路567弄",121.601167905414,31.2721412802845,2022-04-01
"浦东新区","上海市浦东新区南泉路1250弄",121.527931123289,31.2177477149724,2022-04-01
"浦东新区","上海市浦东新区巨野路60弄",121.549174970633,31.2496858406806,2022-04-01
"浦东新区","上海市浦东新区浦东大道2511弄",121.566406266925,31.265127505972,2022-04-01
"浦东新区","上海市浦东新区兰城路115弄",121.585504152237,31.272452471814,2022-04-01
"浦东新区","上海市浦东新区顾三村",121.682658228735,31.3010551326507,2022-04-01
"浦东新区","上海市浦东新区荷泽路58弄",121.59689080339,31.2787808625239,2022-04-01
"浦东新区","上海市浦东新区绿科路环业西路交界口工地生活区",121.582003365834,31.1829804268229,2022-04-01
"浦东新区","上海市浦东新区博山路13弄",121.56423874556,31.2509367653137,2022-04-01
"浦东新区","上海市浦东新区上南路6852号",121.584859707864,31.1200779398788,2022-04-01
"浦东新区","上海市浦东新区黄华村",121.883529940771,30.9778471500751,2022-04-01
"浦东新区","上海市浦东新区浦东大道2641弄",121.575420313565,31.2714724426133,2022-04-01
"浦东新区","上海市浦东新区东陆路898弄",121.598981609464,31.2808977661992,2022-04-01
"浦东新区","上海市浦东新区浦电路62弄",121.524943538824,31.2243655300639,2022-04-01
"浦东新区","上海市浦东新区长清路807弄",121.49922298597,31.1620532804187,2022-04-01
"浦东新区","上海市浦东新区南新村东钟家宅",121.548654941573,31.1732516349633,2022-04-01
"浦东新区","上海市浦东新区首善街619弄",121.87816597891,30.9817261471352,2022-04-01
"浦东新区","上海市浦东新区浦东大道2688号",121.576673000599,31.2698998681708,2022-04-01
"浦东新区","上海市浦东新区叠桥村",121.622828746177,31.1338499732159,2022-04-01
"浦东新区","上海市浦东新区三林镇徐家宅",121.492635801496,31.1609944554757,2022-04-01
"浦东新区","上海市浦东新区东海农场2村",121.908737022195,30.9608458762568,2022-04-01
"浦东新区","上海市浦东新区东靖路669弄",121.5896261169,31.2815848989426,2022-04-01
"浦东新区","上海市浦东新区宣中路697弄",121.712276708858,31.0270762594722,2022-04-01
"浦东新区","上海市浦东新区康桥东路1244号",121.637737129222,31.1624473560558,2022-04-01
"浦东新区","上海市浦东新区博山东路440弄",121.575265715187,31.258583187629,2022-04-01
"浦东新区","上海市浦东新区秀沿西路68弄",121.543756032475,31.1375878662796,2022-04-01
"浦东新区","上海市浦东新区浦电路218弄",121.53039158208,31.2260317415484,2022-04-01
"浦东新区","上海市浦东新区上南路3880弄",121.512285965035,31.1550669472926,2022-04-01
"浦东新区","上海市浦东新区宣镇东路628弄",121.707874203384,31.0263214241633,2022-04-01
"浦东新区","上海市浦东新区齐河路28弄",121.536884264815,31.1897022555378,2022-04-01
"浦东新区","上海市浦东新区金桥路1502弄",121.594345454727,31.2547025586795,2022-04-01
"浦东新区","上海市浦东新区荷泽路825弄",121.603786555807,31.2669893010156,2022-04-01
"浦东新区","上海市浦东新区张家浜路188弄",121.53255488141,31.2228417269417,2022-04-01
"浦东新区","上海市浦东新区康沈路250号",121.584859707864,31.1200779398788,2022-04-01
"浦东新区","上海市浦东新区三舒路288弄",121.525530311983,31.1391594184198,2022-04-01
"浦东新区","上海市浦东新区川银路81弄",121.692620975824,31.1986460798495,2022-04-01
"浦东新区","上海市浦东新区德平路58弄",121.565028176443,31.2583109222033,2022-04-01
"浦东新区","上海市浦东新区耀路423弄",121.550454606832,31.2273482924363,2022-04-01
"浦东新区","上海市浦东新区临江村筠西队庞家宅",121.482806722267,31.124007039641,2022-04-01
"浦东新区","上海市浦东新区芦云路200弄",121.865041915071,30.8791243095893,2022-04-01
"浦东新区","上海市浦东新区新营村张朱家宅",121.75788215248,31.2022478798707,2022-04-01
"浦东新区","上海市浦东新区日新村",121.818680457531,31.0678393737447,2022-04-01
"浦东新区","上海市浦东新区永和村",121.702053992154,31.2700965571685,2022-04-01
"浦东新区","上海市浦东新区浦明路1228弄",121.520969974231,31.219651912423,2022-04-01
"浦东新区","上海市浦东新区东河村",121.859546081961,31.0244161672922,2022-04-01
"浦东新区","上海市浦东新区镇南村",121.585893837167,31.3452678314131,2022-04-01
"浦东新区","上海市浦东新区浦建路207弄",121.530780009383,31.2145855992917,2022-04-01
"浦东新区","上海市浦东新区高桥镇胡家街",121.58895445387,31.3496287140033,2022-04-01
"浦东新区","上海市浦东新区康沈路1870弄",121.583784076846,31.1173942731762,2022-04-01
"浦东新区","上海市浦东新区海潮村",121.771538641995,30.9666057122856,2022-04-01
"浦东新区","上海市浦东新区莱阳路881弄",121.589560360937,31.2899718931953,2022-04-01
"浦东新区","上海市浦东新区沪南公路3468弄",121.602676429857,31.0445109098239,2022-04-01
"浦东新区","上海市浦东新区杨新路77弄",121.500168003367,31.1692430237866,2022-04-01
"浦东新区","上海市浦东新区江东路1992弄",121.554829085174,31.3659168806386,2022-04-01
"浦东新区","上海市浦东新区塘北村",121.886683532095,30.9153681578456,2022-04-01
"浦东新区","上海市浦东新区海鹏路380弄",121.676483635982,31.2939871381692,2022-04-01
"浦东新区","上海市浦东新区康桥路90弄",121.584859707864,31.1200779398788,2022-04-01
"浦东新区","上海市浦东新区曹路镇姜薛家宅",121.668889540862,31.2677748443918,2022-04-01
"浦东新区","上海市浦东新区长岛路1201弄",121.596729737212,31.2693476089323,2022-04-01
"浦东新区","上海市浦东新区东海二村",121.908737022195,30.9608458762568,2022-04-01
"浦东新区","上海市浦东新区长岛路85弄",121.584693431514,31.2745390409527,2022-04-01
"浦东新区","上海市浦东新区龚华路50弄",121.691832533078,31.2705828378796,2022-04-01
"浦东新区","上海市浦东新区民耀路293弄",121.652778790863,31.290487771739,2022-04-01
"浦东新区","上海市浦东新区卫行村顾家队顾家宅",121.659911336612,31.3037257502314,2022-04-01
"浦东新区","上海市浦东新区锦绣东路418弄",121.582601188151,31.234673825664,2022-04-01
"浦东新区","上海市浦东新区中林村",121.505046161608,31.1424974692412,2022-04-01
"浦东新区","上海市浦东新区沪南公路2688弄",121.571058052178,31.1374660849587,2022-04-01
"浦东新区","上海市浦东新区金钻路398弄",121.677268934659,31.2931799063564,2022-04-01
"浦东新区","上海市浦东新区妙境路162弄",121.695020439672,31.2023335930395,2022-04-01
"浦东新区","上海市浦东新区高博路188弄",121.5896261169,31.2815848989426,2022-04-01
"浦东新区","上海市浦东新区民耀路391弄",121.652778790863,31.290487771739,2022-04-01
"浦东新区","上海市浦东新区民同路293弄",121.652778790863,31.290487771739,2022-04-01
"浦东新区","上海市浦东新区瑞安路699弄",121.600951054464,31.0965824545837,2022-04-01
"浦东新区","上海市浦东新区中界村黄家队黄家宅",121.736194182891,31.2607886781219,2022-04-01
"浦东新区","上海市浦东新区南码头路1186弄",121.518999181772,31.1884760755886,2022-04-01
"浦东新区","上海市浦东新区临江村周北队周家宅",121.478736410171,31.1240123722048,2022-04-01
"浦东新区","上海市浦东新区利津路215弄",121.589409804933,31.2842053851632,2022-04-01
"浦东新区","上海市浦东新区华星村陆家宅",121.718486333002,31.2103311895224,2022-04-01
"浦东新区","上海市浦东新区栖山路1489弄",121.571031731827,31.2638235251368,2022-04-01
"浦东新区","上海市浦东新区浦东南路1533号",121.527644653661,31.2273723011377,2022-04-01
"浦东新区","上海市浦东新区博兴路1676弄",121.608179449411,31.2814973295333,2022-04-01
"浦东新区","上海市浦东新区永业路218弄",121.622881566541,31.2722620378447,2022-04-01
"浦东新区","上海市浦东新区栖山路1460弄",121.572349456179,31.2616772957301,2022-04-01
"浦东新区","上海市浦东新区浦东南路1288号",121.523559878847,31.2308961867454,2022-04-01
"浦东新区","上海市浦东新区溪平路425弄",121.692846989491,31.2677558617909,2022-04-01
"浦东新区","上海市浦东新区迎春路719号",121.55910160584,31.2305577611508,2022-04-01
"浦东新区","上海市浦东新区寿光路31弄",121.589460469364,31.2787974510506,2022-04-01
"浦东新区","上海市浦东新区川周公路2828弄",121.624521962232,31.1491248483126,2022-04-01
"浦东新区","上海市浦东新区昌里路340弄",121.500968393576,31.1782390828587,2022-04-01
"浦东新区","上海市浦东新区灵山路1840弄",121.578033843616,31.24805447336,2022-04-01
"浦东新区","上海市浦东新区牌楼村",121.565577580092,31.0591482746553,2022-04-01
"浦东新区","上海市浦东新区栏杆村",121.672901912253,31.1797774372486,2022-04-01
"浦东新区","上海市浦东新区成山路24弄",121.492308997952,31.1741468770644,2022-04-01
"浦东新区","上海市浦东新区祝家港路155弄",121.592181436754,31.1164185721122,2022-04-01
"浦东新区","上海市浦东新区崂山五村",121.52356526868,31.2427278844216,2022-04-01
"浦东新区","上海市浦东新区成山路601弄",121.515312086807,31.180125469339,2022-04-01
"浦东新区","上海市浦东新区张杨路2238弄",121.563858043685,31.2461446021012,2022-04-01
"浦东新区","上海市浦东新区懿行路971弄",121.51939497518,31.1311335477655,2022-04-01
"浦东新区","上海市浦东新区城南路374弄",121.708184028954,31.1981488455863,2022-04-01
"浦东新区","上海市浦东新区五莲路1424弄",121.606921013223,31.281810881647,2022-04-01
"浦东新区","上海市浦东新区崂山三村",121.526396817478,31.2389325085635,2022-04-01
"浦东新区","上海市浦东新区金家浜",121.564865762806,31.2632021639192,2022-04-01
"浦东新区","上海市浦东新区浦东大道2742弄",121.577979316472,31.2729270889842,2022-04-01
"浦东新区","上海市浦东新区天花庵村乐耕队",121.528534964252,31.1325218308858,2022-04-01
"浦东新区","上海市浦东新区航梅路525号",121.584725501021,31.0322550388617,2022-04-01
"浦东新区","上海市浦东新区寿光路161弄",121.590525320716,31.2803961854226,2022-04-01
"浦东新区","上海市浦东新区羽山路1445弄",121.567132277439,31.2467778856191,2022-04-01
"浦东新区","上海市浦东新区金桥路835弄",121.621784825343,31.2606638156741,2022-04-01
"浦东新区","上海市浦东新区新场村",121.65150670043,31.0251813073555,2022-04-01
"浦东新区","上海市浦东新区金葵路945弄",121.602138614349,31.2442502059109,2022-04-01
"浦东新区","上海市浦东新区巨野路大陆家宅",121.553185994566,31.2448978584695,2022-04-01
"浦东新区","上海市浦东新区杨辉村",121.655436427714,31.0142120560983,2022-04-01
"浦东新区","上海市浦东新区跃丰村",121.715041333895,31.2305627016793,2022-04-01
"浦东新区","上海市浦东新区新奉公路122弄",121.654089777924,31.016440005588,2022-04-01
"浦东新区","上海市浦东新区高宝路229弄",121.627287216084,31.2976695818787,2022-04-01
"浦东新区","上海市浦东新区新川路625弄",121.700788369521,31.1979032777612,2022-04-01
"浦东新区","上海市浦东新区新环西路1000弄",121.645105644857,31.0347522286138,2022-04-01
"浦东新区","上海市浦东新区拱海路79弄",121.746781611632,31.0755312765563,2022-04-01
"浦东新区","上海市浦东新区千汇路750弄",121.77091009763,31.1228952321347,2022-04-01
"浦东新区","上海市浦东新区浦电路48弄",121.523018290455,31.2247743849636,2022-04-01
"浦东新区","上海市浦东新区龙汇路1880弄",121.536884264815,31.1897022555378,2022-04-01
"浦东新区","上海市浦东新区千汇路580弄",121.774441695912,31.1180387837147,2022-04-01
"浦东新区","上海市浦东新区祥安路36弄",121.821194455331,30.9666463539506,2022-04-01
"浦东新区","上海市浦东新区上浦路480弄",121.505296160031,31.1517175997843,2022-04-01
"浦东新区","上海市浦东新区乳山二村",121.524533013205,31.2396318369159,2022-04-01
"浦东新区","上海市浦东新区千汇路32弄",121.766842749942,31.1140887975279,2022-04-01
"浦东新区","上海市浦东新区行德路141弄",121.617842431952,31.3000275778643,2022-04-01
"浦东新区","上海市浦东新区康沈路2588弄",121.587931553386,31.1027454801627,2022-04-01
"浦东新区","上海市浦东新区长清路773弄",121.498012070143,31.1619738650998,2022-04-01
"浦东新区","上海市浦东新区金亭公路619号",121.774519938322,31.11811970468,2022-04-01
"浦东新区","上海市浦东新区五莲路100弄",121.585797359155,31.2816781004793,2022-04-01
"浦东新区","上海市浦东新区尚博路366弄",121.502484912938,31.1515816207966,2022-04-01
"浦东新区","上海市浦东新区浦东南路2351弄",121.519461719279,31.2055986658343,2022-04-01
"浦东新区","上海市浦东新区兰谷路2777弄",121.602138973671,31.3162774463674,2022-04-01
"浦东新区","上海市浦东新区济阳路65弄",121.488308933346,31.1730161980026,2022-04-01
"浦东新区","上海市浦东新区北中路354弄",121.566413902522,31.1901497991136,2022-04-01
"浦东新区","上海市浦东新区沪二小区",121.589043475946,31.2748199780859,2022-04-01
"浦东新区","上海市浦东新区秀沿路2875弄",121.616066481959,31.1449302308223,2022-04-01
"浦东新区","上海市浦东新区高桥村江家宅",121.704849429071,31.2927350155794,2022-04-01
"浦东新区","上海市浦东新区锦安东路458弄",121.54897401969,31.2063128370759,2022-04-01
"浦东新区","上海市浦东新区六灶湾村",121.772763391728,31.0206357891609,2022-04-01
"浦东新区","上海市浦东新区德平路1060弄",121.573486710955,31.2482496647136,2022-04-01
"浦东新区","上海市浦东新区俱进路505弄",121.5896261169,31.2815848989426,2022-04-01
"浦东新区","上海市浦东新区浦东大道2740弄",121.57810292331,31.2725928278825,2022-04-01
"浦东新区","上海市浦东新区博兴路616弄",121.590505647825,31.2688501329907,2022-04-01
"浦东新区","上海市浦东新区康沈路1929弄",121.58702570211,31.1173485180928,2022-04-01
"浦东新区","上海市浦东新区莲溪路1099弄",121.569863395681,31.1817477483468,2022-04-01
"浦东新区","上海市浦东新区东方路1600弄",121.532426513552,31.2147143064955,2022-04-01
"浦东新区","上海市浦东新区莱阳路451弄",121.58929185742,31.2821589973274,2022-04-01
"浦东新区","上海市浦东新区东绣路1086弄",121.54294171853,31.2052691831155,2022-04-01
"浦东新区","上海市浦东新区张杨北路588弄",121.595215283953,31.275260170384,2022-04-01
"浦东新区","上海市浦东新区北张家浜路188弄",121.531700772531,31.2222772233074,2022-04-01
"浦东新区","上海市浦东新区上南四村",121.503619113475,31.1776447277014,2022-04-01
"浦东新区","上海市浦东新区大众村王家宅",121.532353481314,31.2226591437399,2022-04-01
"浦东新区","上海市浦东新区西门村",121.748019117303,31.0603939308044,2022-04-01
"浦东新区","上海市浦东新区劳动村",121.635001684142,31.1855036598441,2022-04-01
"浦东新区","上海市浦东新区丁香路1399弄",121.570496790896,31.236774283463,2022-04-01
"浦东新区","上海市浦东新区民生路423号",121.549549653861,31.2461534009509,2022-04-01
"浦东新区","上海市浦东新区博兴路986弄",121.597262971363,31.270671034824,2022-04-01
"浦东新区","上海市浦东新区西泥路113弄",121.709314097286,31.2035186660831,2022-04-01
"浦东新区","上海市浦东新区红四村",121.661870451098,31.2465755132171,2022-04-01
"浦东新区","上海市浦东新区新南村",121.651758764956,31.0079523932617,2022-04-01
"浦东新区","上海市浦东新区汤巷村",121.610593825131,31.1445646831543,2022-04-01
"浦东新区","上海市浦东新区崮山路311号",121.560707955753,31.2517083199962,2022-04-01
"浦东新区","上海市浦东新区永宁路33弄",121.6209919809,31.2789818535449,2022-04-01
"浦东新区","上海市浦东新区浦建路83弄",121.525390176323,31.2156239764809,2022-04-01
"浦东新区","上海市浦东新区云山路1045弄",121.580790653396,31.254575295647,2022-04-01
"浦东新区","上海市浦东新区荡湾路2号",121.771344338513,31.0504594673633,2022-04-01
"浦东新区","上海市浦东新区浦电路311号",121.533171747803,31.2257702665013,2022-04-01
"浦东新区","上海市浦东新区新任村",121.502813063941,31.1618677203956,2022-04-01
"浦东新区","上海市浦东新区永泰路59弄",121.507846629035,31.1402600610679,2022-04-01
"浦东新区","上海市浦东新区夏碧路79弄",121.596205845438,31.3449369134913,2022-04-01
"浦东新区","上海市浦东新区季桥村",121.697999669896,31.0643721555931,2022-04-01
"浦东新区","上海市浦东新区康桥路1558弄",121.587636370195,31.1554059546754,2022-04-01
"浦东新区","上海市浦东新区海春路150弄",121.592615138654,31.3549159003979,2022-04-01
"浦东新区","上海市浦东新区浦东大道275弄",121.5217899475,31.2464960923493,2022-04-01
"浦东新区","上海市浦东新区浦东大道3076弄",121.584105041405,31.2871692658819,2022-04-01
"浦东新区","上海市浦东新区项文路333弄",121.712866985408,31.0533977188478,2022-04-01
"浦东新区","上海市浦东新区王桥村",121.701828427641,31.21255135342,2022-04-01
"浦东新区","上海市浦东新区荣科路177弄",121.61530202397,31.1845401743819,2022-04-01
"浦东新区","上海市浦东新区沪南路3468弄",121.571596496501,31.1222910203693,2022-04-01
"浦东新区","上海市浦东新区杨高北路4705弄",121.611561030673,31.2844008867663,2022-04-01
"浦东新区","上海市浦东新区万六村",121.825190477562,30.974499234353,2022-04-01
"浦东新区","上海市浦东新区万和路118弄",121.825241321654,30.979408598091,2022-04-01
"浦东新区","上海市浦东新区御北路235号工地生活区",121.56552717232,31.1648308871202,2022-04-01
"浦东新区","上海市浦东新区民雨路333弄",121.670360965287,31.2814146978831,2022-04-01
"浦东新区","上海市浦东新区坦西村",121.653310677555,31.0918883120652,2022-04-01
"浦东新区","上海市浦东新区笋心路10号",121.649601124952,31.0281085103801,2022-04-01
"浦东新区","上海市浦东新区天花庵村南陈队大陈家宅",121.582591396621,31.1611810215142,2022-04-01
"浦东新区","上海市浦东新区博山路50弄",121.562882933054,31.2522236381075,2022-04-01
"浦东新区","上海市浦东新区新路村",121.839406970732,30.9797782704016,2022-04-01
"浦东新区","上海市浦东新区潍坊路140弄",121.531550935172,31.2311124110338,2022-04-01
"浦东新区","上海市浦东新区周秀路26弄",121.613149208927,31.1049366387275,2022-04-01
"浦东新区","上海市浦东新区南码头路1696弄",121.521437362588,31.1826299338027,2022-04-01
"浦东新区","上海市浦东新区东明路660弄",121.529696185109,31.2072012517119,2022-04-01
"浦东新区","上海市浦东新区博兴路916弄",121.597995000523,31.2704201787296,2022-04-01
"浦东新区","上海市浦东新区东八灶",121.589325723538,31.1209548314371,2022-04-01
"浦东新区","上海市浦东新区仁义村",121.647293378096,31.0643146974948,2022-04-01
"浦东新区","上海市浦东新区王楼村",121.624150692565,31.0742551228397,2022-04-01
"浦东新区","上海市浦东新区荷泽路25弄",121.5969184712,31.279466390581,2022-04-01
"浦东新区","上海市浦东新区芳华路916弄",121.574598004701,31.2028538934567,2022-04-01
"浦东新区","上海市浦东新区定水路50弄",121.556696662329,31.2486790996932,2022-04-01
"浦东新区","上海市浦东新区康沈公路1300弄",121.578537793007,31.1439095371964,2022-04-01
"浦东新区","上海市浦东新区耀华路414弄",121.492226982658,31.1790527910542,2022-04-01
"浦东新区","上海市浦东新区妙境路55弄",121.697769613855,31.1991729645885,2022-04-01
"浦东新区","上海市浦东新区德州路300弄",121.536884264815,31.1897022555378,2022-04-01
"浦东新区","上海市浦东新区周南村",121.589970886555,31.111919735761,2022-04-01
"浦东新区","上海市浦东新区灵山路1799弄",121.577772616374,31.2483716108645,2022-04-01
"浦东新区","上海市浦东新区崮山路968号",121.568139277915,31.2414287626101,2022-04-01
"浦东新区","上海市浦东新区汇成路1245弄",121.711538032237,31.039535855262,2022-04-01
"浦东新区","上海市浦东新区陈行村一队张家宅",121.726545932561,31.1717411359259,2022-04-01
"浦东新区","上海市浦东新区耀华路87弄",121.496691830535,31.1842585026529,2022-04-01
"浦东新区","上海市浦东新区民同路176弄",121.657803642394,31.2786100391049,2022-04-01
"浦东新区","上海市浦东新区唐陆路石家观音堂",121.667984947213,31.2043979439903,2022-04-01
"浦东新区","上海市浦东新区乳山路114弄",121.527850994437,31.240750133905,2022-04-01
"浦东新区","上海市浦东新区周市路66号",121.589299852339,31.1163489339985,2022-04-01
"浦东新区","上海市浦东新区牌楼东路528弄",121.663264351758,31.0291296873005,2022-04-01
"浦东新区","上海市浦东新区海桥村",121.617062972261,31.0160679234997,2022-04-01
"浦东新区","上海市浦东新区东陆路1268弄",121.601560554753,31.2728788634835,2022-04-01
"浦东新区","上海市浦东新区长岛路1203弄",121.60099758669,31.2700940107856,2022-04-01
"浦东新区","上海市浦东新区长岛路625弄",121.590574547857,31.2669994097199,2022-04-01
"浦东新区","上海市浦东新区三林镇金家宅",121.593249522005,31.1310947543661,2022-04-01
"浦东新区","上海市浦东新区沪南路2000号",121.567875804909,31.1700081452879,2022-04-01
"浦东新区","上海市浦东新区新春村",121.485071080966,31.1292384482951,2022-04-01
"浦东新区","上海市浦东新区康沈路1527弄",121.582648798343,31.1249531399078,2022-04-01
"浦东新区","上海市浦东新区沪南公路2000号",121.567891255764,31.1702163221427,2022-04-01
"浦东新区","上海市浦东新区创新西路199弄",121.660810450597,31.2075822554859,2022-04-01
"浦东新区","上海市浦东新区滨海一村西顾家宅",121.836835301718,31.0324116905146,2022-04-01
"浦东新区","上海市浦东新区长达村",121.575007093031,31.0357048734889,2022-04-01
"浦东新区","上海市浦东新区成山路1712号",121.536262008588,31.1830609828783,2022-04-01
"浦东新区","上海市浦东新区长岛路99号",121.583231618958,31.2736681381861,2022-04-01
"浦东新区","上海市浦东新区沪南路4851弄",121.536884264815,31.1897022555378,2022-04-01
"浦东新区","上海市浦东新区东波路585弄",121.592860016736,31.2899795307181,2022-04-01
"浦东新区","上海市浦东新区上南路东明路工地生活区",121.524156982519,31.16133938991,2022-04-01
"浦东新区","上海市浦东新区天花庵村闵北队闵家宅",121.539890174712,31.126238497919,2022-04-01
"浦东新区","上海市浦东新区新镇村谢家宅",121.648514804098,31.2218474355031,2022-04-01
"浦东新区","上海市浦东新区新浜村陈家宅",121.738244295726,31.1345417403823,2022-04-01
"浦东新区","上海市浦东新区佳林路919弄",121.61825789825,31.270835776925,2022-04-01
"浦东新区","上海市浦东新区光明路61弄",121.620730573997,31.3406202236146,2022-04-01
"浦东新区","上海市浦东新区华路村七队蔡家宅",121.740729637581,31.2070500902033,2022-04-01
"浦东新区","上海市浦东新区沪南路235号工地生活区",121.555532211354,31.2024914479201,2022-04-01
"浦东新区","上海市浦东新区沪南公路5192号",121.595382997591,31.0583018192039,2022-04-01
"浦东新区","上海市浦东新区金桥路2552弄",121.609184383785,31.2399130333655,2022-04-01
"浦东新区","上海市浦东新区张江镇中心村王家宅",121.664786799937,31.1927150050595,2022-04-01
"浦东新区","上海市浦东新区五莲路780弄",121.5971369391,31.2743054790071,2022-04-01
"浦东新区","上海市浦东新区佳乐路255弄",121.62239890699,31.2744935168664,2022-04-01
"浦东新区","上海市浦东新区德平路1065弄",121.57423419097,31.2492630478328,2022-04-01
"浦东新区","上海市浦东新区御桥村姚家宅",121.564117833639,31.1623293022053,2022-04-01
"浦东新区","上海市浦东新区长桥村南乔家宅",121.735381036744,31.1425908865954,2022-04-01
"浦东新区","上海市浦东新区蓝村路471弄",121.53360158699,31.2179022047027,2022-04-01
"浦东新区","上海市浦东新区环林西路613弄",121.530575195727,31.14668408262,2022-04-01
"浦东新区","上海市浦东新区大沟村西王家宅",121.793150255615,31.1433441716895,2022-04-01
"浦东新区","上海市浦东新区宣镇东路625弄",121.706413289133,31.0270200164429,2022-04-01
"浦东新区","上海市浦东新区成山路648弄",121.515115986714,31.1776118237191,2022-04-01
"浦东新区","上海市浦东新区会龙村",121.720019383709,31.1007360187369,2022-04-01
"浦东新区","上海市浦东新区环林东路271弄",121.533164112206,31.1552989527053,2022-04-01
"浦东新区","上海市浦东新区潘姚村西刘队刘家宅",121.583074056171,31.1881655314053,2022-04-01
"浦东新区","上海市浦东新区前进村西李家宅",121.781723809529,31.0954221604193,2022-04-01
"浦东新区","上海市浦东新区永业路94弄",121.621249794582,31.2700010291782,2022-04-01
"浦东新区","上海市浦东新区芳芯路149弄",121.560370821695,31.1990316488787,2022-04-01
"浦东新区","上海市浦东新区周东路529号",121.591498724566,31.1246926193749,2022-04-01
"浦东新区","上海市浦东新区德州路254号",121.499092282518,31.1729180218512,2022-04-01
"浦东新区","上海市浦东新区罗山路108弄",121.558879454888,31.2546415897529,2022-04-01
"浦东新区","上海市浦东新区新环北路1080弄",121.64626841151,31.0374998267643,2022-04-01
"浦东新区","上海市浦东新区杨莲路160弄",121.536884264815,31.1897022555378,2022-04-01
"浦东新区","上海市浦东新区祝城路84弄",121.766842749942,31.1140887975279,2022-04-01
"浦东新区","上海市浦东新区杨新路197弄",121.498520151739,31.1688455907204,2022-04-01
"浦东新区","上海市浦东新区鹏岳路152弄",121.560933340606,31.1772149667974,2022-04-01
"浦东新区","上海市浦东新区三彩路166弄",121.525530311983,31.1391594184198,2022-04-01
"浦东新区","上海市浦东新区李桥村",121.721178916462,31.0224466573894,2022-04-01
"浦东新区","上海市浦东新区唐四村王家东宅",121.667689494531,31.2210198162809,2022-04-01
"浦东新区","上海市浦东新区广益路15弄",121.771265197798,31.11523556736,2022-04-01
"浦东新区","上海市浦东新区成山路475弄",121.513497240185,31.178313077688,2022-04-01
"浦东新区","上海市浦东新区海霞路135弄",121.742196031495,31.173374837468,2022-04-01
"浦东新区","上海市浦东新区上南三村",121.504228344272,31.1801727385778,2022-04-01
"浦东新区","上海市浦东新区庆星八队西圈夏家宅",121.729119308356,31.2388018277518,2022-04-01
"浦东新区","上海市浦东新区通济路365弄",121.752221031156,31.0577992012623,2022-04-01
"浦东新区","上海市浦东新区南码头路238弄",121.5149571663,31.2031631534662,2022-04-01
"浦东新区","上海市浦东新区虹二村沈家宅",121.661875481609,31.2466185810648,2022-04-01
"浦东新区","上海市浦东新区坦南村",121.65884962933,31.0724938878595,2022-04-01
"浦东新区","上海市浦东新区民雪路108弄",121.652778790863,31.290487771739,2022-04-01
"浦东新区","上海市浦东新区妙境路595弄",121.6990714382,31.1962141706863,2022-04-01
"浦东新区","上海市浦东新区东园三村",121.520245131515,31.2362402771643,2022-04-01
"浦东新区","上海市浦东新区东靖路119弄",121.5896261169,31.2815848989426,2022-04-01
"浦东新区","上海市浦东新区海容路99弄",121.680835027872,31.2869618891018,2022-04-01
"浦东新区","上海市浦东新区繁荣路266弄",121.584859707864,31.1200779398788,2022-04-01
"浦东新区","上海市浦东新区新吉村",121.725028425063,31.1167471303745,2022-04-01
"浦东新区","上海市浦东新区秀沿西路258弄",121.538346257032,31.1354788480318,2022-04-01
"浦东新区","上海市浦东新区立新村",121.763918136693,31.1774717113271,2022-04-01
"浦东新区","上海市浦东新区秋岚路48弄",121.598070697734,31.3330119813898,2022-04-01
"浦东新区","上海市浦东新区共和村陈家宅",121.683246259522,31.2574924233498,2022-04-01
"浦东新区","上海市浦东新区鹏飞路333弄",121.536884264815,31.1897022555378,2022-04-01
"浦东新区","上海市浦东新区齐爱路99弄",121.662474022571,31.2243608980118,2022-04-01
"浦东新区","上海市浦东新区浦东大道1615号",121.547701480105,31.2514257698006,2022-04-01
"浦东新区","上海市浦东新区庆星村二队费家宅",121.725707094876,31.2404364439951,2022-04-01
"浦东新区","上海市浦东新区里仁村",121.575105367653,31.1138505842326,2022-04-01
"浦东新区","上海市浦东新区城南路41弄",121.711334062988,31.1987130796288,2022-04-01
"浦东新区","上海市浦东新区博山东路459弄",121.573680385623,31.2598821482651,2022-04-01
"浦东新区","上海市浦东新区蓝村路30弄",121.538649794464,31.2167494318577,2022-04-01
"浦东新区","上海市浦东新区新农村沈家宅",121.558501268268,31.3625522632348,2022-04-01
"浦东新区","上海市浦东新区连民村",121.691012110656,31.096250888207,2022-04-01
"浦东新区","上海市浦东新区东明路355弄",121.51669511797,31.1894556615896,2022-04-01
"浦东新区","上海市浦东新区拱乐路698弄",121.7770938531,31.0696419890714,2022-04-01
"浦东新区","上海市浦东新区棉场村",121.857753064163,30.9837923263,2022-04-01
"浦东新区","上海市浦东新区兰城路108弄",121.586831308797,31.2715814724312,2022-04-01
"浦东新区","上海市浦东新区凤家码头夏家宅",121.721753921818,31.2387459429308,2022-04-01
"浦东新区","上海市浦东新区周康新村",121.575098450701,31.1419626936657,2022-04-01
"浦东新区","上海市浦东新区拱Q路2626弄",121.550454606832,31.2273482924363,2022-04-01
"浦东新区","上海市浦东新区北张家浜路170弄",121.531249194351,31.2222238763026,2022-04-01
"浦东新区","上海市浦东新区下南路526弄",121.544402003967,31.1780418917603,2022-04-01
"浦东新区","上海市浦东新区罗山路1505号",121.576859219331,31.2342945788175,2022-04-01
"浦东新区","上海市浦东新区芳华路933弄",121.536884264815,31.1897022555378,2022-04-01
"浦东新区","上海市浦东新区虹二村盛家宅",121.664209009833,31.2534517616121,2022-04-01
"浦东新区","上海市浦东新区灵山路1671弄",121.572311008704,31.2457713448707,2022-04-01
"浦东新区","上海市浦东新区环林东路799弄",121.538872933553,31.1493744070405,2022-04-01
"浦东新区","上海市浦东新区周邓公路6600弄",121.609428902545,31.1210675917091,2022-04-01
"浦东新区","上海市浦东新区东建路228弄",121.538810411489,31.206686097292,2022-04-01
"浦东新区","上海市浦东新区西营南路68弄",121.525530311983,31.1391594184198,2022-04-01
"浦东新区","上海市浦东新区德平路1134弄",121.576286010585,31.2456409051647,2022-04-01
"浦东新区","上海市浦东新区昌里东路190弄",121.514451330467,31.1818762689649,2022-04-01
"浦东新区","上海市浦东新区鹿溪村",121.702793387419,31.1246797904009,2022-04-01
"浦东新区","上海市浦东新区陈家弄",121.203156132261,31.0663910547002,2022-04-01
"浦东新区","上海市浦东新区海阳路1064号",121.512580609242,31.1647690430084,2022-04-01
"浦东新区","上海市浦东新区玉盘北路281号",121.679067162629,31.2317339083395,2022-04-01
"浦东新区","上海市浦东新区航梅路525弄",121.580651056719,31.0306667698032,2022-04-01
"浦东新区","上海市浦东新区民贤路28弄",121.699107284991,31.2022060642095,2022-04-01
"浦东新区","上海市浦东新区周埠村",121.775602665953,31.0028768242165,2022-04-01
"浦东新区","上海市浦东新区妙境北路451号",121.692776652169,31.2136740661847,2022-04-01
"浦东新区","上海市浦东新区洪山路300弄",121.507182062619,31.175607516881,2022-04-01
"浦东新区","上海市浦东新区环林东路799",121.538678630071,31.1497067131586,2022-04-01
"浦东新区","上海市浦东新区秀沿路1177弄二支弄",121.584859707864,31.1200779398788,2022-04-01
"浦东新区","上海市浦东新区光泽路120弄",121.623076229345,31.3364001046861,2022-04-01
"浦东新区","上海市浦东新区学北路165弄",121.713806163819,31.1967252382537,2022-04-01
"浦东新区","上海市浦东新区芳华路503弄",121.536884264815,31.1897022555378,2022-04-01
"浦东新区","上海市浦东新区江绣路300弄",121.742084112428,31.177161110323,2022-04-01
"浦东新区","上海市浦东新区秀沿路2571弄",121.584859707864,31.1200779398788,2022-04-01
"浦东新区","上海市浦东新区申江南路3266号",121.648388143021,31.1073509620122,2022-04-01
"浦东新区","上海市浦东新区红旗村李家队李家油车",121.498257397378,31.1305221248337,2022-04-01
"浦东新区","上海市浦东新区航鹤路1000弄",121.602516621307,31.104273708865,2022-04-01
"浦东新区","上海市浦东新区成山路248弄",121.505634012734,31.1746958362204,2022-04-01
"浦东新区","上海市浦东新区虹二村朱家宅",121.668338969415,31.2583088385362,2022-04-01
"浦东新区","上海市浦东新区浦电路489号工地生活区",121.541418012724,31.2285413862049,2022-04-01
"浦东新区","上海市浦东新区金杨路660弄",121.588399929879,31.2575016841727,2022-04-01
"浦东新区","上海市浦东新区瑞和路101弄",121.584859707864,31.1200779398788,2022-04-01
"浦东新区","上海市浦东新区栖山路450弄",121.557953122246,31.2538112507536,2022-04-01
"浦东新区","上海市浦东新区龚华路406弄",121.652778790863,31.290487771739,2022-04-01
"浦东新区","上海市浦东新区红旗村镇南队江湖宅",121.500206271181,31.126931789483,2022-04-01
"浦东新区","上海市浦东新区团结村",121.614929586505,31.2240920841927,2022-04-01
"浦东新区","上海市浦东新区储楼村",121.621475898079,31.0740691574058,2022-04-01
"浦东新区","上海市浦东新区高桥村一队唐家宅",121.826345788278,30.9222774790088,2022-04-01
"浦东新区","上海市浦东新区灵山路730弄",121.557006757391,31.2375628596093,2022-04-01
"浦东新区","上海市浦东新区三三公路5020弄",121.879902942444,30.9812557067702,2022-04-01
"浦东新区","上海市浦东新区海松路398弄",121.687490753057,31.2839344288311,2022-04-01
"浦东新区","上海市浦东新区周阳路399弄",121.609315427857,31.0977638395217,2022-04-01
"浦东新区","上海市浦东新区南团公路858弄",121.768831328849,31.0299764821392,2022-04-01
"浦东新区","上海市浦东新区昌里路167弄",121.504545446117,31.1810916262197,2022-04-01
"浦东新区","上海市浦东新区东三街102弄",121.517106182571,31.207639780426,2022-04-01
"浦东新区","上海市浦东新区年家浜路501弄",121.575348089802,31.1189097431462,2022-04-01
"浦东新区","上海市浦东新区栖山路1088弄",121.566094375252,31.2601400552451,2022-04-01
"浦东新区","上海市浦东新区成日村",121.831647497568,31.0687631497811,2022-04-01
"浦东新区","上海市浦东新区佳林路115弄",121.615851786942,31.2749779228704,2022-04-01
"浦东新区","上海市浦东新区御青路328弄",121.584859707864,31.1200779398788,2022-04-01
"浦东新区","上海市浦东新区昌里东路80弄",121.512747873728,31.1803744049484,2022-04-01
"浦东新区","上海市浦东新区桥北村",121.806711345086,31.0229630803716,2022-04-01
"浦东新区","上海市浦东新区航头路1137弄",121.600001276049,31.038725347761,2022-04-01
"浦东新区","上海市浦东新区红三村一队唐家宅",121.800614815081,31.0910897742916,2022-04-01
"浦东新区","上海市浦东新区东方路1800弄",121.528473609986,31.2090892428252,2022-04-01
"浦东新区","上海市浦东新区南码头路1453弄",121.522881029373,31.1846493055372,2022-04-01
"浦东新区","上海市浦东新区海松路52弄",121.681814360539,31.2819161960356,2022-04-01
"浦东新区","上海市浦东新区五莲路108弄",121.588773624971,31.2771578731139,2022-04-01
"浦东新区","上海市浦东新区永乐村",121.762237676576,31.0810016694205,2022-04-01
"浦东新区","上海市浦东新区历城路100弄",121.4979155023,31.1798977733905,2022-04-01
"浦东新区","上海市浦东新区海院新村",121.54670587051,31.2484046985325,2022-04-01
"浦东新区","上海市浦东新区鹏飞路101弄",121.536884264815,31.1897022555378,2022-04-01
"浦东新区","上海市浦东新区东陆路1755弄",121.617328421539,31.2692411229136,2022-04-01
"浦东新区","上海市浦东新区环桥路1136弄",121.584859707864,31.1200779398788,2022-04-01
"浦东新区","上海市浦东新区羽山路383弄",121.550383281374,31.2391094252368,2022-04-01
"浦东新区","上海市浦东新区张杨北路558弄",121.594596261626,31.2736279377294,2022-04-01
"浦东新区","上海市浦东新区潍坊六村",121.529449978245,31.2280068697259,2022-04-01
"浦东新区","上海市浦东新区罗山路1507弄",121.577347448376,31.2344866339973,2022-04-01
"浦东新区","上海市浦东新区张家浜路98弄",121.529260708409,31.2222210689291,2022-04-01
"浦东新区","上海市浦东新区莲溪路780弄",121.56871715785,31.1834782049839,2022-04-01
"浦东新区","上海市浦东新区张杨北路512弄",121.595559065471,31.2713992930251,2022-04-01
"浦东新区","上海市浦东新区莱阳路2328弄",121.589657198271,31.3158806376563,2022-04-01
"浦东新区","上海市浦东新区高科西路961号",121.518744961313,31.1923368238538,2022-04-01
"浦东新区","上海市浦东新区牡丹路186弄",121.552918838507,31.2123543117331,2022-04-01
"浦东新区","上海市浦东新区花山路609弄",121.581581431736,31.3543420185159,2022-04-01
"浦东新区","上海市浦东新区孙建路815弄",121.645707509549,31.1901050834668,2022-04-01
"浦东新区","上海市浦东新区汇成路1118号",121.714661171003,31.0400742301283,2022-04-01
"浦东新区","上海市浦东新区芳芯路175弄",121.561717471486,31.198488469461,2022-04-01
"浦东新区","上海市浦东新区京浦路160弄",121.574694572544,31.1599125196442,2022-04-01
"浦东新区","上海市浦东新区唐四村费家宅",121.666776995794,31.2184358524245,2022-04-01
"浦东新区","上海市浦东新区下南路465弄",121.536884264815,31.1897022555378,2022-04-01
"浦东新区","上海市浦东新区虹三村五队赵家宅",121.679576681514,31.2599663423934,2022-04-01
"浦东新区","上海市浦东新区寿光路75弄",121.589577991099,31.2796470691226,2022-04-01
"浦东新区","上海市浦东新区长丰村四队北唐家宅",121.685748938673,31.1653574543112,2022-04-01
"浦东新区","上海市浦东新区航瑞路389弄",121.597768897026,31.0806924706856,2022-04-01
"浦东新区","上海市浦东新区康安路御桥路交界口工地生活区",121.542390069116,31.1558117884755,2022-04-01
"浦东新区","上海市浦东新区博兴路760弄",121.594819310884,31.2704315216681,2022-04-01
"浦东新区","上海市浦东新区北艾路1765弄",121.528398601476,31.1842654537065,2022-04-01
"浦东新区","上海市浦东新区崮山路322弄",121.559286117792,31.251792753022,2022-04-01
"浦东新区","上海市浦东新区鹤永路600弄",121.606671823274,31.080453940835,2022-04-01
"浦东新区","上海市浦东新区东风村",121.705700034558,31.2324508135927,2022-04-01
"浦东新区","上海市浦东新区林展路422弄",121.516191887223,31.149587574481,2022-04-01
"浦东新区","上海市浦东新区永泰路1650弄",121.543420425536,31.1503996769566,2022-04-01
"浦东新区","上海市浦东新区东陆路1456弄",121.5896261169,31.2815848989426,2022-04-01
"浦东新区","上海市浦东新区先进村",121.81000857546,31.1038277654838,2022-04-01
"浦东新区","上海市浦东新区羽山路308弄",121.548396409248,31.2379660219991,2022-04-01
"浦东新区","上海市浦东新区鹤鸣村",121.600562088179,31.0502001326859,2022-04-01
"浦东新区","上海市浦东新区康沈路1199弄",121.584859707864,31.1200779398788,2022-04-01
"浦东新区","上海市浦东新区永安新村",121.557080148951,31.2549395653573,2022-04-01
"浦东新区","上海市浦东新区康安路御北路交界口工地生活区",121.563785999583,31.1639392972324,2022-04-01
"浦东新区","上海市浦东新区鹏岳路70弄",121.558803637903,31.1809368440621,2022-04-01
"浦东新区","上海市浦东新区长岛路1280弄",121.599642313167,31.266883120972,2022-04-01
"浦东新区","上海市浦东新区海鹏路301弄",121.680730914264,31.2953639830489,2022-04-01
"浦东新区","上海市浦东新区蓝村路60弄",121.536988198762,31.2147912836648,2022-04-01
"浦东新区","上海市浦东新区秋霞路200弄",121.594512359891,31.3418719346904,2022-04-01
"浦东新区","上海市浦东新区临江村西新队小金家宅",121.488457692739,31.1299419957814,2022-04-01
"浦东新区","上海市浦东新区唐兴路191弄",121.636263803384,31.1944164540822,2022-04-01
"浦东新区","上海市浦东新区荣成路85弄",121.524257233414,31.2464704677206,2022-04-01
"浦东新区","上海市浦东新区锦绣路888弄",121.55980578753,31.2288054010169,2022-04-01
"浦东新区","上海市浦东新区东方路2993弄",121.525265401688,31.2000803916984,2022-04-01
"浦东新区","上海市浦东新区南码头路1187弄",121.521831359384,31.1895060153079,2022-04-01
"浦东新区","上海市浦东新区航头路1675弄",121.587220005592,31.0361201199845,2022-04-01
"浦东新区","上海市浦东新区瑞和路168弄",121.596005433479,31.0917933754093,2022-04-01
"浦东新区","上海市浦东新区福山路100弄",121.533774690462,31.2384178890954,2022-04-01
"浦东新区","上海市浦东新区海阳路1318弄",121.519825173689,31.1647673435087,2022-04-01
"浦东新区","上海市浦东新区张杨北路2899号",121.593108847362,31.3125665827011,2022-04-01
"浦东新区","上海市浦东新区六里新村",121.523686989076,31.1935978595526,2022-04-01
"浦东新区","上海市浦东新区沈梅路300弄",121.584859707864,31.1200779398788,2022-04-01
"浦东新区","上海市浦东新区团新村",121.759661836136,31.0208476183852,2022-04-01
"浦东新区","上海市浦东新区康花路锦绣路交界口工地生活区",121.55258017733,31.1544959318607,2022-04-01
"浦东新区","上海市浦东新区鹤永路750弄",121.609967885851,31.0777774939509,2022-04-01
"浦东新区","上海市浦东新区德淳路99弄",121.673763387237,31.2341089302485,2022-04-01
"浦东新区","上海市浦东新区汇南村",121.748981022843,31.0413899094454,2022-04-01
"浦东新区","上海市浦东新区博兴路465弄",121.58987225261,31.2720666651517,2022-04-01
"浦东新区","上海市浦东新区方竹路423弄",121.874119741402,30.9331532478893,2022-04-01
"浦东新区","上海市浦东新区张杨路951号",121.532883212073,31.2366324841692,2022-04-01
"浦东新区","上海市浦东新区绿林路51弄",121.555202959927,31.1808524243444,2022-04-01
"浦东新区","上海市浦东新区尚博路518弄",121.527226582277,31.1548072056206,2022-04-01
"浦东新区","上海市浦东新区城南路1385弄",121.639786957594,30.9092454033942,2022-04-01
"浦东新区","上海市浦东新区创新中路593弄",121.675777028868,31.2168388376937,2022-04-01
"浦东新区","上海市浦东新区凌兆路530弄",121.509243899221,31.1473446768569,2022-04-01
"浦东新区","上海市浦东新区洋溢村",121.885778489294,30.9456043308235,2022-04-01
"浦东新区","上海市浦东新区胶东路266弄",121.599901833629,31.2606110307572,2022-04-01
"浦东新区","上海市浦东新区三林镇高树队汤家宅",121.526881543131,31.1363513458081,2022-04-01
"浦东新区","上海市浦东新区创新西路333弄",121.658090112021,31.2073177175211,2022-04-01
"浦东新区","上海市浦东新区鹤沙路699弄",121.597436523987,31.0873726073286,2022-04-01
"浦东新区","上海市浦东新区莱阳路350弄",121.588321507808,31.2804560573812,2022-04-01
"浦东新区","上海市浦东新区杨高中路266弄",121.602750360401,31.2583311414883,2022-04-01
"浦东新区","上海市浦东新区浦电路138弄",121.528464716762,31.2248821568414,2022-04-01
"浦东新区","上海市浦东新区微山二村",121.519896858468,31.2144186734285,2022-04-01
"浦东新区","上海市浦东新区张杨路1662弄",121.55120594956,31.2422320420667,2022-04-01
"浦东新区","上海市浦东新区长清路75弄",121.536884264815,31.1897022555378,2022-04-01
"浦东新区","上海市浦东新区浦建路1086弄",121.544957426264,31.2129164044776,2022-04-01
"浦东新区","上海市浦东新区三八路115弄",121.766160217415,31.0519521940979,2022-04-01
"浦东新区","上海市浦东新区凌兆路500弄",121.50674692343,31.1491084685835,2022-04-01
"浦东新区","上海市浦东新区吴店村郭家宅",121.724791901223,31.1477672526637,2022-04-01
"浦东新区","上海市浦东新区金桥路715号",121.584339229652,31.2668237804736,2022-04-01
"浦东新区","上海市浦东新区沉香村",121.598551051633,31.0731536299133,2022-04-01
"浦东新区","上海市浦东新区凌河路38弄",121.600753606913,31.2825696826637,2022-04-01
"浦东新区","上海市浦东新区振东苑",121.771556967428,31.0374589835255,2022-04-01
"浦东新区","上海市浦东新区临江村唐家宅",121.485179506441,31.1293456345277,2022-04-01
"浦东新区","上海市浦东新区康意路御北路交界口工地生活区",121.563785999583,31.1639392972324,2022-04-01
"浦东新区","上海市浦东新区浦东南路1700弄",121.525060767693,31.2237849777418,2022-04-01
"浦东新区","上海市浦东新区城西路104号",121.755574225964,31.050935363589,2022-04-01
"浦东新区","上海市浦东新区上南路1200弄",121.502094958516,31.1778228415461,2022-04-01
"浦东新区","上海市浦东新区新虹村瞿家宅",121.655033627523,31.2487133679639,2022-04-01
"浦东新区","上海市浦东新区上浦路36弄",121.496318404934,31.15038414733,2022-04-01
"浦东新区","上海市浦东新区三林路1662弄",121.53161588266,31.1527105494656,2022-04-01
"浦东新区","上海市浦东新区上钢二村",121.499440375904,31.1836560760426,2022-04-01
"浦东新区","上海市浦东新区博山东路20弄",121.566038859972,31.2533910234004,2022-04-01
"浦东新区","上海市浦东新区福山路102弄",121.53400762108,31.2373708107451,2022-04-01
"浦东新区","上海市浦东新区东明路560弄",121.529696185109,31.2072012517119,2022-04-01
"浦东新区","上海市浦东新区金沪路1218弄",121.610691291278,31.246915347325,2022-04-01
"浦东新区","上海市浦东新区西林村",121.505050473475,31.1424654028824,2022-04-01
"浦东新区","上海市浦东新区妙境北路318号",121.694232805401,31.2105387600016,2022-04-01
"浦东新区","上海市浦东新区鹤沙路201弄",121.605880595781,31.0875272345057,2022-04-01
"浦东新区","上海市浦东新区诚礼路298弄",121.674967296281,31.2320230023754,2022-04-01
"浦东新区","上海市浦东新区张杨路1673弄",121.549771894644,31.2433326325524,2022-04-01
"浦东新区","上海市浦东新区浦东大道3号",121.518151181371,31.2450354773067,2022-04-01
"浦东新区","上海市浦东新区运盐河路1255弄",121.722547125584,31.1878365279896,2022-04-01
"浦东新区","上海市浦东新区幸福村",121.780862693867,31.0321276286587,2022-04-01
"浦东新区","上海市浦东新区芳华路411弄",121.565570303818,31.2023994608537,2022-04-01
"浦东新区","上海市浦东新区潍坊路375弄",121.541472090715,31.2347481618797,2022-04-01
"浦东新区","上海市浦东新区羽山路1950弄",121.574344233395,31.2507513041362,2022-04-01
"浦东新区","上海市浦东新区康安路280号工地生活区",121.563906534032,31.1549575761296,2022-04-01
"浦东新区","上海市浦东新区绿林路50弄",121.554947032687,31.1785308909384,2022-04-01
"浦东新区","上海市浦东新区红枫路300弄",121.59747604943,31.2486104859333,2022-04-01
"浦东新区","上海市浦东新区浦三路1285号工地生活区",121.532022365903,31.1764101252981,2022-04-01
"浦东新区","上海市浦东新区浦三路926弄",121.525795312108,31.186303248716,2022-04-01
"浦东新区","上海市浦东新区南码头路10号工地生活区",121.512514763449,31.2078120461763,2022-04-01
"浦东新区","上海市浦东新区栖霞路190弄",121.526081152921,31.2441861427874,2022-04-01
"浦东新区","上海市浦东新区长岛路728弄",121.5896261169,31.2815848989426,2022-04-01
"浦东新区","上海市浦东新区中界村季家宅",121.578761021926,31.1993098784582,2022-04-01
"浦东新区","上海市浦东新区长岛路1398弄",121.605978421251,31.2697987842173,2022-04-01
"浦东新区","上海市浦东新区浙桥路208号",121.608207207052,31.2580418972536,2022-04-01
"浦东新区","上海市浦东新区陈桥村",121.562680275331,31.1801778362394,2022-04-01
"浦东新区","上海市浦东新区枣庄路552弄",121.585578981086,31.2573668619355,2022-04-01
"浦东新区","上海市浦东新区苗圃路218弄",121.554079718717,31.2486647440626,2022-04-01
"浦东新区","上海市浦东新区成山路2388弄",121.552373028079,31.1856598246513,2022-04-01
"浦东新区","上海市浦东新区博兴路250弄",121.586387276384,31.274900995229,2022-04-01
"浦东新区","上海市浦东新区风桥村",121.826493469704,31.0495489697878,2022-04-01
"浦东新区","上海市浦东新区浦东大道727弄",121.531940620102,31.2468731286193,2022-04-01
"浦东新区","上海市浦东新区南林路658弄",121.530246056588,31.1439924448218,2022-04-01
"浦东新区","上海市浦东新区妙境路600弄",121.69771337993,31.1953209154952,2022-04-01
"浦东新区","上海市浦东新区浦三路288弄",121.519581912557,31.1984411322372,2022-04-01
"浦东新区","上海市浦东新区运通路728弄",121.708932407275,31.2091959517742,2022-04-01
"浦东新区","上海市浦东新区浦东大道3080弄",121.584325575408,31.2886102440457,2022-04-01
"浦东新区","上海市浦东新区鹏飞路51弄",121.560521198038,31.1814926374874,2022-04-01
"浦东新区","上海市浦东新区莲溪路126弄",121.56566040386,31.1934831785214,2022-04-01
"浦东新区","上海市浦东新区牡丹路399弄",121.558437398746,31.2150455317792,2022-04-01
"浦东新区","上海市浦东新区妙栏路265弄",121.694842215859,31.1919764806927,2022-04-01
"浦东新区","上海市浦东新区银山路72弄",121.584909024837,31.2482473492788,2022-04-01
"浦东新区","上海市浦东新区秀沿路505弄",121.568278874591,31.1419436855484,2022-04-01
"浦东新区","上海市浦东新区紫叶路65弄",121.536884264815,31.1897022555378,2022-04-01
"浦东新区","上海市浦东新区南六公路399弄",121.713108988913,31.0675268839181,2022-04-01
"浦东新区","上海市浦东新区庆丰村",121.723719504105,31.2470521913717,2022-04-01
"浦东新区","上海市浦东新区惠东路342弄",121.777510666856,31.0496669204029,2022-04-01
"浦东新区","上海市浦东新区药师村",121.688302012763,31.209451836559,2022-04-01
"浦东新区","上海市浦东新区华丰路50弄",121.514504959306,31.1974954638598,2022-04-01
"浦东新区","上海市浦东新区环庆南路239弄",121.731379984002,31.2347908492126,2022-04-01
"浦东新区","上海市浦东新区梓康路188弄",121.575652795031,31.1286408460994,2022-04-01
"浦东新区","上海市浦东新区航城五路401弄",121.759354834533,31.152245366364,2022-04-01
"浦东新区","上海市浦东新区崮山路626弄",121.565388666444,31.2473383823345,2022-04-01
"浦东新区","上海市浦东新区太平村",121.766819034676,31.2249907005986,2022-04-01
"浦东新区","上海市浦东新区天花庵村卫家队",121.531269675716,31.1327837206808,2022-04-01
"浦东新区","上海市浦东新区莲园路505弄",121.564355615107,31.1931492512717,2022-04-01
"浦东新区","上海市浦东新区南码头路1521弄",121.525396464462,31.1828675092058,2022-04-01
"浦东新区","上海市浦东新区双桥路218弄",121.5896261169,31.2815848989426,2022-04-01
"浦东新区","上海市浦东新区天花庵村大雪队",121.531939542135,31.1285359001772,2022-04-01
"浦东新区","上海市浦东新区民耀路358弄",121.652778790863,31.290487771739,2022-04-01
"浦东新区","上海市浦东新区杨高中路10弄",121.606373585845,31.2634200112248,2022-04-01
"浦东新区","上海市浦东新区康沈路400弄",121.584859707864,31.1200779398788,2022-04-01
"浦东新区","上海市浦东新区南新村",121.526625615891,31.3601914545598,2022-04-01
"浦东新区","上海市浦东新区东方路2851弄",121.52612004955,31.201634526501,2022-04-01
"浦东新区","上海市浦东新区祝桥村",121.680871229584,31.0743287356668,2022-04-01
"浦东新区","上海市浦东新区杨高北路1887弄",121.607441311774,31.3314085192554,2022-04-01
"浦东新区","上海市浦东新区沪南路3161弄",121.536884264815,31.1897022555378,2022-04-01
"浦东新区","上海市浦东新区众安村",121.656744719859,31.0039427689734,2022-04-01
"浦东新区","上海市浦东新区齐河路909弄",121.523275116,31.1892696151779,2022-04-01
"浦东新区","上海市浦东新区沪南路4855弄",121.536884264815,31.1897022555378,2022-04-01
"浦东新区","上海市浦东新区和平村罗家宅",121.641174570115,31.0768884467419,2022-04-01
"浦东新区","上海市浦东新区已对相关居住地落实终末消毒措施",121.550454606832,31.2273482924363,2022-04-01
"黄浦区","上海市黄浦区曹家街25号",121.492697335424,31.224977808139,2022-04-01
"黄浦区","上海市黄浦区曹家街33号",121.492769199864,31.2248193928618,2022-04-01
"黄浦区","上海市黄浦区静修路23号",121.494889739851,31.2261202893247,2022-04-01
"黄浦区","上海市黄浦区曹市弄54弄",121.495654826654,31.2249117246057,2022-04-01
"黄浦区","上海市黄浦区打浦路457弄",121.480652855146,31.2030750472854,2022-04-01
"黄浦区","上海市黄浦区打浦路80弄",121.476874312679,31.209469750012,2022-04-01
"黄浦区","上海市黄浦区大方弄113弄",121.490065929093,31.2295540565115,2022-04-01
"黄浦区","上海市黄浦区大吉路44弄",121.492894333822,31.2207215781948,2022-04-01
"黄浦区","上海市黄浦区大林路78号",121.493589532456,31.218933751035,2022-04-01
"黄浦区","上海市黄浦区淡水路89弄",121.479156188336,31.2272104159805,2022-04-01
"黄浦区","上海市黄浦区虹桥弄54号",121.499988791417,31.22726491812,2022-04-01
"黄浦区","上海市黄浦区复兴东路18弄",121.506228151998,31.2262401027473,2022-04-01
"黄浦区","上海市黄浦区复兴中路50号",121.488382145245,31.224586247083,2022-04-01
"黄浦区","上海市黄浦区高家弄45弄",121.491585592524,31.2372471520636,2022-04-01
"黄浦区","上海市黄浦区国货路333弄",121.499317757201,31.2147878092704,2022-04-01
"黄浦区","上海市黄浦区海潮路3号",121.505027566684,31.2166535405295,2022-04-01
"黄浦区","上海市黄浦区海潮路93弄",121.505912038289,31.2149615288345,2022-04-01
"黄浦区","上海市黄浦区庄家街92号",121.49526621969,31.2253319255302,2022-04-01
"黄浦区","上海市黄浦区海南西弄58号",121.503719993184,31.2165791899393,2022-04-01
"黄浦区","上海市黄浦区曹家街45号",121.492972037248,31.2246563452789,2022-04-01
"黄浦区","上海市黄浦区河南南路582弄",121.497028156118,31.226081535208,2022-04-01
"黄浦区","上海市黄浦区河南南路600弄",121.497305552859,31.2256173337539,2022-04-01
"黄浦区","上海市黄浦区北京东路647弄",121.484511346803,31.2445249049995,2022-04-01
"黄浦区","上海市黄浦区曹家街55弄",121.492035823246,31.2392520698501,2022-04-01
"黄浦区","上海市黄浦区静修路76号",121.49401892249,31.2255481626765,2022-04-01
"黄浦区","上海市黄浦区半淞园路178号",121.504942856474,31.2105758990964,2022-04-01
"黄浦区","上海市黄浦区保屯路288弄",121.499779845556,31.2067826165514,2022-04-01
"黄浦区","上海市黄浦区河南南路612弄",121.496863586548,31.2259670483512,2022-04-01
"黄浦区","上海市黄浦区静修路86号",121.493762815589,31.2254579159597,2022-04-01
"黄浦区","上海市黄浦区河南南路655弄",121.498626960264,31.2238598630175,2022-04-01
"黄浦区","上海市黄浦区淮海中路282号",121.481484057234,31.2302651887676,2022-04-01
"黄浦区","上海市黄浦区黄家路99弄",121.502000636438,31.2221657427013,2022-04-01
"黄浦区","上海市黄浦区黄家阙路114号",121.494543443077,31.2199442091699,2022-04-01
"黄浦区","上海市黄浦区徽宁路411号",121.49545198927,31.2156470616931,2022-04-01
"黄浦区","上海市黄浦区徽宁路6弄",121.491585592524,31.2372471520636,2022-04-01
"黄浦区","上海市黄浦区高家弄32号",121.491585592524,31.2372471520636,2022-04-01
"黄浦区","上海市黄浦区徽宁路513号",121.49457982445,31.2150561865591,2022-04-01
"黄浦区","上海市黄浦区建国东路328弄",121.482657962875,31.2185713484321,2022-04-01
"黄浦区","上海市黄浦区江西中路412弄",121.492185570774,31.2467273311509,2022-04-01
"黄浦区","上海市黄浦区金陵东路183弄",121.49433844976,31.2354079221526,2022-04-01
"黄浦区","上海市黄浦区静修路10弄",121.495086289097,31.2253866603638,2022-04-01
"黄浦区","上海市黄浦区静修路114弄",121.493029798293,31.2257417798045,2022-04-01
"黄浦区","上海市黄浦区曹市弄58号",121.495654826654,31.2249117246057,2022-04-01
"黄浦区","上海市黄浦区西藏南路1374弄",121.493515512082,31.2116939256578,2022-04-01
"黄浦区","上海市黄浦区曹市弄66弄",121.495654826654,31.2249117246057,2022-04-01
"黄浦区","上海市黄浦区静修路126弄",121.486533342675,31.2255124191199,2022-04-01
"黄浦区","上海市黄浦区静修路37弄",121.494724990621,31.2259248201899,2022-04-01
"黄浦区","上海市黄浦区河南南路747号",121.499270057179,31.2213525633217,2022-04-01
"黄浦区","上海市黄浦区静修路43号",121.494470410839,31.2258620569096,2022-04-01
"黄浦区","上海市黄浦区庄家街79弄",121.50150872434,31.2233857687296,2022-04-01
"黄浦区","上海市黄浦区高家弄54弄",121.491585592524,31.2372471520636,2022-04-01
"黄浦区","上海市黄浦区海潮路240弄",121.503726910136,31.213442050793,2022-04-01
"黄浦区","上海市黄浦区高家弄66弄",121.484578540055,31.2354982364646,2022-04-01
"黄浦区","上海市黄浦区静修路49号",121.494387137918,31.2258122631332,2022-04-01
"黄浦区","上海市黄浦区梦花街163弄",121.493390198463,31.2243261576133,2022-04-01
"黄浦区","上海市黄浦区梦花街28弄",121.495685279211,31.2250814881679,2022-04-01
"黄浦区","上海市黄浦区静修路64弄",121.494219723715,31.2256019452523,2022-04-01
"黄浦区","上海市黄浦区静修路83号",121.493806742728,31.2256442764923,2022-04-01
"黄浦区","上海市黄浦区丽园路842弄",121.483621395534,31.2113782080457,2022-04-01
"黄浦区","上海市黄浦区柳江街16弄",121.496042714973,31.2251638608268,2022-04-01
"黄浦区","上海市黄浦区柳江街19号",121.496636045763,31.2247936850941,2022-04-01
"黄浦区","上海市黄浦区鲁班路277弄",121.481803045521,31.2104027118818,2022-04-01
"黄浦区","上海市黄浦区梦花街13弄",121.492488659054,31.2236649295716,2022-04-01
"黄浦区","上海市黄浦区鲁班路88弄",121.479933042941,31.2123967776489,2022-04-01
"黄浦区","上海市黄浦区陆家浜路1295号",121.490714415841,31.2175428863661,2022-04-01
"黄浦区","上海市黄浦区陆家浜路521弄",121.505512112676,31.2192072119766,2022-04-01
"黄浦区","上海市黄浦区西仓桥街105号",121.496549089789,31.226325099161,2022-04-01
"黄浦区","上海市黄浦区西仓桥街112弄",121.496291276108,31.2259735331128,2022-04-01
"黄浦区","上海市黄浦区陆家浜路804弄",121.499779396403,31.2180623302211,2022-04-01
"黄浦区","上海市黄浦区蒙自路25号",121.483468234445,31.2145797314126,2022-04-01
"黄浦区","上海市黄浦区梦花街11号",121.495911023385,31.2253732275585,2022-04-01
"黄浦区","上海市黄浦区梦花街141弄",121.493688974876,31.2243288596448,2022-04-01
"黄浦区","上海市黄浦区静修路50弄",121.494566978681,31.225231874186,2022-04-01
"黄浦区","上海市黄浦区西仓桥街161弄",121.495304756997,31.2257539001616,2022-04-01
"黄浦区","上海市黄浦区静修路60号",121.49426029718,31.2256601796523,2022-04-01
"黄浦区","上海市黄浦区梦花街151号",121.493618907046,31.2243223747692,2022-04-01
"黄浦区","上海市黄浦区瞿溪路31号",121.502994521654,31.2128412016054,2022-04-01
"黄浦区","上海市黄浦区梦花街15号",121.494136151359,31.2245122115967,2022-04-01
"黄浦区","上海市黄浦区梦花街40号",121.495470494363,31.2250760841484,2022-04-01
"黄浦区","上海市黄浦区西藏南路1501弄",121.495667852084,31.2087940552798,2022-04-01
"黄浦区","上海市黄浦区庄家街103号",121.495495916409,31.2253974683667,2022-04-01
"黄浦区","上海市黄浦区梦花街78弄",121.494903933078,31.2247357846907,2022-04-01
"黄浦区","上海市黄浦区宁海东路279弄",121.486792054662,31.2337038985992,2022-04-01
"黄浦区","上海市黄浦区静修路79弄",121.493854846988,31.2256074907745,2022-04-01
"黄浦区","上海市黄浦区蓬莱路257号",121.496475967721,31.2233218457205,2022-04-01
"黄浦区","上海市黄浦区蓬莱路295号",121.495870509807,31.2229662538852,2022-04-01
"黄浦区","上海市黄浦区庄家街84号",121.495269184099,31.2255068607254,2022-04-01
"黄浦区","上海市黄浦区蓬莱路413号",121.494027725884,31.222079198455,2022-04-01
"黄浦区","上海市黄浦区普育东路101弄",121.502876214818,31.2152174750717,2022-04-01
"黄浦区","上海市黄浦区庄家街49号",121.495230556962,31.2261723989185,2022-04-01
"黄浦区","上海市黄浦区瞿溪路1111弄",121.480162649829,31.2049094302128,2022-04-01
"黄浦区","上海市黄浦区中华路868弄",121.505121170118,31.2290036432281,2022-04-01
"黄浦区","上海市黄浦区瞿溪路1200弄",121.477917514868,31.2023023965439,2022-04-01
"黄浦区","上海市黄浦区瞿溪路904弄",121.485646894798,31.2058076130278,2022-04-01
"黄浦区","上海市黄浦区庄家街51弄",121.495125095895,31.2258304822545,2022-04-01
"黄浦区","上海市黄浦区庄家街68号",121.495125724709,31.2257672557126,2022-04-01
"黄浦区","上海市黄浦区瑞金南路345弄",121.476182976759,31.2034068542674,2022-04-01
"黄浦区","上海市黄浦区绍兴路60号",121.470449990994,31.215564835075,2022-04-01
"黄浦区","上海市黄浦区顺昌路612弄30号",121.485565328658,31.2203313890076,2022-04-01
"黄浦区","上海市黄浦区四川中路668号",121.492685028638,31.2487115928061,2022-04-01
"黄浦区","上海市黄浦区天津路179弄",121.489620998374,31.2433134906166,2022-04-01
"黄浦区","上海市黄浦区静修路101弄",121.493489910375,31.2254611583582,2022-04-01
"黄浦区","上海市黄浦区万竹街30弄",121.491627627608,31.2297501066881,2022-04-01
"黄浦区","上海市黄浦区四牌楼路116号",121.501780641418,31.2291941653313,2022-04-01
"黄浦区","上海市黄浦区文庙路33号",121.49692089844,31.2250731505377,2022-04-01
"黄浦区","上海市黄浦区文庙路60弄",121.497072262918,31.2243469246531,2022-04-01
"黄浦区","上海市黄浦区西仓桥街159号",121.495636591052,31.2259971561693,2022-04-01
"黄浦区","上海市黄浦区西仓桥街162弄",121.495642430038,31.2256990111432,2022-04-01
"黄浦区","上海市黄浦区西藏南路1371弄",121.494822187277,31.2114947974566,2022-04-01
"黄浦区","上海市黄浦区庄家街43号",121.495178160085,31.2262642771601,2022-04-01
"黄浦区","上海市黄浦区庄家街45弄",121.49519562571,31.2262336510896,2022-04-01
"黄浦区","上海市黄浦区西藏南路699弄",121.457371381413,31.2393040949417,2022-04-01
"黄浦区","上海市黄浦区县左街32号",121.501298610682,31.230074128472,2022-04-01
"黄浦区","上海市黄浦区小桃园街18弄",121.496134131767,31.2270263788475,2022-04-01
"黄浦区","上海市黄浦区斜土路352弄",121.485737623654,31.2104085800227,2022-04-01
"黄浦区","上海市黄浦区斜土路80弄",121.490479149628,31.2107099394492,2022-04-01
"黄浦区","上海市黄浦区新昌路220号",121.475173011874,31.2406958711833,2022-04-01
"黄浦区","上海市黄浦区学宫街23弄",121.495023048389,31.2243853706847,2022-04-01
"黄浦区","上海市黄浦区学宫街43弄",121.495139199291,31.2240240700053,2022-04-01
"黄浦区","上海市黄浦区学西街19号",121.493664540966,31.2233881619815,2022-04-01
"黄浦区","上海市黄浦区学院路97号",121.502199341616,31.2289397240563,2022-04-01
"黄浦区","上海市黄浦区迎勋路100弄",121.497986558266,31.2188419538317,2022-04-01
"黄浦区","上海市黄浦区永宁街55号",121.49506392129,31.2212375302558,2022-04-01
"黄浦区","上海市黄浦区永寿路50号",121.487560375365,31.2351964936914,2022-04-01
"黄浦区","上海市黄浦区永泰街43号",121.504040059437,31.2214083041256,2022-04-01
"黄浦区","上海市黄浦区制造局路567弄",121.491828673995,31.2093086060248,2022-04-01
"黄浦区","上海市黄浦区中华路429弄",121.504498015586,31.2244948414272,2022-04-01
"黄浦区","上海市黄浦区中山南路1358弄",121.506243782514,31.2161680602201,2022-04-01
"黄浦区","上海市黄浦区陆家浜路468弄",121.504498105416,31.2161071433814,2022-04-01
"黄浦区","上海市黄浦区中山南路1701号",121.500555352703,31.2097859373362,2022-04-01
"黄浦区","上海市黄浦区曹市弄23弄",121.491585592524,31.2372471520636,2022-04-01
"黄浦区","上海市黄浦区中山南路1893号",121.497358283393,31.2072853644613,2022-04-01
"黄浦区","上海市黄浦区庄家街18弄",121.494764605894,31.2268285141209,2022-04-01
"黄浦区","上海市黄浦区庄家街34号",121.494785446581,31.226400291201,2022-04-01
"黄浦区","上海市黄浦区庄家街78号",121.495232533234,31.2256076065742,2022-04-01
"黄浦区","上海市黄浦区梦花街161号",121.493346989968,31.2242796826602,2022-04-01
"黄浦区","上海市黄浦区梦花街35号",121.495527896085,31.2251711176462,2022-04-01
"黄浦区","上海市黄浦区河南南路592弄",121.497160027367,31.2258368898259,2022-04-01
"黄浦区","上海市黄浦区瞿溪路57号",121.5027379656,31.2129256697143,2022-04-01
"黄浦区","上海市黄浦区已对相关居住地落实终末消毒措施",121.491585592524,31.2372471520636,2022-04-01
"静安区","上海市静安区普善路铁路新村34号",121.459744524909,31.2627410791231,2022-04-01
"静安区","上海市静安区康定路367弄",121.455781111169,31.240800305668,2022-04-01
"静安区","上海市静安区汾西路260弄",121.470033267068,31.3234635951461,2022-04-01
"静安区","上海市静安区升平街27号",121.467570652343,31.2313595128666,2022-04-01
"静安区","上海市静安区南阳路183弄",121.457157135549,31.2340611478753,2022-04-01
"静安区","上海市静安区延安中路504弄",121.471168994724,31.230550890728,2022-04-01
"静安区","上海市静安区石门一路49弄",121.469489522743,31.2313686990827,2022-04-01
"静安区","上海市静安区长临路61弄",121.444381704078,31.3194193867648,2022-04-01
"静安区","上海市静安区保德路1316弄",121.448663477291,31.3201670078394,2022-04-01
"静安区","上海市静安区三泉路821弄",121.444705363553,31.3222946950465,2022-04-01
"静安区","上海市静安区共和新路4470弄",121.454580705516,31.3190409466198,2022-04-01
"静安区","上海市静安区场中路2018号",121.45847297346,31.3108129064517,2022-04-01
"静安区","上海市静安区广中西路1097号",121.441203139861,31.2809817870811,2022-04-01
"静安区","上海市静安区沪太路935弄",121.439192103316,31.279907255375,2022-04-01
"静安区","上海市静安区康定东路33弄",121.463783396313,31.2430519866822,2022-04-01
"静安区","上海市静安区康定东路27号",121.463667784394,31.2432842374088,2022-04-01
"静安区","上海市静安区康定东路13弄",121.463927843839,31.2433318607002,2022-04-01
"静安区","上海市静安区北京西路605弄",121.469330792159,31.2393378263284,2022-04-01
"静安区","上海市静安区场中路2380弄",121.452762086011,31.3100434596955,2022-04-01
"静安区","上海市静安区原平路737号",121.43796178409,31.2980980183189,2022-04-01
"静安区","上海市静安区场中路2828弄",121.446160528649,31.3108415214803,2022-04-01
"静安区","上海市静安区场中路2800弄",121.447194029138,31.3104721478353,2022-04-01
"静安区","上海市静安区场中路3117弄",121.439469679719,31.3112332611104,2022-04-01
"静安区","上海市静安区万航渡路661弄",121.4386351539,31.2334591187592,2022-04-01
"静安区","上海市静安区延平路123弄",121.446489577957,31.2348311435668,2022-04-01
"静安区","上海市静安区万航渡路829弄",121.436856688651,31.2345663738335,2022-04-01
"静安区","上海市静安区武定路1102号",121.447617849677,31.2364204409484,2022-04-01
"静安区","上海市静安区武定西路1158弄",121.44236366075,31.2335186348246,2022-04-01
"静安区","上海市静安区万航渡路676弄",121.437584136453,31.2321675876556,2022-04-01
"静安区","上海市静安区余姚路487弄",121.442623360872,31.2386428955558,2022-04-01
"静安区","上海市静安区万航渡路677号",121.439125359217,31.2331899451084,2022-04-01
"静安区","上海市静安区长寿路999弄",121.435947244153,31.2389305016534,2022-04-01
"静安区","上海市静安区武宁南路88弄",121.443555891822,31.2333617778753,2022-04-01
"静安区","上海市静安区延平路340弄",121.445602591096,31.2381537470298,2022-04-01
"静安区","上海市静安区闻喜路930弄",121.454410027469,31.3144078417174,2022-04-01
"静安区","上海市静安区西宝兴路940号",121.474289528405,31.2761090682356,2022-04-01
"静安区","上海市静安区常熟路104弄",121.454123737503,31.2230618299389,2022-04-01
"静安区","上海市静安区江杨南路466弄",121.474431550506,31.3227213988794,2022-04-01
"静安区","上海市静安区西宝兴路922弄",121.474453738652,31.275670037316,2022-04-01
"静安区","上海市静安区宝通路389号",121.482774473099,31.2650144559217,2022-04-01
"静安区","上海市静安区汾西路739号",121.458508726019,31.3195606748051,2022-04-01
"静安区","上海市静安区芷江中路373号",121.477528997735,31.2658208508994,2022-04-01
"静安区","上海市静安区芷江中路361号",121.47796189116,31.2659424654615,2022-04-01
"静安区","上海市静安区通阁路135弄",121.485354406524,31.2611779268576,2022-04-01
"静安区","上海市静安区共和新路1158号",121.46653499592,31.2676083220942,2022-04-01
"静安区","上海市静安区通阁路188号",121.477097361937,31.2661583000528,2022-04-01
"静安区","上海市静安区武定路650弄",121.452287960363,31.2364928460047,2022-04-01
"静安区","上海市静安区运城路588号",121.441215757051,31.2816326715405,2022-04-01
"静安区","上海市静安区中山北路805弄",121.464330194877,31.2677061674839,2022-04-01
"静安区","上海市静安区茂名北路90弄",121.466957648663,31.2316295409273,2022-04-01
"静安区","上海市静安区万航渡路92号",121.448661141697,31.2310315875186,2022-04-01
"静安区","上海市静安区场中路2600弄",121.448262024559,31.3102327367817,2022-04-01
"静安区","上海市静安区晋元路237号",121.476512295559,31.2501466039838,2022-04-01
"静安区","上海市静安区少年村路535号",121.436033391651,31.3073275920228,2022-04-01
"静安区","上海市静安区康定路501弄",121.454354961341,31.2395189875951,2022-04-01
"静安区","上海市静安区新闸路1550弄",121.45368967628,31.236338309772,2022-04-01
"静安区","上海市静安区平顺路721弄",121.457853861302,31.3236286296725,2022-04-01
"静安区","上海市静安区康定东路9号",121.46403725745,31.2434461719377,2022-04-01
"静安区","上海市静安区洛川东路161号",121.471042064156,31.2779514324296,2022-04-01
"静安区","上海市静安区普善路铁路新村18号",121.461289071403,31.26237653114,2022-04-01
"静安区","上海市静安区毛家弄26号",121.459304355209,31.2626624436814,2022-04-01
"静安区","上海市静安区共康四村12号",121.443045564462,31.3224115317321,2022-04-01
"静安区","上海市静安区场中路3115号",121.439389011884,31.310496906482,2022-04-01
"静安区","上海市静安区安远路899弄",121.439295588111,31.2408508633404,2022-04-01
"静安区","上海市静安区虬江路997弄",121.48020513968,31.2579801587738,2022-04-01
"静安区","上海市静安区万荣一路90号",121.451133997105,31.3059665046286,2022-04-01
"静安区","上海市静安区广中西路99弄",121.455460685593,31.2881044615463,2022-04-01
"静安区","上海市静安区大宁路540弄",121.457282000015,31.2778189544011,2022-04-01
"静安区","上海市静安区广延路1199弄",121.464503028857,31.2974348435423,2022-04-01
"静安区","上海市静安区延安中路540弄",121.470162173909,31.2306991836741,2022-04-01
"静安区","上海市静安区新丰路607号",121.446358425352,31.2432688775414,2022-04-01
"静安区","上海市静安区西藏北路985弄",121.472361405458,31.2665716793923,2022-04-01
"静安区","上海市静安区永兴路928弄",121.466031765174,31.2575562458356,2022-04-01
"静安区","上海市静安区永兴小马路18号",121.47073457418,31.2564572890875,2022-04-01
"静安区","上海市静安区大统路938弄",121.465017937575,31.2604427207575,2022-04-01
"静安区","上海市静安区彭浦新村107号",121.451632556663,31.3193289222031,2022-04-01
"静安区","上海市静安区彭浦新村398号",121.451632556663,31.3193289222031,2022-04-01
"静安区","上海市静安区汾西路815弄",121.457240049148,31.3195925262824,2022-04-01
"静安区","上海市静安区临汾路1565弄",121.443824036017,31.315901461479,2022-04-01
"静安区","上海市静安区延平路85号",121.44713240538,31.2340126707415,2022-04-01
"静安区","上海市静安区平顺路180弄",121.459391221352,31.3190394812892,2022-04-01
"静安区","上海市静安区石门二路503号",121.46538561402,31.2434704852484,2022-04-01
"静安区","上海市静安区沪太路1051弄",121.435839716983,31.2849668670001,2022-04-01
"静安区","上海市静安区广中西路1173号",121.439352720341,31.2799410492653,2022-04-01
"静安区","上海市静安区柳营路319弄",121.469876782248,31.273721070047,2022-04-01
"静安区","上海市静安区洛川东路37号",121.472114101951,31.2786382010722,2022-04-01
"静安区","上海市静安区石门一路333弄",121.468099574627,31.2357796769152,2022-04-01
"静安区","上海市静安区万航渡路623弄",121.440392958122,31.2327279403492,2022-04-01
"静安区","上海市静安区恒丰路55号",121.464792732384,31.2462489533185,2022-04-01
"静安区","上海市静安区中兴路289号",121.483449819182,31.2655060104348,2022-04-01
"静安区","上海市静安区康定路313号",121.456791435376,31.2411728108698,2022-04-01
"静安区","上海市静安区晋元路88弄",121.476462978586,31.2469950765655,2022-04-01
"静安区","上海市静安区彭浦新村404号",121.46122825612,31.3150833902496,2022-04-01
"静安区","上海市静安区共和新路3650弄",121.454836722586,31.3103605410192,2022-04-01
"静安区","上海市静安区康定路775号",121.448680275604,31.2380126445337,2022-04-01
"静安区","上海市静安区昌化路453弄",121.456616625124,31.2451581223029,2022-04-01
"静安区","上海市静安区康定路389号",121.455324143156,31.2407062914809,2022-04-01
"静安区","上海市静安区常德路500弄",121.453820559393,31.2364182796026,2022-04-01
"静安区","上海市静安区西康路838号",121.450214671246,31.2444153033244,2022-04-01
"静安区","上海市静安区汾西路885弄",121.45590040614,31.3192083797733,2022-04-01
"静安区","上海市静安区天目中路268号",121.475499420164,31.2513569265206,2022-04-01
"静安区","上海市静安区灵石路737弄",121.445329775713,31.2904458041579,2022-04-01
"静安区","上海市静安区武定路801弄",121.435767313559,31.2040823562154,2022-04-01
"静安区","上海市静安区宝昌路600弄",121.478398018485,31.26623677822,2022-04-01
"静安区","上海市静安区洛川中路1100弄",121.456053477399,31.2707076099104,2022-04-01
"静安区","上海市静安区已对相关居住地落实终末消毒措施",121.453431772769,31.2338449304017,2022-04-01
"徐汇区","上海市徐汇区宾南路19弄",121.442219033562,31.1662931728628,2022-04-01
"徐汇区","上海市徐汇区宾阳路50弄",121.443584547768,31.1708745287423,2022-04-01
"徐汇区","上海市徐汇区宾阳路28弄",121.443396352764,31.1945567728227,2022-04-01
"徐汇区","上海市徐汇区漕溪四村",121.446825274726,31.1784801451306,2022-04-01
"徐汇区","上海市徐汇区龙华西路535弄",121.44933334371,31.1829361711657,2022-04-01
"徐汇区","上海市徐汇区漕溪一村",121.443510976547,31.1794268550151,2022-04-01
"徐汇区","上海市徐汇区漕溪三村",121.444011063224,31.1760910446685,2022-04-01
"徐汇区","上海市徐汇区漕溪二村",121.443639883388,31.1780744866355,2022-04-01
"徐汇区","上海市徐汇区漕溪路199号",121.442452682826,31.1789662842061,2022-04-01
"徐汇区","上海市徐汇区康健路100弄",121.434161322968,31.1710799228616,2022-04-01
"徐汇区","上海市徐汇区康健路24弄",121.437797034859,31.1718628727763,2022-04-01
"徐汇区","上海市徐汇区康健路25弄",121.438782835326,31.1724797424837,2022-04-01
"徐汇区","上海市徐汇区龙漕路135弄",121.445266984158,31.1765688541829,2022-04-01
"徐汇区","上海市徐汇区龙漕路51弄",121.443384584962,31.1751147176246,2022-04-01
"徐汇区","上海市徐汇区龙漕路58弄",121.442918813555,31.1740632236563,2022-04-01
"徐汇区","上海市徐汇区龙川北路800弄",121.442387016693,31.1583278725079,2022-04-01
"徐汇区","上海市徐汇区龙华西路315弄",121.448973572353,31.1809296610515,2022-04-01
"徐汇区","上海市徐汇区龙华西路591弄",121.447327427506,31.1831890382871,2022-04-01
"徐汇区","上海市徐汇区龙吴路13弄",121.450886603767,31.1797272327792,2022-04-01
"徐汇区","上海市徐汇区罗城路700弄",121.44135127044,31.1554791949428,2022-04-01
"徐汇区","上海市徐汇区南宁路501弄",121.449311245394,31.1712522558279,2022-04-01
"徐汇区","上海市徐汇区钦州大厦",121.43774996365,31.1678272428767,2022-04-01
"徐汇区","上海市徐汇区钦州路111弄",121.438197140133,31.1688065039178,2022-04-01
"徐汇区","上海市徐汇区石龙路33弄",121.453846879745,31.1628135164647,2022-04-01
"徐汇区","上海市徐汇区石龙路411弄",121.444302383701,31.1610082065255,2022-04-01
"徐汇区","上海市徐汇区田东路258弄",121.446431816913,31.1801827021888,2022-04-01
"徐汇区","上海市徐汇区爱华公寓",121.455823870511,31.1923883344325,2022-04-01
"徐汇区","上海市徐汇区东安五村",121.459093516133,31.1907246652838,2022-04-01
"徐汇区","上海市徐汇区东安二村",121.45997781485,31.1928310771145,2022-04-01
"徐汇区","上海市徐汇区东安路13弄",121.458690363393,31.198494570015,2022-04-01
"徐汇区","上海市徐汇区东安路180弄",121.465674958225,31.1893498569093,2022-04-01
"徐汇区","上海市徐汇区东安路240弄",121.458288731,31.1979819676469,2022-04-01
"徐汇区","上海市徐汇区东安四村",121.456663067518,31.1926611778501,2022-04-01
"徐汇区","上海市徐汇区东安一村",121.463765520033,31.1953510331687,2022-04-01
"徐汇区","上海市徐汇区枫林路333号",121.46374701494,31.1990788313607,2022-04-01
"徐汇区","上海市徐汇区龙华路1881弄",121.460185772576,31.1901091766098,2022-04-01
"徐汇区","上海市徐汇区龙华路2381弄",121.457359344119,31.1876758101734,2022-04-01
"徐汇区","上海市徐汇区龙山新村",121.452206484053,31.1906486976297,2022-04-01
"徐汇区","上海市徐汇区平江路145弄",121.460920586483,31.2056638364059,2022-04-01
"徐汇区","上海市徐汇区中山南二路918弄",121.455883428166,31.1918518353076,2022-04-01
"徐汇区","上海市徐汇区天钥桥路968弄",121.449490098021,31.1845598689735,2022-04-01
"徐汇区","上海市徐汇区天钥新村",121.452930158972,31.1920618943491,2022-04-01
"徐汇区","上海市徐汇区天钥桥路905弄",121.453126798048,31.1863627947601,2022-04-01
"徐汇区","上海市徐汇区宛南一村",121.457053291432,31.1903627194398,2022-04-01
"徐汇区","上海市徐汇区宛平南路65弄",121.451681514313,31.2024881854213,2022-04-01
"徐汇区","上海市徐汇区小木桥路440弄",121.464877173102,31.2006399326188,2022-04-01
"徐汇区","上海市徐汇区斜土路2183弄",121.454883973456,31.1998032455031,2022-04-01
"徐汇区","上海市徐汇区宛平南路255弄",121.454336007095,31.199930660267,2022-04-01
"徐汇区","上海市徐汇区中山南二路1057弄",121.450124301711,31.1857877220443,2022-04-01
"徐汇区","上海市徐汇区中山南二路937弄",121.456143667273,31.1898571004508,2022-04-01
"徐汇区","上海市徐汇区中山南二路999弄",121.45251900454,31.1869834306542,2022-04-01
"徐汇区","上海市徐汇区古美路1107弄",121.407081544048,31.1610961204934,2022-04-01
"徐汇区","上海市徐汇区桂林路402号",121.422423973345,31.1782029350504,2022-04-01
"徐汇区","上海市徐汇区桂林路666弄",121.420055860359,31.1866486306917,2022-04-01
"徐汇区","上海市徐汇区乌鲁木齐中路99弄",121.450553242592,31.2228094564482,2022-04-01
"徐汇区","上海市徐汇区五原路50弄",121.454458807794,31.2197710403499,2022-04-01
"徐汇区","上海市徐汇区新乐路143弄",121.461128903531,31.223541715984,2022-04-01
"徐汇区","上海市徐汇区华发路152号",121.45896201098,31.1334617406169,2022-04-01
"徐汇区","上海市徐汇区华发路180弄",121.458213542829,31.1335297432581,2022-04-01
"徐汇区","上海市徐汇区华发路58弄",121.46111740522,31.1354939164795,2022-04-01
"徐汇区","上海市徐汇区华发路99弄",121.459929036861,31.1321048458046,2022-04-01
"徐汇区","上海市徐汇区馨宁公寓",121.454057801878,31.1347467503834,2022-04-01
"徐汇区","上海市徐汇区华济路28弄",121.465467988636,31.1223618906381,2022-04-01
"徐汇区","上海市徐汇区华济路2弄",121.443396352764,31.1945567728227,2022-04-01
"徐汇区","上海市徐汇区华泾路999弄",121.450497008667,31.1238898777296,2022-04-01
"徐汇区","上海市徐汇区老沪闵路1290弄",121.44557384532,31.1271604640647,2022-04-01
"徐汇区","上海市徐汇区老沪闵路1296弄",121.44694492902,31.1273331868082,2022-04-01
"徐汇区","上海市徐汇区华建小区",121.443396352764,31.1945567728227,2022-04-01
"徐汇区","上海市徐汇区龙吴路2388弄",121.46634913651,31.1289552194858,2022-04-01
"徐汇区","上海市徐汇区龙吴路2418弄",121.469078008989,31.1253760301988,2022-04-01
"徐汇区","上海市徐汇区龙吴路2588弄",121.462948960325,31.1201446383344,2022-04-01
"徐汇区","上海市徐汇区龙吟路455弄",121.459304085718,31.1199525806603,2022-04-01
"徐汇区","上海市徐汇区宛南五村",121.454704761507,31.1876258416275,2022-04-01
"徐汇区","上海市徐汇区百花街345弄",121.41968261442,31.151379274427,2022-04-01
"徐汇区","上海市徐汇区百花街350号",121.420652245387,31.1522299915635,2022-04-01
"徐汇区","上海市徐汇区冠生园路403弄",121.430477461903,31.1685218495378,2022-04-01
"徐汇区","上海市徐汇区桂江路77弄",121.435059628478,31.1721788780382,2022-04-01
"徐汇区","上海市徐汇区桂林西街111弄",121.425720035922,31.1569824619793,2022-04-01
"徐汇区","上海市徐汇区桂林西街151弄",121.427377499418,31.1587542434872,2022-04-01
"徐汇区","上海市徐汇区桂林西街201弄",121.427928070865,31.1588939975685,2022-04-01
"徐汇区","上海市徐汇区桂林西街47弄",121.423043983808,31.1604233988607,2022-04-01
"徐汇区","上海市徐汇区桂林西街9弄",121.443396352764,31.1945567728227,2022-04-01
"徐汇区","上海市徐汇区桂平路188号",121.418447085021,31.1574507118403,2022-04-01
"徐汇区","上海市徐汇区桂平路257弄",121.413601086117,31.1634436556248,2022-04-01
"徐汇区","上海市徐汇区桂平路258弄",121.414757744292,31.1640397230495,2022-04-01
"徐汇区","上海市徐汇区桂林西街400弄",121.428240681183,31.1606856743475,2022-04-01
"徐汇区","上海市徐汇区康健路363弄",121.425690751162,31.1711447312173,2022-04-01
"徐汇区","上海市徐汇区罗城路570弄",121.443682552899,31.1568750755244,2022-04-01
"徐汇区","上海市徐汇区浦北路959弄",121.42047824361,31.1579268394382,2022-04-01
"徐汇区","上海市徐汇区钦州南路300弄",121.430443865277,31.1668997279413,2022-04-01
"徐汇区","上海市徐汇区钦州南路381弄",121.43156441157,31.1660604221461,2022-04-01
"徐汇区","上海市徐汇区钦州南路917弄",121.419185132828,31.1622886676468,2022-04-01
"徐汇区","上海市徐汇区虹梅南路96弄",121.421441227117,31.1460400776717,2022-04-01
"徐汇区","上海市徐汇区老沪闵路333弄",121.430766716277,31.1546392461673,2022-04-01
"徐汇区","上海市徐汇区罗秀路717弄",121.441354324679,31.1376876248454,2022-04-01
"徐汇区","上海市徐汇区罗秀路850弄",121.439271333862,31.1379000461016,2022-04-01
"徐汇区","上海市徐汇区罗秀路930弄",121.432818895214,31.1375055711784,2022-04-01
"徐汇区","上海市徐汇区梅陇九村",121.429158479922,31.1367430437498,2022-04-01
"徐汇区","上海市徐汇区梅陇路130号",121.432109323692,31.1475741697686,2022-04-01
"徐汇区","上海市徐汇区梅陇三村",121.423632373917,31.1437019201098,2022-04-01
"徐汇区","上海市徐汇区梅陇五村",121.429165935858,31.1400780123881,2022-04-01
"徐汇区","上海市徐汇区上中西路55弄",121.436471585079,31.1407341895892,2022-04-01
"徐汇区","上海市徐汇区丰谷路225弄",121.46265476527,31.1734412663375,2022-04-01
"徐汇区","上海市徐汇区机场新村",121.458088049549,31.1737422039756,2022-04-01
"徐汇区","上海市徐汇区滨江小区",121.463560257224,31.1587184744434,2022-04-01
"徐汇区","上海市徐汇区龙华西路21弄",121.454790729344,31.1750608803076,2022-04-01
"徐汇区","上海市徐汇区龙南七村",121.459623163835,31.1645714373345,2022-04-01
"徐汇区","上海市徐汇区龙南三村",121.462678031383,31.1624058589018,2022-04-01
"徐汇区","上海市徐汇区龙南四村",121.458213273337,31.1634543935241,2022-04-01
"徐汇区","上海市徐汇区龙南五村",121.460453018465,31.1614279215894,2022-04-01
"徐汇区","上海市徐汇区龙水南路358弄",121.458711204081,31.1596253661399,2022-04-01
"徐汇区","上海市徐汇区天钥桥南路1249弄",121.463243155379,31.157037314006,2022-04-01
"徐汇区","上海市徐汇区长峰小区",121.461408276544,31.1590337514416,2022-04-01
"徐汇区","上海市徐汇区天平路208弄",121.443343262908,31.2060364042648,2022-04-01
"徐汇区","上海市徐汇区岳阳路77弄",121.459642297742,31.2137644014729,2022-04-01
"徐汇区","上海市徐汇区钦州路920号",121.431465597964,31.185239368465,2022-04-01
"徐汇区","上海市徐汇区田林二村",121.426561838015,31.1763800015378,2022-04-01
"徐汇区","上海市徐汇区田林六村",121.426847319506,31.1788078683336,2022-04-01
"徐汇区","上海市徐汇区田林三村",121.428606471186,31.1773578601994,2022-04-01
"徐汇区","上海市徐汇区宜山路701弄",121.424135694494,31.1798146657762,2022-04-01
"徐汇区","上海市徐汇区茶陵北路5号",121.471695850906,31.2050998469245,2022-04-01
"徐汇区","上海市徐汇区茶陵路337号",121.470763409786,31.203200295486,2022-04-01
"徐汇区","上海市徐汇区斜土路1422弄",121.467855954173,31.203697811808,2022-04-01
"徐汇区","上海市徐汇区清真路65号",121.465806020999,31.2055598260053,2022-04-01
"徐汇区","上海市徐汇区斜土路1212弄",121.472478813988,31.2056977343511,2022-04-01
"徐汇区","上海市徐汇区炎虹路76弄",121.471456003335,31.2085998625996,2022-04-01
"徐汇区","上海市徐汇区肇嘉浜路193弄",121.471893118796,31.2080710233148,2022-04-01
"徐汇区","上海市徐汇区零陵路663号",121.451127888627,31.1930378904396,2022-04-01
"徐汇区","上海市徐汇区天钥桥路380弄",121.444129100568,31.1937164789766,2022-04-01
"徐汇区","上海市徐汇区宛平南路144弄",121.450913552932,31.2008656476691,2022-04-01
"徐汇区","上海市徐汇区王家堂小区",121.450780783378,31.1957844949201,2022-04-01
"徐汇区","上海市徐汇区斜土路2701号",121.448451567021,31.1918333006637,2022-04-01
"徐汇区","上海市徐汇区裕德路92弄",121.440170268186,31.1907853150418,2022-04-01
"徐汇区","上海市徐汇区老沪闵路790弄",121.438157974013,31.1461588345253,2022-04-01
"徐汇区","上海市徐汇区汇成二村",121.441477841686,31.1525364827155,2022-04-01
"徐汇区","上海市徐汇区汇成三村",121.440343191996,31.1503428895036,2022-04-01
"徐汇区","上海市徐汇区老沪闵路728弄",121.436331718911,31.1488588318855,2022-04-01
"徐汇区","上海市徐汇区龙川北路601号",121.444378761058,31.1543427539915,2022-04-01
"徐汇区","上海市徐汇区龙吴路1343弄",121.457336167837,31.1425782918706,2022-04-01
"徐汇区","上海市徐汇区罗香路90号",121.446933071387,31.1421995993896,2022-04-01
"徐汇区","上海市徐汇区罗秀二村",121.454301781655,31.1384360811623,2022-04-01
"徐汇区","上海市徐汇区罗秀新村",121.452962048817,31.1400625583243,2022-04-01
"徐汇区","上海市徐汇区罗秀三村",121.45301783359,31.1405420967382,2022-04-01
"徐汇区","上海市徐汇区星秀苑",121.442879018621,31.1398950361098,2022-04-01
"徐汇区","上海市徐汇区园南二村",121.449341877612,31.1485310040404,2022-04-01
"徐汇区","上海市徐汇区长桥二村",121.447470527574,31.143062762579,2022-04-01
"徐汇区","上海市徐汇区长桥五村",121.441221195802,31.1432295837323,2022-04-01
"徐汇区","上海市徐汇区冠生园路237弄",121.433090812292,31.1678745955627,2022-04-01
"徐汇区","上海市徐汇区三江小区",121.446398040625,31.1710708852209,2022-04-01
"徐汇区","上海市徐汇区龙华路2373弄",121.458604036234,31.1881678483267,2022-04-01
"徐汇区","上海市徐汇区斜土路2364号",121.454216712123,31.197990076022,2022-04-01
"徐汇区","上海市徐汇区中山南二路945弄",121.455453499149,31.1890301252516,2022-04-01
"徐汇区","上海市徐汇区古美小区",121.405382219515,31.1608273568827,2022-04-01
"徐汇区","上海市徐汇区华发路100弄",121.459335167088,31.1346399566882,2022-04-01
"徐汇区","上海市徐汇区华发路90弄",121.460242096331,31.1333362447042,2022-04-01
"徐汇区","上海市徐汇区龙吴路2525弄",121.459950775854,31.1212557055287,2022-04-01
"徐汇区","上海市徐汇区桂林东街150弄",121.430592355177,31.1638810502092,2022-04-01
"徐汇区","上海市徐汇区江安路55弄",121.421627356018,31.1553648535721,2022-04-01
"徐汇区","上海市徐汇区凌云新村",121.424881018575,31.1457958414062,2022-04-01
"徐汇区","上海市徐汇区梅陇十一村",121.433632041362,31.1387218313397,2022-04-01
"徐汇区","上海市徐汇区梅陇路279号",121.427065068762,31.1450850723984,2022-04-01
"徐汇区","上海市徐汇区天等路259弄",121.434106256841,31.1424098469238,2022-04-01
"徐汇区","上海市徐汇区龙华西路285弄",121.452732711421,31.1796370191419,2022-04-01
"徐汇区","上海市徐汇区龙华西路31弄",121.457319100032,31.1746273227092,2022-04-01
"徐汇区","上海市徐汇区龙水北路960弄",121.452796311451,31.1777578833271,2022-04-01
"徐汇区","上海市徐汇区云锦路50弄",121.462366678693,31.1799079687433,2022-04-01
"徐汇区","上海市徐汇区云锦路701号",121.466310689035,31.1693952761245,2022-04-01
"徐汇区","上海市徐汇区田林十四村",121.430482222922,31.1808076270251,2022-04-01
"徐汇区","上海市徐汇区漕宝路77弄",121.434132846684,31.1747285095007,2022-04-01
"徐汇区","上海市徐汇区田林路65弄",121.426129663234,31.1767201677456,2022-04-01
"徐汇区","上海市徐汇区田林七村",121.426115020854,31.1790808285244,2022-04-01
"徐汇区","上海市徐汇区徐虹中路19号",121.432647947676,31.1938005009777,2022-04-01
"徐汇区","上海市徐汇区茶陵路223号",121.473298877088,31.2040909273679,2022-04-01
"徐汇区","上海市徐汇区江南二村",121.468645025733,31.1983538710604,2022-04-01
"徐汇区","上海市徐汇区零陵路60号",121.472670153062,31.2006984656878,2022-04-01
"徐汇区","上海市徐汇区日晖七村",121.466176122869,31.2037039892407,2022-04-01
"徐汇区","上海市徐汇区虹二小区",121.431831298137,31.2018613974462,2022-04-01
"徐汇区","上海市徐汇区凯旋一村",121.431102233385,31.1995708096388,2022-04-01
"徐汇区","上海市徐汇区零陵路631号",121.452929979311,31.1943128945468,2022-04-01
"徐汇区","上海市徐汇区零陵路789弄",121.446307311769,31.1921748008894,2022-04-01
"徐汇区","上海市徐汇区南丹路368弄",121.43343288703,31.1982059129855,2022-04-01
"徐汇区","上海市徐汇区汇成一村",121.438515858928,31.1532893789645,2022-04-01
"徐汇区","上海市徐汇区喜泰路247弄",121.457669798504,31.1487581580309,2022-04-01
"徐汇区","上海市徐汇区长桥四村",121.446028028586,31.1399378439366,2022-04-01
"徐汇区","上海市徐汇区漕东支路111弄",121.444571785524,31.1795996360682,2022-04-01
"徐汇区","上海市徐汇区漕溪一村",121.443510976547,31.1794268550151,2022-04-01
"徐汇区","上海市徐汇区南宁路660号",121.446218289693,31.1694676557641,2022-04-01
"徐汇区","上海市徐汇区广汇花园",121.461492807093,31.1980964115041,2022-04-01
"徐汇区","上海市徐汇区零陵路250弄",121.465808356593,31.1975539988936,2022-04-01
"徐汇区","上海市徐汇区零陵路361号",121.461914920852,31.1974478172419,2022-04-01
"徐汇区","上海市徐汇区宛南四村",121.456061202827,31.1884676574684,2022-04-01
"徐汇区","上海市徐汇区宛南六村",121.451551709167,31.1857104893399,2022-04-01
"徐汇区","上海市徐汇区天钥桥路907号",121.451530239665,31.1855103018739,2022-04-01
"徐汇区","上海市徐汇区斜土路2175号",121.455842465435,31.1993010752036,2022-04-01
"徐汇区","上海市徐汇区中山南二路2001号",121.448893712993,31.1847055315889,2022-04-01
"徐汇区","上海市徐汇区虹漕路24号",121.418020030582,31.1726598744703,2022-04-01
"徐汇区","上海市徐汇区田林路118号",121.42287150915,31.1766127266448,2022-04-01
"徐汇区","上海市徐汇区东兰路121弄",121.405809902768,31.1625120802491,2022-04-01
"徐汇区","上海市徐汇区龙吴路2888弄",121.461576798658,31.1154641931161,2022-04-01
"徐汇区","上海市徐汇区华泾四村",121.453733872912,31.1275803304769,2022-04-01
"徐汇区","上海市徐汇区华发路80弄",121.45933628997,31.1345330083218,2022-04-01
"徐汇区","上海市徐汇区桂林路81号",121.427132800997,31.1677889281247,2022-04-01
"徐汇区","上海市徐汇区浦北路948弄",121.420650538607,31.1595965503106,2022-04-01
"徐汇区","上海市徐汇区梅陇十村",121.431190985969,31.1362258537566,2022-04-01
"徐汇区","上海市徐汇区天等路430弄",121.434986955563,31.1443219883868,2022-04-01
"徐汇区","上海市徐汇区梅陇七村",121.430509172087,31.1453318602907,2022-04-01
"徐汇区","上海市徐汇区黄石路32号",121.457897249459,31.1631108573902,2022-04-01
"徐汇区","上海市徐汇区龙南六村",121.459373884056,31.1623585034551,2022-04-01
"徐汇区","上海市徐汇区天钥桥南路1199弄",121.462923448448,31.1588355156482,2022-04-01
"徐汇区","上海市徐汇区天钥桥南路1118弄",121.461017333986,31.1620362076758,2022-04-01
"徐汇区","上海市徐汇区龙华西路127号",121.456195948653,31.1793385720385,2022-04-01
"徐汇区","上海市徐汇区桂林路303弄",121.424907518588,31.1752011507849,2022-04-01
"徐汇区","上海市徐汇区钦州北路300弄",121.424702255779,31.1877375950464,2022-04-01
"徐汇区","上海市徐汇区钦州路780号",121.43473543002,31.1822812931254,2022-04-01
"徐汇区","上海市徐汇区钦州路820号",121.434456955312,31.1827678759013,2022-04-01
"徐汇区","上海市徐汇区田林路89弄",121.425384967967,31.176957835365,2022-04-01
"徐汇区","上海市徐汇区田林八村",121.428402106683,31.1780064390276,2022-04-01
"徐汇区","上海市徐汇区零陵路29弄",121.443396352764,31.1945567728227,2022-04-01
"徐汇区","上海市徐汇区清真路58弄",121.465097617274,31.2054633054857,2022-04-01
"徐汇区","上海市徐汇区清真路75号",121.465284285159,31.2053413034066,2022-04-01
"徐汇区","上海市徐汇区大木桥路428号",121.468534983308,31.2025598445407,2022-04-01
"徐汇区","上海市徐汇区东安路888弄",121.468224259432,31.1880274427884,2022-04-01
"徐汇区","上海市徐汇区斜土路1111号",121.472391947845,31.2069984332556,2022-04-01
"徐汇区","上海市徐汇区平江路11弄",121.463651614894,31.2068258571474,2022-04-01
"徐汇区","上海市徐汇区虹桥路693弄",121.431831298137,31.2018613974462,2022-04-01
"徐汇区","上海市徐汇区文定路211号",121.438255170669,31.1910423313181,2022-04-01
"徐汇区","上海市徐汇区中漕路38弄",121.44074805829,31.1903196257023,2022-04-01
"徐汇区","上海市徐汇区老沪闵路710弄",121.435548396506,31.1501586970389,2022-04-01
"徐汇区","上海市徐汇区汇成五村",121.441892050357,31.1484195129521,2022-04-01
"徐汇区","上海市徐汇区长桥六村",121.442889079642,31.1390047216134,2022-04-01
"徐汇区","上海市徐汇区已对相关居住地落实终末消毒措施",121.443396352764,31.1945567728227,2022-04-01
"长宁区","上海市长宁区安顺路231弄住宅",121.423082880436,31.2068536546628,2022-04-01
"长宁区","上海市长宁区天山西路80弄",121.381001518749,31.2228166339783,2022-04-01
"长宁区","上海市长宁区利西路125弄",121.436652054656,31.2206787300355,2022-04-01
"长宁区","上海市长宁区虹桥路1115弄",121.41717203018,31.2040948654648,2022-04-01
"长宁区","上海市长宁区虹桥机场新村",121.425393052716,31.2043622695753,2022-04-01
"长宁区","上海市长宁区长宁路1488弄3支弄",121.415484653111,31.223799105587,2022-04-01
"长宁区","上海市长宁区剑河路888弄",121.3764920855,31.2069357345005,2022-04-01
"长宁区","上海市长宁区剑河路998弄",121.376519304157,31.2051049432302,2022-04-01
"长宁区","上海市长宁区泉口路242号",121.369951343421,31.2197864802146,2022-04-01
"长宁区","上海市长宁区云雾山路221弄",121.409881382661,31.221751086179,2022-04-01
"长宁区","上海市长宁区法华镇路681弄",121.429509717377,31.2131291186402,2022-04-01
"长宁区","上海市长宁区万航渡路1425号",121.427786497917,31.2315382193462,2022-04-01
"长宁区","上海市长宁区番禺路277弄",121.435065197973,31.2131152208149,2022-04-01
"长宁区","上海市长宁区安顺路99弄",121.428467144002,31.2075156191688,2022-04-01
"长宁区","上海市长宁区虹桥路1720弄",121.397919905813,31.2039735565623,2022-04-01
"长宁区","上海市长宁区新泾一村",121.377624938579,31.2238128474236,2022-04-01
"长宁区","上海市长宁区长宁路476弄",121.431701043838,31.2294174956496,2022-04-01
"长宁区","上海市长宁区定西路1507号",121.427962206475,31.2235901213413,2022-04-01
"长宁区","上海市长宁区新华路210弄",121.434826428368,31.2095698182037,2022-04-01
"长宁区","上海市长宁区淮海中路2006弄",121.44154701121,31.2095178537935,2022-04-01
"长宁区","上海市长宁区武夷路290弄",121.431624867531,31.2187651344041,2022-04-01
"长宁区","上海市长宁区宣化路72弄",121.435963683144,31.22422973364,2022-04-01
"长宁区","上海市长宁区仙霞西路7弄",121.430454375451,31.2268479682254,2022-04-01
"长宁区","上海市长宁区天山三村",121.413288385969,31.2192865788084,2022-04-01
"长宁区","上海市长宁区万航渡路2032弄住宅",121.419833439915,31.2283268543222,2022-04-01
"长宁区","上海市长宁区万航渡路2486号",121.412198921047,31.2263369878448,2022-04-01
"长宁区","上海市长宁区天山四村住宅",121.409079465333,31.2184604038524,2022-04-01
"长宁区","上海市长宁区已对相关居住地落实终末消毒措施",121.430454375451,31.2268479682254,2022-04-01
"普陀区","上海市普陀区中山北路1243弄",121.450589354474,31.2635302851367,2022-04-01
"普陀区","上海市普陀区桃浦路221弄",121.403890673046,31.2658226257324,2022-04-01
"普陀区","上海市普陀区桃浦路1149弄",121.386526068216,31.265616667719,2022-04-01
"普陀区","上海市普陀区交通西路108弄",121.454447486809,31.2621174727863,2022-04-01
"普陀区","上海市普陀区新村路1881弄",121.410487110067,31.2763031207876,2022-04-01
"普陀区","上海市普陀区中山北路1412号",121.447590002207,31.2618068641918,2022-04-01
"普陀区","上海市普陀区新村路50弄",121.438774750576,31.2718808600946,2022-04-01
"普陀区","上海市普陀区华联路28号",121.350674425821,31.2857340517416,2022-04-01
"普陀区","上海市普陀区定边路377弄",121.371116355837,31.2661373879637,2022-04-01
"普陀区","上海市普陀区曹杨五村",121.414531640795,31.2402159959289,2022-04-01
"普陀区","上海市普陀区怒江北路458弄",121.394739634816,31.2417879120467,2022-04-01
"普陀区","上海市普陀区武威路1236弄21支弄",121.390942138103,31.2857697722774,2022-04-01
"普陀区","上海市普陀区桃浦路1925弄",121.369826299294,31.268525039867,2022-04-01
"普陀区","上海市普陀区新村路349弄",121.440943349908,31.2741473787659,2022-04-01
"普陀区","上海市普陀区金迈路359弄",121.335748091637,31.2929674514103,2022-04-01
"普陀区","上海市普陀区桃浦路2055弄",121.36823782566,31.2698566567232,2022-04-01
"普陀区","上海市普陀区梅岭支路85弄",121.416993896198,31.2412012156813,2022-04-01
"普陀区","上海市普陀区长风一村",121.409779784308,31.2374634388639,2022-04-01
"普陀区","上海市普陀区金迈路358弄",121.335278008363,31.2932537331798,2022-04-01
"普陀区","上海市普陀区靖边路299弄",121.375058300076,31.2686382399983,2022-04-01
"普陀区","上海市普陀区宜川路595弄",121.442659652415,31.2747640376365,2022-04-01
"普陀区","上海市普陀区泰山一村",121.453747616986,31.2664736784822,2022-04-01
"普陀区","上海市普陀区靖边路199弄",121.373309478909,31.2670268806969,2022-04-01
"普陀区","上海市普陀区福兴村",121.424308258982,31.2362705360589,2022-04-01
"普陀区","上海市普陀区铜川路1781弄",121.393772968257,31.2573308990162,2022-04-01
"普陀区","上海市普陀区宜君路67号",121.43226715597,31.2697683046831,2022-04-01
"普陀区","上海市普陀区长风二村",121.408447417576,31.2403716835701,2022-04-01
"普陀区","上海市普陀区泰山二村",121.452083955181,31.2660268856292,2022-04-01
"普陀区","上海市普陀区曹杨路777号",121.419679021198,31.2464278629008,2022-04-01
"普陀区","上海市普陀区延长西路328号",121.443818915676,31.2678981540392,2022-04-01
"普陀区","上海市普陀区中宁路88弄",121.422168764749,31.2553446593913,2022-04-01
"普陀区","上海市普陀区真北路3199弄",121.399496611644,31.2800949733368,2022-04-01
"普陀区","上海市普陀区远景路97弄",121.453840052623,31.2578487328491,2022-04-01
"普陀区","上海市普陀区灵石路1620弄",121.429462376676,31.2714767636842,2022-04-01
"普陀区","上海市普陀区白丽路185弄",121.354002378244,31.2871621681724,2022-04-01
"普陀区","上海市普陀区中山北路2451弄",121.430520760228,31.2511581142525,2022-04-01
"普陀区","上海市普陀区真北支路263弄",121.401193241261,31.2631300110511,2022-04-01
"普陀区","上海市普陀区宜君路80弄",121.431006563848,31.2698407610785,2022-04-01
"普陀区","上海市普陀区交通路1913弄",121.446762752662,31.2631853411164,2022-04-01
"普陀区","上海市普陀区宜川一村",121.447123422325,31.2685465687369,2022-04-01
"普陀区","上海市普陀区西康路1407弄",121.441711221458,31.2508107320193,2022-04-01
"普陀区","上海市普陀区大渡河路1558号",121.403425530453,31.2533196347275,2022-04-01
"普陀区","上海市普陀区骊山路34弄",121.451249204786,31.26489094955,2022-04-01
"普陀区","上海市普陀区宜川四村",121.449737132037,31.2711912639254,2022-04-01
"普陀区","上海市普陀区志丹路380弄",121.4380906011,31.2752620993553,2022-04-01
"普陀区","上海市普陀区铜川路999弄",121.409939682689,31.2553256742653,2022-04-01
"普陀区","上海市普陀区曹杨路1971号",121.412160653232,31.2615584537431,2022-04-01
"普陀区","上海市普陀区新村路406号",121.435868911912,31.2717016905825,2022-04-01
"普陀区","上海市普陀区石泉东路168弄",121.439480818707,31.2618765486446,2022-04-01
"普陀区","上海市普陀区中山北路1560号",121.445349807926,31.2609628524691,2022-04-01
"普陀区","上海市普陀区枣阳路465弄",121.408361180247,31.2357748138537,2022-04-01
"普陀区","上海市普陀区管弄路252弄",121.430606278913,31.2625631267925,2022-04-01
"普陀区","上海市普陀区真如西村",121.40580693836,31.252311620847,2022-04-01
"普陀区","上海市普陀区枣阳路297弄",121.407720778249,31.2397710844536,2022-04-01
"普陀区","上海市普陀区三源路41弄",121.414370844109,31.2663561544207,2022-04-01
"普陀区","上海市普陀区泰山三村",121.454927990426,31.2650678556895,2022-04-01
"普陀区","上海市普陀区桃浦四村",121.353449291541,31.2905809643886,2022-04-01
"普陀区","上海市普陀区大渡河路652弄",121.402675714844,31.2350965300869,2022-04-01
"普陀区","上海市普陀区新村路1388弄",121.419854280603,31.2722922850813,2022-04-01
"普陀区","上海市普陀区中山北路3924弄",121.417902083068,31.2319241932994,2022-04-01
"普陀区","上海市普陀区子洲路680弄",121.397473088652,31.267527915948,2022-04-01
"普陀区","上海市普陀区宜川二村",121.443969022526,31.2668859761056,2022-04-01
"普陀区","上海市普陀区武威路1019弄",121.361963431165,31.2844801982708,2022-04-01
"普陀区","上海市普陀区石泉路130弄",121.432140225402,31.2571131146903,2022-04-01
"普陀区","上海市普陀区金沙江路2098弄",121.377214862113,31.24211456471,2022-04-01
"普陀区","上海市普陀区大渡河路1550弄",121.401199170077,31.2522755016271,2022-04-01
"普陀区","上海市普陀区普陀一村",121.428633510182,31.2421393414841,2022-04-01
"普陀区","上海市普陀区曹杨路2088号",121.41214403458,31.2638209014146,2022-04-01
"普陀区","上海市普陀区清涧路68弄",121.395254004551,31.2699465519445,2022-04-01
"普陀区","上海市普陀区长寿路633弄",121.439726145942,31.2432705756173,2022-04-01
"普陀区","上海市普陀区宜川三村",121.447419503821,31.263551892326,2022-04-01
"普陀区","上海市普陀区白玉路669弄",121.428100635354,31.234186277431,2022-04-01
"普陀区","上海市普陀区华池路58弄",121.434798221575,31.2641542678854,2022-04-01
"普陀区","上海市普陀区师大二村",121.407614149385,31.2371600042429,2022-04-01
"普陀区","上海市普陀区金鼎路298弄",121.396664613693,31.2641366735736,2022-04-01
"普陀区","上海市普陀区雪松路503弄",121.356376240385,31.293079619042,2022-04-01
"普陀区","上海市普陀区金沙江路895弄",121.400264034041,31.2372700775619,2022-04-01
"普陀区","上海市普陀区金沙江路2208弄",121.376368029509,31.2449910194207,2022-04-01
"普陀区","上海市普陀区白玉路678弄",121.425420001881,31.2340162216153,2022-04-01
"普陀区","上海市普陀区绿杨路51弄",121.353013972691,31.2920878488443,2022-04-01
"普陀区","上海市普陀区铜川路58弄",121.42645341254,31.2624079391191,2022-04-01
"普陀区","上海市普陀区平利路21弄",121.436136786615,31.2760292095137,2022-04-01
"普陀区","上海市普陀区中山北路2347弄",121.432083452493,31.2521642883005,2022-04-01
"普陀区","上海市普陀区雪松路392弄",121.360706881418,31.289754724988,2022-04-01
"普陀区","上海市普陀区红棉路185号",121.35701466611,31.2869061102241,2022-04-01
