"district","address","lng","lat","date"
"静安区","上海市静安区柳营路588弄",121.4671822250403,31.27176997874455,"2022-06-20"
"普陀区","上海市普陀区桃浦路1028弄",121.38946047299481,31.26651951514113,"2022-06-20"
"闵行区","上海市闵行区航东路299号",121.363026575736,31.17755536169436,"2022-06-20"
"闵行区","上海市闵行区航东路355号旁边仓库",121.36248965853268,31.178528805494746,"2022-06-20"
"闵行区","上海市闵行区航华四村",121.36573954820668,31.17761120580383,"2022-06-20"
