"district","address","lng","lat","date"
"浦东新区","上海市浦东新区瑞意路399弄",121.59268628445,31.1027918607619,2022-03-29
"浦东新区","上海市浦东新区崂山路645弄",121.531348816432,31.2278054602837,2022-03-29
"浦东新区","上海市浦东新区浦电路221号",121.530044566662,31.2249883073877,2022-03-29
"浦东新区","上海市浦东新区五星村家务队顾家宅",121.57836549801,31.1799884502015,2022-03-29
"浦东新区","上海市浦东新区康沈公路389弄",121.582849300133,31.1279738424437,2022-03-29
"浦东新区","上海市浦东新区下南路320弄",121.547891741212,31.1755488136572,2022-03-29
"浦东新区","上海市浦东新区高青路960号",121.513717774188,31.1608666015166,2022-03-29
"浦东新区","上海市浦东新区鹤东村",121.602978260509,31.061148957304,2022-03-29
"浦东新区","上海市浦东新区朝农新村",121.842479624729,31.1029429067547,2022-03-29
"浦东新区","上海市浦东新区镇南村",121.585893837167,31.3452678314131,2022-03-29
"浦东新区","上海市浦东新区荷泽路58弄",121.59689080339,31.2787808625239,2022-03-29
"浦东新区","上海市浦东新区罗山路108弄",121.558879454888,31.2546415897529,2022-03-29
"浦东新区","上海市浦东新区昌里东路650弄",121.521399004942,31.1835358991941,2022-03-29
"浦东新区","上海市浦东新区坦南村",121.65884962933,31.0724938878595,2022-03-29
"浦东新区","上海市浦东新区瑞阳路81弄",121.594743853221,31.1053716682663,2022-03-29
"浦东新区","上海市浦东新区新吉村",121.725028425063,31.1167471303745,2022-03-29
"浦东新区","上海市浦东新区五莲路108弄",121.588773624971,31.2771578731139,2022-03-29
"浦东新区","上海市浦东新区凌兆路530弄",121.509243899221,31.1473446768569,2022-03-29
"浦东新区","上海市浦东新区张杨路1269弄",121.538690487704,31.238534367636,2022-03-29
"浦东新区","上海市浦东新区东书房路560弄",121.543073679609,31.1677333099084,2022-03-29
"浦东新区","上海市浦东新区新德路681弄",121.697738442654,31.2023966809704,2022-03-29
"浦东新区","上海市浦东新区南桥路983弄",121.69942851464,31.1934602422984,2022-03-29
"浦东新区","上海市浦东新区庆星村储家宅",121.738002741375,31.2464622863618,2022-03-29
"浦东新区","上海市浦东新区妙境路623弄",121.698504876915,31.1961208839513,2022-03-29
"浦东新区","上海市浦东新区下南路370弄",121.536884264815,31.1897022555378,2022-03-29
"浦东新区","上海市浦东新区南泉路1320弄",121.526560398911,31.2157341523422,2022-03-29
"浦东新区","上海市浦东新区浦电路138弄",121.528464716762,31.2248821568414,2022-03-29
"浦东新区","上海市浦东新区东泰林路799弄",121.550311416934,31.1496681592191,2022-03-29
"浦东新区","上海市浦东新区昌里东路71弄",121.51070692361,31.1826643807287,2022-03-29
"浦东新区","上海市浦东新区大道站路94弄",121.545610314708,31.1654593463491,2022-03-29
"浦东新区","上海市浦东新区天花庵村东瞿队大瞿家宅",121.532611205165,31.1270776188598,2022-03-29
"浦东新区","上海市浦东新区莲园路100弄",121.554990690335,31.1893334069738,2022-03-29
"浦东新区","上海市浦东新区卫行村张浜队顾家宅",121.587971438151,31.1702257460932,2022-03-29
"浦东新区","上海市浦东新区康安路567弄",121.536884264815,31.1897022555378,2022-03-29
"浦东新区","上海市浦东新区康桥路1200号",121.580047844569,31.1558660231279,2022-03-29
"浦东新区","上海市浦东新区南码头路617号",121.519180010672,31.1953568250279,2022-03-29
"浦东新区","上海市浦东新区春晖路368弄",121.590196181577,31.3445205658804,2022-03-29
"浦东新区","上海市浦东新区严桥路58弄",121.532464961028,31.1967998362783,2022-03-29
"浦东新区","上海市浦东新区红三村",121.800614815081,31.0910897742916,2022-03-29
"浦东新区","上海市浦东新区康士路15弄",121.569516739584,31.1556683987021,2022-03-29
"浦东新区","上海市浦东新区瑞浦路8弄",121.550454606832,31.2273482924363,2022-03-29
"浦东新区","上海市浦东新区周南村",121.589970886555,31.111919735761,2022-03-29
"浦东新区","上海市浦东新区暮一村奚家宅",121.695575772138,31.2230687009116,2022-03-29
"浦东新区","上海市浦东新区莲安西路125弄",121.559745780722,31.1853271824863,2022-03-29
"浦东新区","上海市浦东新区莱阳路880弄",121.590822300517,31.2883369089077,2022-03-29
"浦东新区","上海市浦东新区营房村",121.572398952813,31.142485338114,2022-03-29
"浦东新区","上海市浦东新区海阳路1050号",121.512681039798,31.1636228007038,2022-03-29
"浦东新区","上海市浦东新区新雅东路125弄",121.695069038,31.243875860532,2022-03-29
"浦东新区","上海市浦东新区东风村",121.705700034558,31.2324508135927,2022-03-29
"浦东新区","上海市浦东新区金高路2216弄",121.612066866506,31.267856639295,2022-03-29
"浦东新区","上海市浦东新区五星村陈家队陈家宅",121.578579474383,31.194413133383,2022-03-29
"浦东新区","上海市浦东新区海松路421弄",121.687246593619,31.2860583134694,2022-03-29
"浦东新区","上海市浦东新区东绣路1155弄",121.541281200795,31.2049419385272,2022-03-29
"浦东新区","上海市浦东新区灵山路1799弄",121.577772616374,31.2483716108645,2022-03-29
"浦东新区","上海市浦东新区莲中路318弄",121.564485240592,31.1865044385056,2022-03-29
"浦东新区","上海市浦东新区川周公路3010弄",121.617623155577,31.147196115555,2022-03-29
"浦东新区","上海市浦东新区杭湾路196号",121.856172944771,30.8623149363396,2022-03-29
"浦东新区","上海市浦东新区周市路66号",121.589299852339,31.1163489339985,2022-03-29
"浦东新区","上海市浦东新区康沈路250弄",121.584859707864,31.1200779398788,2022-03-29
"浦东新区","上海市浦东新区卫东村",121.762228334198,31.1823433904965,2022-03-29
"浦东新区","上海市浦东新区龙居路30弄",121.5896261169,31.2815848989426,2022-03-29
"浦东新区","上海市浦东新区新德路506弄",121.699537928251,31.2032561243156,2022-03-29
"浦东新区","上海市浦东新区妙境路162弄",121.695020439672,31.2023335930395,2022-03-29
"浦东新区","上海市浦东新区联勤村李家队北李家宅",121.747597722188,31.1295797900392,2022-03-29
"浦东新区","上海市浦东新区联勤村张家队张家宅",121.691947606014,31.2362337931142,2022-03-29
"浦东新区","上海市浦东新区周东路782弄",121.59005002727,31.1317982106719,2022-03-29
"浦东新区","上海市浦东新区杨高中路2168弄",121.558189286765,31.2355690212105,2022-03-29
"浦东新区","上海市浦东新区东陆路1268弄",121.601560554753,31.2728788634835,2022-03-29
"浦东新区","上海市浦东新区花墙村",121.55274169266,31.1563281752622,2022-03-29
"浦东新区","上海市浦东新区东陆路1221号",121.604299398422,31.2769738528053,2022-03-29
"浦东新区","上海市浦东新区浦电路218弄",121.53039158208,31.2260317415484,2022-03-29
"浦东新区","上海市浦东新区高科西路3030弄",121.569848753301,31.1958928407386,2022-03-29
"浦东新区","上海市浦东新区上南路3500弄",121.525530311983,31.1391594184198,2022-03-29
"浦东新区","上海市浦东新区城西路195弄",121.755245356316,31.0535237081565,2022-03-29
"浦东新区","上海市浦东新区白莲泾路与浦东南路交界口工地生活区",121.493825876636,31.2624945232233,2022-03-29
"浦东新区","上海市浦东新区义泓村",121.843812620276,31.0819638207255,2022-03-29
"浦东新区","上海市浦东新区迎春街75弄",121.677493241545,31.1721952537401,2022-03-29
"浦东新区","上海市浦东新区青四村3队北邬家宅",121.743695932205,31.2340538145526,2022-03-29
"浦东新区","上海市浦东新区妙境路1367弄",121.703830570961,31.1852502583349,2022-03-29
"浦东新区","上海市浦东新区浦东大道2920弄",121.583602619133,31.2809363432894,2022-03-29
"浦东新区","上海市浦东新区进贤路138弄",121.69915956197,31.1980883031382,2022-03-29
"浦东新区","上海市浦东新区年家浜路461弄",121.576889312566,31.1200151830037,2022-03-29
"浦东新区","上海市浦东新区浦电路29弄",121.521798301741,31.2219827721666,2022-03-29
"浦东新区","上海市浦东新区康沈路1758弄",121.58452158567,31.1196864815925,2022-03-29
"浦东新区","上海市浦东新区崂山路551弄",121.528755677916,31.2325728575384,2022-03-29
"浦东新区","上海市浦东新区潍坊路154弄",121.532304344003,31.2313464668942,2022-03-29
"浦东新区","上海市浦东新区浦三路12弄",121.517827791387,31.2027220039836,2022-03-29
"浦东新区","上海市浦东新区海科路777号",121.609977318059,31.1869477496078,2022-03-29
"浦东新区","上海市浦东新区韵浦路259号",121.587752970251,31.1177938563188,2022-03-29
"浦东新区","上海市浦东新区新金桥路159号",121.60357356757,31.253122910416,2022-03-29
"浦东新区","上海市浦东新区瑞福路52弄",121.607602647444,31.1017584182868,2022-03-29
"浦东新区","上海市浦东新区海容路99弄",121.680835027872,31.2869618891018,2022-03-29
"浦东新区","上海市浦东新区川沙路5245弄",121.705793428388,31.194881273585,2022-03-29
"浦东新区","上海市浦东新区一心村顾家宅",121.688848811327,31.2500387840308,2022-03-29
"浦东新区","上海市浦东新区三林路200弄",121.536884264815,31.1897022555378,2022-03-29
"浦东新区","上海市浦东新区三旋路506弄",121.525530311983,31.1391594184198,2022-03-29
"浦东新区","上海市浦东新区下南路551弄",121.54679904239,31.1790168752743,2022-03-29
"浦东新区","上海市浦东新区昌里路167弄",121.504545446117,31.1810916262197,2022-03-29
"浦东新区","上海市浦东新区思浦路11弄",121.500416923824,31.16443161446,2022-03-29
"浦东新区","上海市浦东新区沪东路67号",121.586816756248,31.2773934340112,2022-03-29
"浦东新区","上海市浦东新区南泉北路101弄",121.522040215415,31.244123854865,2022-03-29
"浦东新区","上海市浦东新区杨高中路266弄",121.602750360401,31.2583311414883,2022-03-29
"浦东新区","上海市浦东新区寿光路75弄",121.589577991099,31.2796470691226,2022-03-29
"浦东新区","上海市浦东新区祝家港路南八灶",121.585905335478,31.1180888666126,2022-03-29
"浦东新区","上海市浦东新区沪南路2518弄",121.536884264815,31.1897022555378,2022-03-29
"浦东新区","上海市浦东新区鹤永路599弄",121.609669828083,31.0803451524658,2022-03-29
"浦东新区","上海市浦东新区周东路558号",121.591887241699,31.1272294759193,2022-03-29
"浦东新区","上海市浦东新区金杨路220弄",121.581187165448,31.2530563837015,2022-03-29
"浦东新区","上海市浦东新区千汇路750弄",121.77091009763,31.1228952321347,2022-03-29
"浦东新区","上海市浦东新区海春路150弄",121.592615138654,31.3549159003979,2022-03-29
"浦东新区","上海市浦东新区海鹏路301弄",121.680730914264,31.2953639830489,2022-03-29
"浦东新区","上海市浦东新区浦电路62弄",121.524943538824,31.2243655300639,2022-03-29
"浦东新区","上海市浦东新区羽山路1446弄",121.568582951007,31.2459944040648,2022-03-29
"浦东新区","上海市浦东新区果园村",121.737440132634,30.9836647732627,2022-03-29
"浦东新区","上海市浦东新区杨南路1899弄",121.525480006874,31.1614217413702,2022-03-29
"浦东新区","上海市浦东新区浦电路489号工地生活区",121.541418012724,31.2285413862049,2022-03-29
"浦东新区","上海市浦东新区浦东大道501弄",121.525107120257,31.2485129292745,2022-03-29
"浦东新区","上海市浦东新区博华路930弄",121.556749213201,31.1803200299912,2022-03-29
"浦东新区","上海市浦东新区苗圃路466弄",121.559420234805,31.2442508233865,2022-03-29
"浦东新区","上海市浦东新区沈家弄路936号",121.553671079541,31.2460098406675,2022-03-29
"浦东新区","上海市浦东新区昌里路340弄",121.500968393576,31.1782390828587,2022-03-29
"浦东新区","上海市浦东新区光辉村",121.718709384784,31.0698578892064,2022-03-29
"浦东新区","上海市浦东新区凌河路188弄",121.602161970292,31.2819038514981,2022-03-29
"浦东新区","上海市浦东新区五莲路959弄",121.598657680497,31.2773239154459,2022-03-29
"浦东新区","上海市浦东新区牟平路154弄",121.5896261169,31.2815848989426,2022-03-29
"浦东新区","上海市浦东新区永宁路33弄",121.6209919809,31.2789818535449,2022-03-29
"浦东新区","上海市浦东新区金葵路945弄",121.602138614349,31.2442502059109,2022-03-29
"浦东新区","上海市浦东新区周秀路516弄",121.613691991004,31.0962398333974,2022-03-29
"浦东新区","上海市浦东新区龚华路479弄",121.693823986563,31.2655189744749,2022-03-29
"浦东新区","上海市浦东新区共新村蔡家宅",121.657952491617,31.2593012761675,2022-03-29
"浦东新区","上海市浦东新区东园三村",121.520245131515,31.2362402771643,2022-03-29
"浦东新区","上海市浦东新区东陆路1018弄",121.599020955246,31.2779119282265,2022-03-29
"浦东新区","上海市浦东新区东陆路1301号",121.605165095442,31.2762351445717,2022-03-29
"浦东新区","上海市浦东新区东陆路1350弄",121.5896261169,31.2815848989426,2022-03-29
"浦东新区","上海市浦东新区博兴路1383弄",121.60541087183,31.2751699716404,2022-03-29
"浦东新区","上海市浦东新区临江村筠西队庞家宅",121.482806722267,31.124007039641,2022-03-29
"浦东新区","上海市浦东新区临江村王家渡队王家宅",121.484029855049,31.1268779245209,2022-03-29
"浦东新区","上海市浦东新区临江村庞家队庞家宅",121.482806722267,31.124007039641,2022-03-29
"浦东新区","上海市浦东新区临江村泰保队泰保堂",121.484921243607,31.1239658475081,2022-03-29
"浦东新区","上海市浦东新区仁义村",121.647293378096,31.0643146974948,2022-03-29
"浦东新区","上海市浦东新区瑞和路900弄",121.609397192361,31.0937200759825,2022-03-29
"浦东新区","上海市浦东新区新川路899弄",121.695450638181,31.1958351541352,2022-03-29
"浦东新区","上海市浦东新区江绣路300弄",121.742084112428,31.177161110323,2022-03-29
"浦东新区","上海市浦东新区民义村",121.705067896971,31.1343239022766,2022-03-29
"浦东新区","上海市浦东新区海霞路685弄",121.751436451124,31.1754684828703,2022-03-29
"浦东新区","上海市浦东新区建港村",121.848000161241,31.0365178049753,2022-03-29
"浦东新区","上海市浦东新区祝潘公路301弄",121.766842749942,31.1140887975279,2022-03-29
"浦东新区","上海市浦东新区沿北村",121.608678997106,31.1451966447131,2022-03-29
"浦东新区","上海市浦东新区御北路235号工地生活区",121.56552717232,31.1648308871202,2022-03-29
"浦东新区","上海市浦东新区张杨路1000弄",121.536220866196,31.2355781298217,2022-03-29
"浦东新区","上海市浦东新区金桥路226弄",121.621784825343,31.2606638156741,2022-03-29
"浦东新区","上海市浦东新区沪一小区",121.590529542751,31.2758395544201,2022-03-29
"浦东新区","上海市浦东新区长岛路85弄",121.584693431514,31.2745390409527,2022-03-29
"浦东新区","上海市浦东新区东波路585弄",121.592860016736,31.2899795307181,2022-03-29
"浦东新区","上海市浦东新区金桥路1490弄",121.595470941701,31.2561680390539,2022-03-29
"浦东新区","上海市浦东新区博山东路440弄",121.575265715187,31.258583187629,2022-03-29
"浦东新区","上海市浦东新区灵山路1840弄",121.578033843616,31.24805447336,2022-03-29
"浦东新区","上海市浦东新区栖山路1855号",121.577797499436,31.2671923237136,2022-03-29
"浦东新区","上海市浦东新区德平路25弄",121.564731825455,31.2600917459727,2022-03-29
"浦东新区","上海市浦东新区银山路72弄",121.584909024837,31.2482473492788,2022-03-29
"浦东新区","上海市浦东新区栖山路1088弄",121.566094375252,31.2601400552451,2022-03-29
"浦东新区","上海市浦东新区博山东路20弄",121.566038859972,31.2533910234004,2022-03-29
"浦东新区","上海市浦东新区新民村唐家宅",121.823750942982,31.0398707928606,2022-03-29
"浦东新区","上海市浦东新区中界村黄家队黄家宅",121.736194182891,31.2607886781219,2022-03-29
"浦东新区","上海市浦东新区中界村苏家队苏家宅",121.577029627886,31.1916104985113,2022-03-29
"浦东新区","上海市浦东新区五星村三联队黄家宅",121.57836549801,31.1799884502015,2022-03-29
"浦东新区","上海市浦东新区勤昌村杨家宅",121.744404964744,31.2099848375333,2022-03-29
"浦东新区","上海市浦东新区乔港路11弄",121.712233142379,31.2021079780652,2022-03-29
"浦东新区","上海市浦东新区药师新村",121.689184148774,31.2090166621391,2022-03-29
"浦东新区","上海市浦东新区新德路502弄",121.700208153992,31.2032186734447,2022-03-29
"浦东新区","上海市浦东新区勤益村东朱家宅",121.522564466511,31.1662048002723,2022-03-29
"浦东新区","上海市浦东新区新星村东新港",121.715591809224,31.259718872637,2022-03-29
"浦东新区","上海市浦东新区华夏东路2079号",121.698158220818,31.2064512848224,2022-03-29
"浦东新区","上海市浦东新区芳华路630弄",121.556559041925,31.2002051033578,2022-03-29
"浦东新区","上海市浦东新区康安路御北路交界口工地生活区",121.563785999583,31.1639392972324,2022-03-29
"浦东新区","上海市浦东新区上南路6620弄",121.584859707864,31.1200779398788,2022-03-29
"浦东新区","上海市浦东新区祝西村",121.757781632093,31.1116433338875,2022-03-29
"浦东新区","上海市浦东新区广益路15弄",121.771265197798,31.11523556736,2022-03-29
"浦东新区","上海市浦东新区秋亭路88弄",121.767663980839,31.1028828439709,2022-03-29
"浦东新区","上海市浦东新区张杨路1589号",121.545631245227,31.2410236854677,2022-03-29
"浦东新区","上海市浦东新区迅建村曹家宅",121.699225138273,31.2840908923215,2022-03-29
"浦东新区","上海市浦东新区民丰村龚家宅",121.644742190448,31.2076757624511,2022-03-29
"浦东新区","上海市浦东新区东窑新村",121.617403699541,31.031492818488,2022-03-29
"浦东新区","上海市浦东新区中界村沈家队沈家宅",121.574173735009,31.1954461740634,2022-03-29
"浦东新区","上海市浦东新区中界村沈家队姚家宅",121.574173735009,31.1954461740634,2022-03-29
"浦东新区","上海市浦东新区长清路977弄",121.498704394199,31.1587757203579,2022-03-29
"浦东新区","上海市浦东新区西营南路68弄",121.525530311983,31.1391594184198,2022-03-29
"浦东新区","上海市浦东新区立新村",121.763918136693,31.1774717113271,2022-03-29
"浦东新区","上海市浦东新区新光村",121.666333322703,31.2663713561625,2022-03-29
"浦东新区","上海市浦东新区卫民村",121.747808195169,31.1040113531087,2022-03-29
"浦东新区","上海市浦东新区博兴路799弄",121.59697731021,31.27188533547,2022-03-29
"浦东新区","上海市浦东新区新虹村东包家宅",121.654887203725,31.2451490146246,2022-03-29
"浦东新区","上海市浦东新区鹤鸣村",121.600562088179,31.0502001326859,2022-03-29
"浦东新区","上海市浦东新区宁阳路12弄",121.523254634634,31.2179487600287,2022-03-29
"浦东新区","上海市浦东新区博华路999弄",121.557113925239,31.1768062904657,2022-03-29
"浦东新区","上海市浦东新区上南路5588号",121.534100685531,31.1291441675857,2022-03-29
"浦东新区","上海市浦东新区浦东大道1608号",121.548146500655,31.2506021168296,2022-03-29
"浦东新区","上海市浦东新区北洋泾路601号",121.557255318526,31.2495756276143,2022-03-29
"浦东新区","上海市浦东新区临沂路81弄",121.525886040965,31.2013416320549,2022-03-29
"浦东新区","上海市浦东新区浦东南路2351弄",121.519461719279,31.2055986658343,2022-03-29
"浦东新区","上海市浦东新区浦三路288弄",121.519581912557,31.1984411322372,2022-03-29
"浦东新区","上海市浦东新区南码头路451弄",121.516514289071,31.2008203193739,2022-03-29
"浦东新区","上海市浦东新区兰陵路23弄",121.523272241422,31.2010150687256,2022-03-29
"浦东新区","上海市浦东新区杨高南路4501弄",121.531939362474,31.1636215646889,2022-03-29
"浦东新区","上海市浦东新区联勤村冯桥队张家宅",121.557447915227,31.1712123975815,2022-03-29
"浦东新区","上海市浦东新区沪南公路3150弄",121.571774899975,31.1279297926786,2022-03-29
"浦东新区","上海市浦东新区上南路6868弄",121.584859707864,31.1200779398788,2022-03-29
"浦东新区","上海市浦东新区博兴路462弄",121.589409086289,31.2720183620453,2022-03-29
"浦东新区","上海市浦东新区张杨北路555弄",121.593490267882,31.2720642731454,2022-03-29
"浦东新区","上海市浦东新区五莲路30弄",121.584500744982,31.2815552719446,2022-03-29
"浦东新区","上海市浦东新区梓康路580弄",121.567316070746,31.1288750806472,2022-03-29
"浦东新区","上海市浦东新区浦东大道3036弄",121.584040992222,31.2856868358072,2022-03-29
"浦东新区","上海市浦东新区莱阳路881弄",121.589560360937,31.2899718931953,2022-03-29
"浦东新区","上海市浦东新区东波路195弄",121.58624157123,31.290794581957,2022-03-29
"浦东新区","上海市浦东新区沪二小区",121.589043475946,31.2748199780859,2022-03-29
"浦东新区","上海市浦东新区金桥路825弄",121.62710396176,31.2593157073368,2022-03-29
"浦东新区","上海市浦东新区长岛路625弄",121.590574547857,31.2669994097199,2022-03-29
"浦东新区","上海市浦东新区五莲路100弄",121.585797359155,31.2816781004793,2022-03-29
"浦东新区","上海市浦东新区莱阳路17号",121.583505152986,31.2780564425446,2022-03-29
"浦东新区","上海市浦东新区叠桥村",121.622828746177,31.1338499732159,2022-03-29
"浦东新区","上海市浦东新区巨峰路915弄",121.612751285474,31.2862648436092,2022-03-29
"浦东新区","上海市浦东新区金星村",121.779087462518,31.1192198982828,2022-03-29
"浦东新区","上海市浦东新区先进村",121.81000857546,31.1038277654838,2022-03-29
"浦东新区","上海市浦东新区新陈路150弄",121.536884264815,31.1897022555378,2022-03-29
"浦东新区","上海市浦东新区春晖路276弄",121.591825168788,31.3464065285783,2022-03-29
"浦东新区","上海市浦东新区南六公路699弄",121.717372796016,31.0890918926154,2022-03-29
"浦东新区","上海市浦东新区光明村季家宅",121.664900525414,31.296640292705,2022-03-29
"浦东新区","上海市浦东新区栖山路1460弄",121.572349456179,31.2616772957301,2022-03-29
"浦东新区","上海市浦东新区德平路24弄",121.56223983614,31.2599824712324,2022-03-29
"浦东新区","上海市浦东新区德平路1189弄",121.576813136258,31.2458715286161,2022-03-29
"浦东新区","上海市浦东新区川周公路8682号",121.716118941185,31.1904397938529,2022-03-29
"浦东新区","上海市浦东新区城丰路288弄",121.691273517559,31.1960282149172,2022-03-29
"浦东新区","上海市浦东新区川沙路5122弄",121.702663851765,31.1965324105794,2022-03-29
"浦东新区","上海市浦东新区吴店村乔家宅",121.724207643319,31.1573400811649,2022-03-29
"浦东新区","上海市浦东新区明星村",121.5712801133,31.2409926562393,2022-03-29
"浦东新区","上海市浦东新区航亭环路399弄",121.768482426989,31.105525647467,2022-03-29
"浦东新区","上海市浦东新区竞新村",121.820231022672,31.097804887739,2022-03-29
"浦东新区","上海市浦东新区五莲路1168号",121.602929392689,31.2784563440545,2022-03-29
"浦东新区","上海市浦东新区小湾村",121.696076936782,31.2397902271145,2022-03-29
"浦东新区","上海市浦东新区诚礼路298弄",121.674967296281,31.2320230023754,2022-03-29
"浦东新区","上海市浦东新区川沙路3639号",121.696646013323,31.2225668869761,2022-03-29
"浦东新区","上海市浦东新区上丰路1483弄",121.677403680485,31.2484487918904,2022-03-29
"浦东新区","上海市浦东新区杨高南路1218弄",121.536872766504,31.2110085182781,2022-03-29
"浦东新区","上海市浦东新区浦建路207弄",121.530780009383,31.2145855992917,2022-03-29
"浦东新区","上海市浦东新区蓝村路55弄",121.53788605512,31.2178762634165,2022-03-29
"浦东新区","上海市浦东新区东方路1800弄",121.528473609986,31.2090892428252,2022-03-29
"浦东新区","上海市浦东新区蓝村路501弄",121.531969234115,31.218845395827,2022-03-29
"浦东新区","上海市浦东新区临沂北路100弄",121.526189847888,31.212369290622,2022-03-29
"浦东新区","上海市浦东新区微山二村",121.519896858468,31.2144186734285,2022-03-29
"浦东新区","上海市浦东新区浦东南路224弄",121.521522300016,31.2375390396869,2022-03-29
"浦东新区","上海市浦东新区浦东南路2178弄",121.520482104508,31.2130211015995,2022-03-29
"浦东新区","上海市浦东新区微山新村",121.521887593309,31.2152305232925,2022-03-29
"浦东新区","上海市浦东新区海鹏路380弄",121.676483635982,31.2939871381692,2022-03-29
"浦东新区","上海市浦东新区曹路民建村北邵家宅",121.654516473041,31.2803786713243,2022-03-29
"浦东新区","上海市浦东新区龚路支路473弄",121.695481180568,31.2694697590493,2022-03-29
"浦东新区","上海市浦东新区新星村王家圈",121.69547650938,31.0052531487426,2022-03-29
"浦东新区","上海市浦东新区南桥路1100弄",121.696571094643,31.1932072484349,2022-03-29
"浦东新区","上海市浦东新区妙境路404弄",121.696681316729,31.198907553432,2022-03-29
"浦东新区","上海市浦东新区界龙村孙家宅",121.692611992769,31.1764367732319,2022-03-29
"浦东新区","上海市浦东新区妙境路172号",121.695685545072,31.2026306541986,2022-03-29
"浦东新区","上海市浦东新区新德西路207弄",121.680140008899,31.1975838841804,2022-03-29
"浦东新区","上海市浦东新区浦东南路1550弄",121.524828106566,31.2264879122391,2022-03-29
"浦东新区","上海市浦东新区板泉路1567弄",121.518789876589,31.1685739139313,2022-03-29
"浦东新区","上海市浦东新区永泰路136弄",121.511141254324,31.1406678921009,2022-03-29
"浦东新区","上海市浦东新区浦东南路1341弄",121.52482891504,31.2301991089681,2022-03-29
"浦东新区","上海市浦东新区川周公路4293弄",121.588499731621,31.126402180415,2022-03-29
"浦东新区","上海市浦东新区沈西村",121.572071969607,31.0966482420378,2022-03-29
"浦东新区","上海市浦东新区关岳路186弄",121.594289041141,31.1258224123299,2022-03-29
"浦东新区","上海市浦东新区金桥路351弄",121.579623035894,31.273050854795,2022-03-29
"浦东新区","上海市浦东新区川周公路4318弄",121.587429400606,31.1268947718151,2022-03-29
"浦东新区","上海市浦东新区韵涛路36弄",121.584859707864,31.1200779398788,2022-03-29
"浦东新区","上海市浦东新区长岛路99号",121.583231618958,31.2736681381861,2022-03-29
"浦东新区","上海市浦东新区瑞安路211弄",121.597322259526,31.0967757195941,2022-03-29
"浦东新区","上海市浦东新区坦西村",121.653310677555,31.0918883120652,2022-03-29
"浦东新区","上海市浦东新区浦电路307号",121.532363272844,31.2256313069229,2022-03-29
"浦东新区","上海市浦东新区福山路307号",121.535684847298,31.2356087748884,2022-03-29
"浦东新区","上海市浦东新区严楼村",121.754048813377,31.0228818454831,2022-03-29
"浦东新区","上海市浦东新区浦东大道2746弄",121.579756524092,31.2744655851279,2022-03-29
"浦东新区","上海市浦东新区云桥路796号",121.622620159637,31.2547226243935,2022-03-29
"浦东新区","上海市浦东新区长岛路1398弄",121.605978421251,31.2697987842173,2022-03-29
"浦东新区","上海市浦东新区凌河路38弄",121.600753606913,31.2825696826637,2022-03-29
"浦东新区","上海市浦东新区台儿庄路663弄",121.600337960954,31.264978881782,2022-03-29
"浦东新区","上海市浦东新区潍坊路252弄",121.538746182645,31.2332814194643,2022-03-29
"浦东新区","上海市浦东新区银山路370弄",121.590757442859,31.2520815535262,2022-03-29
"浦东新区","上海市浦东新区栖山路1861弄",121.577100953344,31.2677848758461,2022-03-29
"浦东新区","上海市浦东新区南桥路459弄",121.707911842385,31.195454514332,2022-03-29
"浦东新区","上海市浦东新区川周路8828弄",121.716261861592,31.1932060900366,2022-03-29
"浦东新区","上海市浦东新区庆星村三队储家宅",121.738002741375,31.2464622863618,2022-03-29
"浦东新区","上海市浦东新区和龙路371弄",121.577359306009,31.3503693082344,2022-03-29
"浦东新区","上海市浦东新区周埠村",121.775602665953,31.0028768242165,2022-03-29
"浦东新区","上海市浦东新区龙阳路1880弄",121.559292495761,31.2066989150554,2022-03-29
"浦东新区","上海市浦东新区灵岩南路1333号",121.508521705626,31.1438866661145,2022-03-29
"浦东新区","上海市浦东新区锦和路99弄",121.538124016249,31.212289840715,2022-03-29
"浦东新区","上海市浦东新区华夏二路1500弄",121.697079984715,31.1781718849987,2022-03-29
"浦东新区","上海市浦东新区华夏一路55弄",121.692995748883,31.2030549704929,2022-03-29
"浦东新区","上海市浦东新区牌楼村",121.565577580092,31.0591482746553,2022-03-29
"浦东新区","上海市浦东新区新春村南王家宅",121.484029855049,31.1268779245209,2022-03-29
"浦东新区","上海市浦东新区潍坊路375弄",121.541472090715,31.2347481618797,2022-03-29
"浦东新区","上海市浦东新区潍坊路270号",121.540241052845,31.2341057653425,2022-03-29
"浦东新区","上海市浦东新区潍坊路268号",121.54011960194,31.2340224742404,2022-03-29
"浦东新区","上海市浦东新区浦红西路74号",121.764824257461,31.092927042703,2022-03-29
"浦东新区","上海市浦东新区周市路148号",121.591025676885,31.1183045782953,2022-03-29
"浦东新区","上海市浦东新区周市路1321号",121.589701664393,31.1193185943326,2022-03-29
"浦东新区","上海市浦东新区周秀路336弄",121.613561107891,31.1004840889994,2022-03-29
"浦东新区","上海市浦东新区瑞阳路331号",121.59612625557,31.1020756644584,2022-03-29
"浦东新区","上海市浦东新区周星路500弄",121.585699803177,31.1080593111742,2022-03-29
"浦东新区","上海市浦东新区其成村",121.692090616251,31.1200929335103,2022-03-29
"浦东新区","上海市浦东新区福山路100弄",121.533774690462,31.2384178890954,2022-03-29
"浦东新区","上海市浦东新区浦明路233弄",121.517192869053,31.2325821208295,2022-03-29
"浦东新区","上海市浦东新区莲园路8弄",121.550454606832,31.2273482924363,2022-03-29
"浦东新区","上海市浦东新区幸福村",121.780862693867,31.0321276286587,2022-03-29
"浦东新区","上海市浦东新区赵桥村",121.653830886276,31.2972341236684,2022-03-29
"浦东新区","上海市浦东新区御青路311号",121.57879587618,31.1636989700904,2022-03-29
"浦东新区","上海市浦东新区太平村",121.766819034676,31.2249907005986,2022-03-29
"浦东新区","上海市浦东新区一六村北赵家宅",121.595116111024,31.1779888285149,2022-03-29
"浦东新区","上海市浦东新区兰谷路2777弄",121.602138973671,31.3162774463674,2022-03-29
"浦东新区","上海市浦东新区东靖路669弄",121.5896261169,31.2815848989426,2022-03-29
"浦东新区","上海市浦东新区新跃路64弄",121.638472826463,31.3261796098475,2022-03-29
"浦东新区","上海市浦东新区四灶村姚家宅",121.658264293459,31.1968055508244,2022-03-29
"浦东新区","上海市浦东新区孙桥曹家宅",121.657988244176,31.1753357824389,2022-03-29
"浦东新区","上海市浦东新区环东中心村",121.665447234148,31.1907304827522,2022-03-29
"浦东新区","上海市浦东新区长元村曹家宅",121.657988244176,31.1753357824389,2022-03-29
"浦东新区","上海市浦东新区周祝公路35号",121.592406013131,31.1057941828793,2022-03-29
"浦东新区","上海市浦东新区康沈路1620弄",121.580895575479,31.1234400086369,2022-03-29
"浦东新区","上海市浦东新区康沈路1646弄",121.583436702106,31.1218754582956,2022-03-29
"浦东新区","上海市浦东新区一六村王家队西王家宅",121.793150255615,31.1433441716895,2022-03-29
"浦东新区","上海市浦东新区严桥路141弄",121.535761203266,31.196409470181,2022-03-29
"浦东新区","上海市浦东新区康桥路90弄",121.584859707864,31.1200779398788,2022-03-29
"浦东新区","上海市浦东新区莲安东路243弄",121.566974984144,31.1875098403565,2022-03-29
"浦东新区","上海市浦东新区龚丰路576号",121.69971210969,31.264329593478,2022-03-29
"浦东新区","上海市浦东新区国展路1776号工地生活区",121.496566767973,31.1889226474886,2022-03-29
"浦东新区","上海市浦东新区崮山路717号",121.566756426413,31.2457458744099,2022-03-29
"浦东新区","上海市浦东新区龙梢宅",121.65845033253,31.3075214254193,2022-03-29
"浦东新区","上海市浦东新区张杨北路5848弄",121.579901600432,31.3546347418898,2022-03-29
"浦东新区","上海市浦东新区五莲路759弄",121.597702871571,31.2763872229612,2022-03-29
"浦东新区","上海市浦东新区成山路24弄",121.492308997952,31.1741468770644,2022-03-29
"浦东新区","上海市浦东新区北油车弄",121.584118785479,31.1220968030992,2022-03-29
"浦东新区","上海市浦东新区关岳西路141弄",121.5843699517,31.1245777768104,2022-03-29
"浦东新区","上海市浦东新区樱花路802弄",121.567473903024,31.2138070211684,2022-03-29
"浦东新区","上海市浦东新区德州路220弄",121.536884264815,31.1897022555378,2022-03-29
"浦东新区","上海市浦东新区永安新村",121.557080148951,31.2549395653573,2022-03-29
"浦东新区","上海市浦东新区城丰路15弄",121.697081871156,31.197356076198,2022-03-29
"浦东新区","上海市浦东新区川周公路8288弄",121.711194969363,31.1835088671054,2022-03-29
"浦东新区","上海市浦东新区崮山路17号",121.556658753837,31.254049880395,2022-03-29
"浦东新区","上海市浦东新区耀华路579弄",121.48605966618,31.17881049444,2022-03-29
"浦东新区","上海市浦东新区车站新村",121.649738565695,31.0323989263156,2022-03-29
"浦东新区","上海市浦东新区红桥村",121.639952155977,31.1081102496522,2022-03-29
"浦东新区","上海市浦东新区绿科路与环业西路交界工地生活区",121.582003365834,31.1829804268229,2022-03-29
"浦东新区","上海市浦东新区五星路88弄",121.536884264815,31.1897022555378,2022-03-29
"浦东新区","上海市浦东新区小南码头路4弄",121.550454606832,31.2273482924363,2022-03-29
"浦东新区","上海市浦东新区卫行村朱家队朱家宅",121.587201410668,31.1666652020159,2022-03-29
"浦东新区","上海市浦东新区沪南路1168弄",121.536884264815,31.1897022555378,2022-03-29
"浦东新区","上海市浦东新区成山路2388弄",121.552373028079,31.1856598246513,2022-03-29
"浦东新区","上海市浦东新区莲溪路430弄",121.566663990776,31.188726533627,2022-03-29
"浦东新区","上海市浦东新区永泰路1129弄",121.529723871595,31.1487997256063,2022-03-29
"浦东新区","上海市浦东新区秀康路958弄",121.584859707864,31.1200779398788,2022-03-29
"浦东新区","上海市浦东新区东康名苑",121.63093855849,31.1483921616878,2022-03-29
"浦东新区","上海市浦东新区严杨路166弄",121.536194994997,31.2003668807737,2022-03-29
"浦东新区","上海市浦东新区广厦路149号",121.700770403411,31.2033563535831,2022-03-29
"浦东新区","上海市浦东新区合庆镇金家宅",121.593249522005,31.1310947543661,2022-03-29
"浦东新区","上海市浦东新区向东村顾家宅",121.750008504685,31.2419070879143,2022-03-29
"浦东新区","上海市浦东新区新德路558弄",121.698400942967,31.2030046240558,2022-03-29
"浦东新区","上海市浦东新区浦东大道2250弄",121.559305700852,31.2578700326592,2022-03-29
"浦东新区","上海市浦东新区界龙村朱高家宅",121.690718993568,31.1810167067442,2022-03-29
"浦东新区","上海市浦东新区长丰村陆家宅",121.666225615872,31.197467509121,2022-03-29
"浦东新区","上海市浦东新区永宁东路531弄",121.7535454928,30.9733617426988,2022-03-29
"浦东新区","上海市浦东新区大众村",121.609519721232,31.2066820820887,2022-03-29
"浦东新区","上海市浦东新区创新西路75弄",121.663731470623,31.2097267922427,2022-03-29
"浦东新区","上海市浦东新区花山路609弄",121.581581431736,31.3543420185159,2022-03-29
"浦东新区","上海市浦东新区施镇路385弄",121.763791295955,31.1503483750958,2022-03-29
"浦东新区","上海市浦东新区星火村",121.708317606984,31.2618230698832,2022-03-29
"浦东新区","上海市浦东新区杨张村",121.701698173342,31.2771696010206,2022-03-29
"浦东新区","上海市浦东新区秦家港路北万家宅",121.677943651927,31.2700107517407,2022-03-29
"浦东新区","上海市浦东新区浙桥路277号",121.60792001878,31.2583458814987,2022-03-29
"浦东新区","上海市浦东新区靖海路567弄",121.776150632314,31.039011555634,2022-03-29
"浦东新区","上海市浦东新区新川路640弄",121.70007250986,31.1994028531321,2022-03-29
"浦东新区","上海市浦东新区川沙路5015弄",121.652778790863,31.290487771739,2022-03-29
"浦东新区","上海市浦东新区御山路360弄",121.574682445419,31.1620356669102,2022-03-29
"浦东新区","上海市浦东新区会龙村",121.720019383709,31.1007360187369,2022-03-29
"浦东新区","上海市浦东新区浦东南路1862弄",121.524135153695,31.2217476120428,2022-03-29
"浦东新区","上海市浦东新区东陆路898弄",121.598981609464,31.2808977661992,2022-03-29
"浦东新区","上海市浦东新区五莲路1047弄",121.601390415689,31.2777458097831,2022-03-29
"浦东新区","上海市浦东新区凌河路618弄",121.608152859568,31.276965751274,2022-03-29
"浦东新区","上海市浦东新区妙栏路353弄",121.696058341858,31.1925650301754,2022-03-29
"浦东新区","上海市浦东新区黄楼村华家宅",121.670267451684,31.1681474330854,2022-03-29
"浦东新区","上海市浦东新区妙栏路265弄",121.694842215859,31.1919764806927,2022-03-29
"浦东新区","上海市浦东新区妙栏路401弄",121.698191637783,31.1930252252603,2022-03-29
"浦东新区","上海市浦东新区浦东大道2970弄",121.585274365688,31.2829352319847,2022-03-29
"浦东新区","上海市浦东新区莱阳路201弄",121.586405332325,31.2794549715842,2022-03-29
"浦东新区","上海市浦东新区莱阳路350弄",121.588321507808,31.2804560573812,2022-03-29
"浦东新区","上海市浦东新区莱阳路451弄",121.58929185742,31.2821589973274,2022-03-29
"浦东新区","上海市浦东新区博兴路465弄",121.58987225261,31.2720666651517,2022-03-29
"浦东新区","上海市浦东新区博兴路616弄",121.590505647825,31.2688501329907,2022-03-29
"浦东新区","上海市浦东新区柳埠路135弄",121.588934241996,31.2688910299805,2022-03-29
"浦东新区","上海市浦东新区王桥路463号",121.697289200068,31.2149346602297,2022-03-29
"浦东新区","上海市浦东新区浦东南路1475弄",121.525751744291,31.2285494147365,2022-03-29
"浦东新区","上海市浦东新区张杨路1338号",121.539192460823,31.238133832139,2022-03-29
"浦东新区","上海市浦东新区浦东南路1399号",121.524451177574,31.2300668720329,2022-03-29
"浦东新区","上海市浦东新区源深路600弄",121.540367174938,31.2377605429358,2022-03-29
"浦东新区","上海市浦东新区罗山路1505号",121.576859219331,31.2342945788175,2022-03-29
"浦东新区","上海市浦东新区张杨北路2899弄",121.594111985125,31.3105698711783,2022-03-29
"浦东新区","上海市浦东新区申江路881弄",121.631724845303,31.2943468570541,2022-03-29
"浦东新区","上海市浦东新区草高支路938弄",121.573303456631,31.3572240354905,2022-03-29
"浦东新区","上海市浦东新区德平路778号",121.572492466417,31.2502713261222,2022-03-29
"浦东新区","上海市浦东新区龙居路179号",121.56974095664,31.2581880629419,2022-03-29
"浦东新区","上海市浦东新区张杨路2078号",121.559645709488,31.2454078112724,2022-03-29
"浦东新区","上海市浦东新区崮山路968号",121.568139277915,31.2414287626101,2022-03-29
"浦东新区","上海市浦东新区桃林路189号",121.541948551958,31.2465369991215,2022-03-29
"浦东新区","上海市浦东新区浦东大道1139弄",121.540268720654,31.2490393018117,2022-03-29
"浦东新区","上海市浦东新区崮山路73号",121.557155606614,31.2536557398412,2022-03-29
"浦东新区","上海市浦东新区崮山路322弄",121.559286117792,31.251792753022,2022-03-29
"浦东新区","上海市浦东新区金浜村",121.568140715204,31.2632658281684,2022-03-29
"浦东新区","上海市浦东新区大陆家宅",121.553185994566,31.2448978584695,2022-03-29
"浦东新区","上海市浦东新区海防新村",121.559707692568,31.2555646087411,2022-03-29
"浦东新区","上海市浦东新区张杨路1811弄",121.555910555177,31.2450059930861,2022-03-29
"浦东新区","上海市浦东新区灵山路1396弄",121.569409481906,31.2434437791988,2022-03-29
"浦东新区","上海市浦东新区巨野路236号",121.551835841384,31.2469460658594,2022-03-29
"浦东新区","上海市浦东新区崮山路157弄",121.562976446658,31.2499913956942,2022-03-29
"浦东新区","上海市浦东新区崮山路311号",121.560707955753,31.2517083199962,2022-03-29
"浦东新区","上海市浦东新区齐爱路168弄",121.636263803384,31.1944164540822,2022-03-29
"浦东新区","上海市浦东新区南曹路901弄",121.670398694119,31.2084526156349,2022-03-29
"浦东新区","上海市浦东新区沙北村",121.597990958148,31.0571772474828,2022-03-29
"浦东新区","上海市浦东新区下沙新街",121.602496499264,31.056382823552,2022-03-29
"浦东新区","上海市浦东新区华夏东路2026弄",121.697008479596,31.2054389822991,2022-03-29
"浦东新区","上海市浦东新区翔川路458弄",121.701523183428,31.1890314381616,2022-03-29
"浦东新区","上海市浦东新区妙川路1000弄",121.710073524764,31.1843022942824,2022-03-29
"浦东新区","上海市浦东新区八灶村郭家宅",121.724141797525,31.1621241979325,2022-03-29
"浦东新区","上海市浦东新区妙川路1111弄",121.720690956908,31.1884085761446,2022-03-29
"浦东新区","上海市浦东新区城南路627弄",121.70162621907,31.1955905841654,2022-03-29
"浦东新区","上海市浦东新区南桥路237弄",121.71515946107,31.1975804091475,2022-03-29
"浦东新区","上海市浦东新区高桥村唐家宅",121.826345788278,30.9222774790088,2022-03-29
"浦东新区","上海市浦东新区妙川路800弄",121.710073524764,31.1843022942824,2022-03-29
"浦东新区","上海市浦东新区华路村周家宅",121.742779301263,31.2001365312709,2022-03-29
"浦东新区","上海市浦东新区西泥路108弄",121.709065446321,31.2029154366661,2022-03-29
"浦东新区","上海市浦东新区灵山路1671弄",121.572311008704,31.2457713448707,2022-03-29
"浦东新区","上海市浦东新区张杨北路588弄",121.595215283953,31.275260170384,2022-03-29
"浦东新区","上海市浦东新区施湾二路863弄",121.755672590417,31.1488496375779,2022-03-29
"浦东新区","上海市浦东新区罗山路1700弄",121.575072579502,31.2314363219569,2022-03-29
"浦东新区","上海市浦东新区德平路1134弄",121.576286010585,31.2456409051647,2022-03-29
"浦东新区","上海市浦东新区长岛路800弄",121.593834768045,31.2653075369301,2022-03-29
"浦东新区","上海市浦东新区新华村",121.668067411659,31.2709454247852,2022-03-29
"浦东新区","上海市浦东新区新虹村瞿家宅",121.655033627523,31.2487133679639,2022-03-29
"浦东新区","上海市浦东新区寿光路78弄",121.592102026547,31.2793908554345,2022-03-29
"浦东新区","上海市浦东新区寿光路161弄",121.590525320716,31.2803961854226,2022-03-29
"浦东新区","上海市浦东新区张杨路1647弄",121.547319969755,31.2416676554149,2022-03-29
"浦东新区","上海市浦东新区羽山路383弄",121.550383281374,31.2391094252368,2022-03-29
"浦东新区","上海市浦东新区浦东大道2742弄",121.577979316472,31.2729270889842,2022-03-29
"浦东新区","上海市浦东新区浦建路1086弄",121.544957426264,31.2129164044776,2022-03-29
"浦东新区","上海市浦东新区英雄村",121.759684602486,31.0341203756928,2022-03-29
"浦东新区","上海市浦东新区宣黄公路2585弄",121.749202455151,31.0302154492687,2022-03-29
"浦东新区","上海市浦东新区芳华路673弄",121.569504971782,31.2036790478537,2022-03-29
"浦东新区","上海市浦东新区上南路6733弄",121.584859707864,31.1200779398788,2022-03-29
"浦东新区","上海市浦东新区南码头路560号",121.517500179368,31.1970402330281,2022-03-29
"浦东新区","上海市浦东新区东三里桥路160弄",121.516139875334,31.2060282193702,2022-03-29
"浦东新区","上海市浦东新区浦三路775弄",121.526729010855,31.1896008532192,2022-03-29
"浦东新区","上海市浦东新区港机新村",121.514738428908,31.1968109564757,2022-03-29
"浦东新区","上海市浦东新区东方路1881弄",121.532356805045,31.2009488138369,2022-03-29
"浦东新区","上海市浦东新区浦三路817弄",121.525675029,31.1889618539061,2022-03-29
"浦东新区","上海市浦东新区临沂路280弄",121.516029653248,31.198943924921,2022-03-29
"浦东新区","上海市浦东新区临沂路381弄",121.517873964291,31.1966848502715,2022-03-29
"浦东新区","上海市浦东新区临沂路301弄",121.516514468732,31.1967603750118,2022-03-29
"浦东新区","上海市浦东新区临沂路450弄",121.51958083459,31.2007508983136,2022-03-29
"浦东新区","上海市浦东新区华丰路50弄",121.514504959306,31.1974954638598,2022-03-29
"浦东新区","上海市浦东新区劳动村吴家宅",121.639015941975,31.18527126574,2022-03-29
"浦东新区","上海市浦东新区下南路526弄",121.544402003967,31.1780418917603,2022-03-29
"浦东新区","上海市浦东新区下南路500弄",121.543720818899,31.1779675877605,2022-03-29
"浦东新区","上海市浦东新区成山路1850弄",121.538943001383,31.1830338734177,2022-03-29
"浦东新区","上海市浦东新区中界村庄家队蔡家宅",121.578579474383,31.194413133383,2022-03-29
"浦东新区","上海市浦东新区华夏西路5778号",121.586719020609,31.1726628869663,2022-03-29
"浦东新区","上海市浦东新区南阜村九思队九思堂",121.522537697007,31.1341302508085,2022-03-29
"浦东新区","上海市浦东新区芳华路371弄",121.564425503276,31.2030206854988,2022-03-29
"浦东新区","上海市浦东新区新浦路350弄",121.54104081424,31.1778039179317,2022-03-29
"浦东新区","上海市浦东新区中界村陈家队陈家宅",121.578579474383,31.194413133383,2022-03-29
"浦东新区","上海市浦东新区芳华路933弄",121.536884264815,31.1897022555378,2022-03-29
"浦东新区","上海市浦东新区上南路3339弄",121.513109172205,31.1658360910049,2022-03-29
"浦东新区","上海市浦东新区钱堂村长浜宅",121.614687762662,31.1631872589463,2022-03-29
"浦东新区","上海市浦东新区新苗村",121.643903173102,31.1277161896651,2022-03-29
"浦东新区","上海市浦东新区胡巷村马家宅",121.52500489309,31.1587157705195,2022-03-29
"浦东新区","上海市浦东新区康弘路515弄",121.606533484226,31.127466032407,2022-03-29
"浦东新区","上海市浦东新区锦安东路280弄",121.550337467793,31.2080117999238,2022-03-29
"浦东新区","上海市浦东新区新浦路543弄",121.536926664835,31.1758010055361,2022-03-29
"浦东新区","上海市浦东新区佳乐路255弄",121.62239890699,31.2744935168664,2022-03-29
"浦东新区","上海市浦东新区永业路188弄",121.62271349358,31.2730736171925,2022-03-29
"浦东新区","上海市浦东新区妙境路168号",121.695656709465,31.2027704201057,2022-03-29
"浦东新区","上海市浦东新区妙栏路392弄",121.697375617058,31.1919231936524,2022-03-29
"浦东新区","上海市浦东新区界龙大道266号",121.691120805623,31.1826906407087,2022-03-29
"浦东新区","上海市浦东新区红旗村姜胡宅队江湖宅",121.500206271181,31.126931789483,2022-03-29
"浦东新区","上海市浦东新区川北公路2820号",121.618340093204,31.209876971291,2022-03-29
"浦东新区","上海市浦东新区联勤村麦家队麦家宅",121.553913442368,31.1692634940545,2022-03-29
"浦东新区","上海市浦东新区北蔡镇杨莲路张家宅",121.529586520682,31.1678359718402,2022-03-29
"浦东新区","上海市浦东新区北蔡麦家宅",121.553913442368,31.1692634940545,2022-03-29
"浦东新区","上海市浦东新区少年路40弄",121.763701106082,31.0518685092144,2022-03-29
"浦东新区","上海市浦东新区项埭村",121.714480072613,31.0537049190031,2022-03-29
"浦东新区","上海市浦东新区城南路1111弄",121.639786957594,30.9092454033942,2022-03-29
"浦东新区","上海市浦东新区花木路500弄",121.549098435004,31.2178118734071,2022-03-29
"浦东新区","上海市浦东新区东三街102弄",121.517106182571,31.207639780426,2022-03-29
"浦东新区","上海市浦东新区北艾路1077弄",121.540540368241,31.1863061063091,2022-03-29
"浦东新区","上海市浦东新区御青路918弄",121.581132278981,31.1587678403555,2022-03-29
"浦东新区","上海市浦东新区沪南路7311弄",121.536884264815,31.1897022555378,2022-03-29
"浦东新区","上海市浦东新区众安村",121.656744719859,31.0039427689734,2022-03-29
"浦东新区","上海市浦东新区东海村",121.677869901045,31.3070549287637,2022-03-29
"浦东新区","上海市浦东新区民秋路567号",121.670405880563,31.2922907398401,2022-03-29
"浦东新区","上海市浦东新区绿林路401号",121.555601717743,31.1752837990407,2022-03-29
"浦东新区","上海市浦东新区北艾路1765弄",121.528398601476,31.1842654537065,2022-03-29
"浦东新区","上海市浦东新区赵家厍",121.543435157746,31.1767913831306,2022-03-29
"浦东新区","上海市浦东新区莲园路180弄",121.557978544292,31.1911440409899,2022-03-29
"浦东新区","上海市浦东新区北蔡周家宅",121.61609774299,31.1723555346345,2022-03-29
"浦东新区","上海市浦东新区北蔡镇北中路周家宅",121.567637214966,31.1905232781907,2022-03-29
"浦东新区","上海市浦东新区联勤村冯桥队冯家宅",121.557447915227,31.1712123975815,2022-03-29
"浦东新区","上海市浦东新区北艾路73弄",121.550455145815,31.1911861303814,2022-03-29
"浦东新区","上海市浦东新区沪南公路9439弄",121.727542738304,31.0450020910533,2022-03-29
"浦东新区","上海市浦东新区南芦公路29弄",121.722882013878,31.0387012907894,2022-03-29
"浦东新区","上海市浦东新区金建村",121.671689020153,31.036790946525,2022-03-29
"浦东新区","上海市浦东新区南芦公路48弄",121.721202541896,31.0357726373861,2022-03-29
"浦东新区","上海市浦东新区五星村吴家队吴家宅",121.522180979889,31.1256048631317,2022-03-29
"浦东新区","上海市浦东新区康桥路1118弄",121.584859707864,31.1200779398788,2022-03-29
"浦东新区","上海市浦东新区御衡路68弄",121.588337407815,31.159592610344,2022-03-29
"浦东新区","上海市浦东新区康花路599号",121.555485656671,31.1537075061146,2022-03-29
"浦东新区","上海市浦东新区秀沿路883弄",121.584859707864,31.1200779398788,2022-03-29
"浦东新区","上海市浦东新区康沈路3001弄",121.590003944198,31.0953454718071,2022-03-29
"浦东新区","上海市浦东新区康沈路400弄",121.584859707864,31.1200779398788,2022-03-29
"浦东新区","上海市浦东新区康弘路580弄",121.606076785704,31.132845541712,2022-03-29
"浦东新区","上海市浦东新区秀浦路788弄",121.580855331392,31.1330577420922,2022-03-29
"浦东新区","上海市浦东新区浦三路4677弄",121.536884264815,31.1897022555378,2022-03-29
"浦东新区","上海市浦东新区张桥村李家宅",121.550454606832,31.2273482924363,2022-03-29
"浦东新区","上海市浦东新区五莲路758弄",121.597115379767,31.2759334561154,2022-03-29
"浦东新区","上海市浦东新区浦电路331弄",121.535182335196,31.225922581402,2022-03-29
"浦东新区","上海市浦东新区莱阳路301弄",121.585947196514,31.2803576852639,2022-03-29
"浦东新区","上海市浦东新区博兴路250弄",121.586387276384,31.274900995229,2022-03-29
"浦东新区","上海市浦东新区庆丰村",121.723719504105,31.2470521913717,2022-03-29
"浦东新区","上海市浦东新区海塘村",121.765364678056,31.2184347715439,2022-03-29
"浦东新区","上海市浦东新区益民村",121.712265030886,31.2238739908515,2022-03-29
"浦东新区","上海市浦东新区城南路267弄",121.712705380247,31.1987416035081,2022-03-29
"浦东新区","上海市浦东新区潍坊西路100弄",121.522905283621,31.2282278869475,2022-03-29
"浦东新区","上海市浦东新区康沈路2262弄",121.58731262089,31.1071241716612,2022-03-29
"浦东新区","上海市浦东新区繁荣东路150弄",121.59321448809,31.1120169709024,2022-03-29
"浦东新区","上海市浦东新区周东南路599弄",121.598845965332,31.1044148581235,2022-03-29
"浦东新区","上海市浦东新区周邓公路6600弄",121.609428902545,31.1210675917091,2022-03-29
"浦东新区","上海市浦东新区芳华路916弄",121.574598004701,31.2028538934567,2022-03-29
"浦东新区","上海市浦东新区芳华路310弄",121.564018211558,31.2013345278281,2022-03-29
"浦东新区","上海市浦东新区芳华路478弄",121.536884264815,31.1897022555378,2022-03-29
"浦东新区","上海市浦东新区川周公路3078号",121.616713351756,31.145535533216,2022-03-29
"浦东新区","上海市浦东新区秀沿路2875弄",121.616066481959,31.1449302308223,2022-03-29
"浦东新区","上海市浦东新区板泉路2101弄",121.539604693221,31.1688158507634,2022-03-29
"浦东新区","上海市浦东新区五星村秦家宅",121.578783479564,31.1800637566857,2022-03-29
"浦东新区","上海市浦东新区银峰路549弄",121.695687880666,31.2724371167393,2022-03-29
"浦东新区","上海市浦东新区民同路290弄",121.658550044442,31.2756468897586,2022-03-29
"浦东新区","上海市浦东新区浦东大道844号",121.534724379047,31.2465356098352,2022-03-29
"浦东新区","上海市浦东新区栖山路1700弄",121.575841349358,31.2653833149665,2022-03-29
"浦东新区","上海市浦东新区清溪路400弄",121.577475636572,31.3476508374997,2022-03-29
"浦东新区","上海市浦东新区瑞和路1120弄",121.613519067193,31.0945959764847,2022-03-29
"浦东新区","上海市浦东新区德州路26号",121.511639903712,31.1747981815638,2022-03-29
"浦东新区","上海市浦东新区建设路60弄",121.651206037576,31.0792898137064,2022-03-29
"浦东新区","上海市浦东新区新四平公路468弄",121.74673400144,30.8984261525985,2022-03-29
"浦东新区","上海市浦东新区严中路173弄",121.537969956854,31.1988218371283,2022-03-29
"浦东新区","上海市浦东新区川黄路248弄",121.71167062213,31.1963628269224,2022-03-29
"浦东新区","上海市浦东新区康沈路1938弄",121.582681317002,31.1147577547379,2022-03-29
"浦东新区","上海市浦东新区新德西路99弄",121.684706275468,31.1976592537502,2022-03-29
"浦东新区","上海市浦东新区上南路4185弄",121.51939174128,31.1519459822317,2022-03-29
"浦东新区","上海市浦东新区上浦路510弄",121.506222941826,31.1521017393601,2022-03-29
"浦东新区","上海市浦东新区苗桥路928弄",121.602516621307,31.104273708865,2022-03-29
"浦东新区","上海市浦东新区严杨路165弄",121.535772517227,31.2010332805955,2022-03-29
"浦东新区","上海市浦东新区川环南路1049弄",121.700530016856,31.1900890970386,2022-03-29
"浦东新区","上海市浦东新区进贤路250弄",121.698388097198,31.2003559926605,2022-03-29
"浦东新区","上海市浦东新区张东路2281弄",121.643330323678,31.2079843888241,2022-03-29
"浦东新区","上海市浦东新区沪南路4851弄",121.536884264815,31.1897022555378,2022-03-29
"浦东新区","上海市浦东新区张家浜路37弄",121.523543619517,31.2208863311147,2022-03-29
"浦东新区","上海市浦东新区杨高中路10弄",121.606373585845,31.2634200112248,2022-03-29
"浦东新区","上海市浦东新区南桥路1060弄",121.697408764531,31.193551137668,2022-03-29
"浦东新区","上海市浦东新区永利村顾孙家宅",121.707798027077,31.2650331304104,2022-03-29
"浦东新区","上海市浦东新区五四村",121.658063073025,31.2593514379764,2022-03-29
"浦东新区","上海市浦东新区民区路265弄",121.661028132183,31.2814075715132,2022-03-29
"浦东新区","上海市浦东新区金桥路277号",121.57826273186,31.272412193673,2022-03-29
"浦东新区","上海市浦东新区永业路225弄",121.621783208393,31.2730764721369,2022-03-29
"浦东新区","上海市浦东新区北市街308弄",121.708943186941,31.2055726439228,2022-03-29
"浦东新区","上海市浦东新区北蔡大街",121.559769406157,31.1936595632951,2022-03-29
"浦东新区","上海市浦东新区御水路150弄",121.578864955874,31.1674418544666,2022-03-29
"浦东新区","上海市浦东新区博兴路1768弄",121.5896261169,31.2815848989426,2022-03-29
"浦东新区","上海市浦东新区浦电路53弄",121.522901151416,31.2221458244072,2022-03-29
"浦东新区","上海市浦东新区浦电路56号",121.52421097068,31.2234516217356,2022-03-29
"浦东新区","上海市浦东新区潍坊路333弄",121.526092202079,31.2293004653799,2022-03-29
"浦东新区","上海市浦东新区新川路709弄",121.698909833039,31.1971445617822,2022-03-29
"浦东新区","上海市浦东新区七灶村刘家宅",121.72086397055,31.1440249742615,2022-03-29
"浦东新区","上海市浦东新区鹿溪村",121.702793387419,31.1246797904009,2022-03-29
"浦东新区","上海市浦东新区灵山路600弄",121.550404750876,31.2341249863555,2022-03-29
"浦东新区","上海市浦东新区灵山路1000弄",121.564219970975,31.2410768673801,2022-03-29
"浦东新区","上海市浦东新区下南路161弄",121.549904215046,31.1727314791562,2022-03-29
"浦东新区","上海市浦东新区芳华路580弄",121.56905797496,31.2025178374774,2022-03-29
"浦东新区","上海市浦东新区樱花路801弄",121.567035979088,31.214397826977,2022-03-29
"浦东新区","上海市浦东新区罗山路1502弄",121.575171482939,31.2348882658017,2022-03-29
"浦东新区","上海市浦东新区花木路830弄",121.558697458192,31.2168256352828,2022-03-29
"浦东新区","上海市浦东新区卫行村沈家队唐家宅",121.580202532778,31.1778606115244,2022-03-29
"浦东新区","上海市浦东新区卫行村张家队张家宅",121.584959240115,31.1722250698694,2022-03-29
"浦东新区","上海市浦东新区牡丹路258弄",121.55563055335,31.2139727127711,2022-03-29
"浦东新区","上海市浦东新区下南路225弄",121.552785889291,31.1753995837175,2022-03-29
"浦东新区","上海市浦东新区下南路309弄",121.529696185109,31.2072012517119,2022-03-29
"浦东新区","上海市浦东新区成山路1728弄",121.535534201464,31.1818249843163,2022-03-29
"浦东新区","上海市浦东新区金桥路715号",121.584339229652,31.2668237804736,2022-03-29
"浦东新区","上海市浦东新区莲中路337弄",121.564751767837,31.1877701093195,2022-03-29
"浦东新区","上海市浦东新区北艾路155弄",121.5498820269,31.1925399313686,2022-03-29
"浦东新区","上海市浦东新区三林村金家队金家宅",121.506713326804,31.1407565978205,2022-03-29
"浦东新区","上海市浦东新区板泉路1201弄",121.511623824044,31.1693772777636,2022-03-29
"浦东新区","上海市浦东新区益江路396弄",121.633194383287,31.2048023302945,2022-03-29
"浦东新区","上海市浦东新区孙桥路465号",121.637684293887,31.1822782037029,2022-03-29
"浦东新区","上海市浦东新区同治村",121.803541224941,31.0056043806681,2022-03-29
"浦东新区","上海市浦东新区林艺村",121.769832939493,30.9885175496135,2022-03-29
"浦东新区","上海市浦东新区永春东路15号",121.753048101039,30.9764979199389,2022-03-29
"浦东新区","上海市浦东新区瑞安路80弄",121.592960267631,31.0952153638675,2022-03-29
"浦东新区","上海市浦东新区窑港路188号",121.672267978054,31.1119448561371,2022-03-29
"浦东新区","上海市浦东新区康沈路1527弄",121.582648798343,31.1249531399078,2022-03-29
"浦东新区","上海市浦东新区沈梅东路239号",121.59509580932,31.0992508681229,2022-03-29
"浦东新区","上海市浦东新区崂山三村",121.526396817478,31.2389325085635,2022-03-29
"浦东新区","上海市浦东新区青三村",121.728965787944,31.2323260676874,2022-03-29
"浦东新区","上海市浦东新区庆利路425弄",121.732244782717,31.2375488882221,2022-03-29
"浦东新区","上海市浦东新区南新村东钟家宅",121.548654941573,31.1732516349633,2022-03-29
"浦东新区","上海市浦东新区惠东村",121.783071627116,31.0463207008159,2022-03-29
"浦东新区","上海市浦东新区通济路365弄",121.752221031156,31.0577992012623,2022-03-29
"浦东新区","上海市浦东新区惠北新村",121.766580983716,31.0561041703467,2022-03-29
"浦东新区","上海市浦东新区拱极路4100弄",121.774859587635,31.0609104552718,2022-03-29
"浦东新区","上海市浦东新区拱乐路699号",121.777240007406,31.0688987846424,2022-03-29
"浦东新区","上海市浦东新区听潮路589号",121.748425151393,31.0604028244223,2022-03-29
"浦东新区","上海市浦东新区陆楼村",121.771259987626,31.0804261058698,2022-03-29
"浦东新区","上海市浦东新区西门路588弄",121.743915298411,31.0522661277626,2022-03-29
"浦东新区","上海市浦东新区杨新路93弄",121.500194952532,31.1693279946805,2022-03-29
"浦东新区","上海市浦东新区新环西路58弄",121.650009584467,31.0214823507874,2022-03-29
"浦东新区","上海市浦东新区王桥村",121.701828427641,31.21255135342,2022-03-29
"浦东新区","上海市浦东新区民区路260弄",121.662034391854,31.2795043510196,2022-03-29
"浦东新区","上海市浦东新区民同路131号",121.652778790863,31.290487771739,2022-03-29
"浦东新区","上海市浦东新区金钻路398弄",121.677268934659,31.2931799063564,2022-03-29
"浦东新区","上海市浦东新区陆万村",121.703053896017,31.2697973181134,2022-03-29
"浦东新区","上海市浦东新区永利村龚家宅",121.702059022665,31.2701954030718,2022-03-29
"浦东新区","上海市浦东新区海松路52弄",121.681814360539,31.2819161960356,2022-03-29
"浦东新区","上海市浦东新区顾三村东蔡家宅",121.751834430791,31.2301868682127,2022-03-29
"浦东新区","上海市浦东新区北蔡镇杨莲路李家宅",121.583032015474,31.1814993570376,2022-03-29
"浦东新区","上海市浦东新区崂山路502号",121.52356526868,31.2427278844216,2022-03-29
"浦东新区","上海市浦东新区杨思北街",121.499143935085,31.1698540400458,2022-03-29
"浦东新区","上海市浦东新区耀华路414弄",121.492226982658,31.1790527910542,2022-03-29
"浦东新区","上海市浦东新区跃进村",121.716804617781,31.2152725246536,2022-03-29
"浦东新区","上海市浦东新区潍坊路355弄",121.538217979006,31.2351453926189,2022-03-29
"浦东新区","上海市浦东新区张杨路1318号",121.538165158642,31.237703345265,2022-03-29
"浦东新区","上海市浦东新区金工路172弄",121.59656480832,31.2624665878972,2022-03-29
"浦东新区","上海市浦东新区浦东大道604弄",121.528653810071,31.2451947073744,2022-03-29
"浦东新区","上海市浦东新区南码头路1521弄",121.525396464462,31.1828675092058,2022-03-29
"浦东新区","上海市浦东新区高宝路528弄",121.5896261169,31.2815848989426,2022-03-29
"浦东新区","上海市浦东新区浦东大道2641弄",121.575420313565,31.2714724426133,2022-03-29
"浦东新区","上海市浦东新区浦东大道2639弄",121.573829414507,31.2700964028423,2022-03-29
"浦东新区","上海市浦东新区航梅路525弄",121.580651056719,31.0306667698032,2022-03-29
"浦东新区","上海市浦东新区灵山路1415弄",121.570780206284,31.2449987378052,2022-03-29
"浦东新区","上海市浦东新区德平路1125弄",121.57509494731,31.2490535802043,2022-03-29
"浦东新区","上海市浦东新区莲振路298号",121.574994965906,31.1733958475341,2022-03-29
"浦东新区","上海市浦东新区东波路325弄",121.58954131686,31.2902621957683,2022-03-29
"浦东新区","上海市浦东新区浦东大道2567弄",121.569413703942,31.2670251058868,2022-03-29
"浦东新区","上海市浦东新区莲园路560弄",121.536884264815,31.1897022555378,2022-03-29
"浦东新区","上海市浦东新区懿德村吴家队",121.522180979889,31.1256048631317,2022-03-29
"浦东新区","上海市浦东新区妙境北路323号",121.693462238934,31.2109856635578,2022-03-29
"浦东新区","上海市浦东新区浦东南路2179弄",121.522692654707,31.212014583713,2022-03-29
"浦东新区","上海市浦东新区华夏二路1255弄",121.69800191566,31.1828119771678,2022-03-29
"浦东新区","上海市浦东新区杨新路197弄",121.498520151739,31.1688455907204,2022-03-29
"浦东新区","上海市浦东新区沈梅东路300弄",121.599445314769,31.0976181184832,2022-03-29
"浦东新区","上海市浦东新区陈行公路158号",121.531939542135,31.1285359001772,2022-03-29
"浦东新区","上海市浦东新区上南路5589号",121.584859707864,31.1200779398788,2022-03-29
"浦东新区","上海市浦东新区顺凌路49弄",121.543569184929,31.3708932049062,2022-03-29
"浦东新区","上海市浦东新区和龙路295弄",121.577540943383,31.3492056027673,2022-03-29
"浦东新区","上海市浦东新区川银路81弄",121.692620975824,31.1986460798495,2022-03-29
"浦东新区","上海市浦东新区康梧路189号工地生活区",121.557148959153,31.1422771769984,2022-03-29
"浦东新区","上海市浦东新区龙东大道2895弄",121.64040094941,31.2308981166323,2022-03-29
"浦东新区","上海市浦东新区莲溪路1298号",121.573414038039,31.1728488890945,2022-03-29
"浦东新区","上海市浦东新区民耀路227号",121.659983201053,31.2783475537303,2022-03-29
"浦东新区","上海市浦东新区华绣路255弄",121.535849327037,31.1908371353874,2022-03-29
"浦东新区","上海市浦东新区御水路199弄",121.580638210951,31.1665548139514,2022-03-29
"浦东新区","上海市浦东新区张杨路1515弄",121.542149592731,31.240309161544,2022-03-29
"浦东新区","上海市浦东新区高桥镇北街",121.550454606832,31.2273482924363,2022-03-29
"浦东新区","上海市浦东新区华夏东路2110弄",121.699235019633,31.2053828459045,2022-03-29
"浦东新区","上海市浦东新区浦东南路2129号",121.522913907354,31.2146299172091,2022-03-29
"浦东新区","上海市浦东新区团林路38号",121.576355000448,31.2699233258055,2022-03-29
"浦东新区","上海市浦东新区航头镇海桥村",121.617062972261,31.0160679234997,2022-03-29
"浦东新区","上海市浦东新区永乐村",121.762237676576,31.0810016694205,2022-03-29
"浦东新区","上海市浦东新区和佳路105弄",121.520302084084,31.1332973749386,2022-03-29
"浦东新区","上海市浦东新区张杨北路512弄",121.595559065471,31.2713992930251,2022-03-29
"浦东新区","上海市浦东新区东高路30弄",121.5896261169,31.2815848989426,2022-03-29
"浦东新区","上海市浦东新区上南路3140弄",121.504272990056,31.1652798957791,2022-03-29
"浦东新区","上海市浦东新区沪南公路2502号",121.57039797729,31.157433870028,2022-03-29
"浦东新区","上海市浦东新区黄楼村姚家宅",121.670267451684,31.1681474330854,2022-03-29
"浦东新区","上海市浦东新区南塘村顾家宅",121.5746809183,31.345394276907,2022-03-29
"浦东新区","上海市浦东新区沈家弄路1081号",121.555162266688,31.2464806558269,2022-03-29
"浦东新区","上海市浦东新区金穗路2089号工地生活区",121.641771763618,31.2595931403457,2022-03-29
"浦东新区","上海市浦东新区韵浦路167弄",121.583000754442,31.1177055926451,2022-03-29
"浦东新区","上海市浦东新区新卫村",121.64761515113,31.044082628274,2022-03-29
"浦东新区","上海市浦东新区三灶浜路138弄",121.707451460811,31.2029591423586,2022-03-29
"浦东新区","上海市浦东新区长丰村南张家宅",121.68373170382,31.1899476131692,2022-03-29
"浦东新区","上海市浦东新区光明村计家宅",121.661796700216,31.2971746481732,2022-03-29
"浦东新区","上海市浦东新区华夏二路350弄",121.69105999034,31.1985758849567,2022-03-29
"浦东新区","上海市浦东新区红旗村东桥队毛家塘",121.507890556175,31.1336601072747,2022-03-29
"浦东新区","上海市浦东新区五星路239弄",121.569954483859,31.1817814232373,2022-03-29
"浦东新区","上海市浦东新区清溪路260弄",121.580223283635,31.3489553432852,2022-03-29
"浦东新区","上海市浦东新区陆凌村西凌家宅",121.5817386352,31.3535668406377,2022-03-29
"浦东新区","上海市浦东新区五莲路719弄",121.595942821585,31.2758427950718,2022-03-29
"浦东新区","上海市浦东新区博兴路1185弄",121.600830861187,31.2741607274057,2022-03-29
"浦东新区","上海市浦东新区周东路418弄",121.59321448809,31.1228451517984,2022-03-29
"浦东新区","上海市浦东新区凌空路55弄",121.723712407491,31.2084341614893,2022-03-29
"浦东新区","上海市浦东新区周康路118弄",121.578599686257,31.1159667349973,2022-03-29
"浦东新区","上海市浦东新区耀华路200弄",121.500795020613,31.1775285595996,2022-03-29
"浦东新区","上海市浦东新区雪野二路977号工地生活区",121.488873895068,31.1851864637599,2022-03-29
"浦东新区","上海市浦东新区博兴路986弄",121.597262971363,31.270671034824,2022-03-29
"浦东新区","上海市浦东新区千汇路581弄",121.771476030101,31.1174959081212,2022-03-29
"浦东新区","上海市浦东新区秀沿路2弄",121.550454606832,31.2273482924363,2022-03-29
"浦东新区","上海市浦东新区莲安西路123弄",121.559968201166,31.1847215961689,2022-03-29
"浦东新区","上海市浦东新区银峰路676号",121.652778790863,31.290487771739,2022-03-29
"浦东新区","上海市浦东新区曹黄村",121.697018271126,31.2755327722166,2022-03-29
"浦东新区","上海市浦东新区浦建路1569号",121.553245192899,31.2071763368839,2022-03-29
"浦东新区","上海市浦东新区东绣路999弄",121.543622634106,31.2080047734173,2022-03-29
"浦东新区","上海市浦东新区居家桥路979弄",121.579355161191,31.2504219803646,2022-03-29
"浦东新区","上海市浦东新区浦东南路1533号",121.527644653661,31.2273723011377,2022-03-29
"浦东新区","上海市浦东新区陈行村",121.71962493776,31.1720064695306,2022-03-29
"浦东新区","上海市浦东新区上南路3349弄",121.506729855625,31.1633083888896,2022-03-29
"浦东新区","上海市浦东新区城丰路599弄",121.686336071154,31.1932473290101,2022-03-29
"浦东新区","上海市浦东新区三彩路52弄",121.525530311983,31.1391594184198,2022-03-29
"浦东新区","上海市浦东新区海阳路1125弄",121.515260254579,31.1655971592099,2022-03-29
"浦东新区","上海市浦东新区耀华路331弄",121.493188888199,31.1809682021446,2022-03-29
"浦东新区","上海市浦东新区跃丰村费家宅",121.715041333895,31.2305627016793,2022-03-29
"浦东新区","上海市浦东新区康新公路4499号",121.625368076192,31.1231003448387,2022-03-29
"浦东新区","上海市浦东新区东陆路1182弄",121.602356004282,31.2753682698756,2022-03-29
"浦东新区","上海市浦东新区东方路1365号",121.535930533855,31.2177513436696,2022-03-29
"浦东新区","上海市浦东新区松林路357号",121.541785419677,31.2324085111633,2022-03-29
"浦东新区","上海市浦东新区潍坊路606号",121.528018797906,31.2292048956976,2022-03-29
"浦东新区","上海市浦东新区庆星村顾家宅",121.725707094876,31.2404364439951,2022-03-29
"浦东新区","上海市浦东新区永红村胡家宅",121.716091812359,31.2408407518082,2022-03-29
"浦东新区","上海市浦东新区北新村",121.542279128386,31.3589315869189,2022-03-29
"浦东新区","上海市浦东新区康桥路1633弄",121.584859707864,31.1200779398788,2022-03-29
"浦东新区","上海市浦东新区高科西路3060弄",121.570701963874,31.1958678972719,2022-03-29
"浦东新区","上海市浦东新区康花路399号",121.556295029936,31.153862255953,2022-03-29
"浦东新区","上海市浦东新区杨莲路310弄",121.536884264815,31.1897022555378,2022-03-29
"浦东新区","上海市浦东新区御桥村姚家宅",121.564117833639,31.1623293022053,2022-03-29
"浦东新区","上海市浦东新区新营村",121.745221614283,31.2017695835049,2022-03-29
"浦东新区","上海市浦东新区永泰路595弄",121.521072740381,31.1462686284638,2022-03-29
"浦东新区","上海市浦东新区博山东路556弄",121.567914339852,31.2546296965426,2022-03-29
"浦东新区","上海市浦东新区云汉路977弄",121.813443156747,30.917010259349,2022-03-29
"浦东新区","上海市浦东新区西泰林路901弄",121.54507097208,31.1494599367676,2022-03-29
"浦东新区","上海市浦东新区瓦南村",121.659544468641,31.1047808712322,2022-03-29
"浦东新区","上海市浦东新区兰城路115弄",121.585504152237,31.272452471814,2022-03-29
"浦东新区","上海市浦东新区栖山路1558弄",121.57216036287,31.2630398005953,2022-03-29
"浦东新区","上海市浦东新区银山路115弄",121.58494540621,31.2513391754424,2022-03-29
"浦东新区","上海市浦东新区枣庄路658弄",121.585248584319,31.2574340029709,2022-03-29
"浦东新区","上海市浦东新区新星村",121.708279428999,31.2618387353821,2022-03-29
"浦东新区","上海市浦东新区鸿音路3127号",121.822008409954,30.9112691698376,2022-03-29
"浦东新区","上海市浦东新区中界村周家宅",121.574173735009,31.1954461740634,2022-03-29
"浦东新区","上海市浦东新区钱堂村立达宅",121.599518706329,31.1638817454656,2022-03-29
"浦东新区","上海市浦东新区已对相关居住地落实终末消毒措施",121.550454606832,31.2273482924363,2022-03-29
"黄浦区","上海市黄浦区永年路149弄",121.485099287759,31.2170759403217,2022-03-29
"黄浦区","上海市黄浦区静修路79弄",121.493854846988,31.2256074907745,2022-03-29
"黄浦区","上海市黄浦区西仓桥街161弄",121.495304756997,31.2257539001616,2022-03-29
"黄浦区","上海市黄浦区打浦路316弄",121.477142906027,31.2052986798579,2022-03-29
"黄浦区","上海市黄浦区县左街20弄",121.501370385292,31.229773603347,2022-03-29
"黄浦区","上海市黄浦区大兴街115弄",121.497558066538,31.2196088321597,2022-03-29
"黄浦区","上海市黄浦区复兴东路886号",121.494913275456,31.2265861866627,2022-03-29
"黄浦区","上海市黄浦区静修路114弄",121.493029798293,31.2257417798045,2022-03-29
"黄浦区","上海市黄浦区瞿溪路1072弄",121.481430608056,31.2047559228658,2022-03-29
"黄浦区","上海市黄浦区庄家街49号",121.495230556962,31.2261723989185,2022-03-29
"黄浦区","上海市黄浦区打浦路339弄",121.478552257541,31.2052967494431,2022-03-29
"黄浦区","上海市黄浦区静修路85号",121.493638759598,31.2255219919096,2022-03-29
"黄浦区","上海市黄浦区打浦路399号",121.478892086516,31.204535854047,2022-03-29
"黄浦区","上海市黄浦区瞿溪路937弄",121.484684090952,31.2063509816511,2022-03-29
"黄浦区","上海市黄浦区中山南一路1065号",121.479004105213,31.201882323908,2022-03-29
"黄浦区","上海市黄浦区半淞园路585弄",121.500750913812,31.2054951186599,2022-03-29
"黄浦区","上海市黄浦区普育东路101弄",121.502876214818,31.2152174750717,2022-03-29
"黄浦区","上海市黄浦区静修路126弄",121.486533342675,31.2255124191199,2022-03-29
"黄浦区","上海市黄浦区四牌楼路147号",121.502212007724,31.2286018317671,2022-03-29
"黄浦区","上海市黄浦区西仓桥街129号",121.496106674326,31.2260856267788,2022-03-29
"黄浦区","上海市黄浦区顺昌路550弄",121.485579971037,31.2177418472914,2022-03-29
"黄浦区","上海市黄浦区大林路43弄",121.49331950182,31.219241105019,2022-03-29
"黄浦区","上海市黄浦区肇周路356号",121.487837682276,31.2188524537687,2022-03-29
"黄浦区","上海市黄浦区瑞金二路410弄",121.473398499169,31.2133016831321,2022-03-29
"黄浦区","上海市黄浦区制造局路455弄",121.491010407506,31.210925129407,2022-03-29
"黄浦区","上海市黄浦区国货路236号",121.501919699111,31.2143285703991,2022-03-29
"黄浦区","上海市黄浦区中山南路1667号",121.501570976912,31.2105118901275,2022-03-29
"黄浦区","上海市黄浦区梦花街13弄",121.492488659054,31.2236649295716,2022-03-29
"黄浦区","上海市黄浦区蒙自西路10号",121.483200449572,31.2134559099648,2022-03-29
"黄浦区","上海市黄浦区保屯路211弄",121.498305816045,31.209535149529,2022-03-29
"黄浦区","上海市黄浦区蒙自西路78号",121.481051163809,31.21314718581,2022-03-29
"黄浦区","上海市黄浦区中山南路1729弄",121.4999628401,31.2093361607293,2022-03-29
"黄浦区","上海市黄浦区丽园路871号",121.48247138482,31.2126784419996,2022-03-29
"黄浦区","上海市黄浦区中山南路1726弄",121.49944953862,31.2099897019351,2022-03-29
"黄浦区","上海市黄浦区蒙自西路28弄3号",121.482570108596,31.2129158640054,2022-03-29
"黄浦区","上海市黄浦区静修路37弄",121.494724990621,31.2259248201899,2022-03-29
"黄浦区","上海市黄浦区巨鹿路4号",121.476116052998,31.2298641546872,2022-03-29
"黄浦区","上海市黄浦区丽园路710弄",121.486006396663,31.2123440426996,2022-03-29
"黄浦区","上海市黄浦区学前街58号",121.49550418082,31.2224349480654,2022-03-29
"黄浦区","上海市黄浦区五里桥路256号",121.486539271492,31.2092637450955,2022-03-29
"黄浦区","上海市黄浦区蓬莱路257号",121.496475967721,31.2233218457205,2022-03-29
"黄浦区","上海市黄浦区龙华东路927号",121.477275316259,31.199376134506,2022-03-29
"黄浦区","上海市黄浦区斜土路251弄",121.487102598877,31.2113163615509,2022-03-29
"黄浦区","上海市黄浦区瞿溪路1200弄",121.477917514868,31.2023023965439,2022-03-29
"黄浦区","上海市黄浦区延安中路545弄",121.465342675017,31.2296719356254,2022-03-29
"黄浦区","上海市黄浦区白渡路188弄",121.508603092105,31.226094504715,2022-03-29
"黄浦区","上海市黄浦区局门路434弄",121.487727639851,31.2084105340004,2022-03-29
"黄浦区","上海市黄浦区新闸路200号",121.476367039558,31.2446758772373,2022-03-29
"黄浦区","上海市黄浦区高家弄37弄",121.491585592524,31.2372471520636,2022-03-29
"黄浦区","上海市黄浦区庄家街34号",121.494785446581,31.226400291201,2022-03-29
"黄浦区","上海市黄浦区梦花街64号",121.49512761115,31.2248362997682,2022-03-29
"黄浦区","上海市黄浦区方浜中路523号",121.494248170056,31.2302400228681,2022-03-29
"黄浦区","上海市黄浦区陆家浜路468弄",121.504498105416,31.2161071433814,2022-03-29
"黄浦区","上海市黄浦区人民路777弄",121.492217550451,31.2328867282071,2022-03-29
"黄浦区","上海市黄浦区大夫坊74弄",121.491585592524,31.2372471520636,2022-03-29
"黄浦区","上海市黄浦区尚文路133弄",121.497992576913,31.2215084367606,2022-03-29
"黄浦区","上海市黄浦区西仓桥街112弄",121.496291276108,31.2259735331128,2022-03-29
"黄浦区","上海市黄浦区建国西路192号",121.468717698649,31.2128213585376,2022-03-29
"黄浦区","上海市黄浦区文庙路60弄",121.497072262918,31.2243469246531,2022-03-29
"黄浦区","上海市黄浦区庄家街18弄",121.494764605894,31.2268285141209,2022-03-29
"黄浦区","上海市黄浦区静修路64弄",121.494219723715,31.2256019452523,2022-03-29
"黄浦区","上海市黄浦区半淞园路178号",121.504942856474,31.2105758990964,2022-03-29
"黄浦区","上海市黄浦区鲁班路738弄",121.484940916498,31.1998880342562,2022-03-29
"黄浦区","上海市黄浦区海潮路256弄",121.50354920089,31.2128867884433,2022-03-29
"黄浦区","上海市黄浦区复兴中路485号",121.478506713452,31.221400660998,2022-03-29
"黄浦区","上海市黄浦区傅家街92弄",121.499788020136,31.2290760540245,2022-03-29
"黄浦区","上海市黄浦区泰康路316弄",121.477099248379,31.2054004512698,2022-03-29
"黄浦区","上海市黄浦区中山南路1669弄",121.501983838125,31.2107305550855,2022-03-29
"黄浦区","上海市黄浦区复兴中路565弄",121.472679136117,31.2210827372157,2022-03-29
"黄浦区","上海市黄浦区高家横弄18弄",121.471987979858,31.2162274328676,2022-03-29
"黄浦区","上海市黄浦区凤阳路358弄",121.475650191761,31.240041088235,2022-03-29
"黄浦区","上海市黄浦区黄家路88弄",121.50359063719,31.2212345193213,2022-03-29
"黄浦区","上海市黄浦区抚安街27号",121.503491913415,31.2264940109691,2022-03-29
"黄浦区","上海市黄浦区打浦路210弄",121.477370985796,31.2068850040731,2022-03-29
"黄浦区","上海市黄浦区县左街24号",121.501377571736,31.2296827431334,2022-03-29
"黄浦区","上海市黄浦区面筋弄60弄",121.535203625036,31.2165557189203,2022-03-29
"黄浦区","上海市黄浦区河南南路612弄",121.496863586548,31.2259670483512,2022-03-29
"黄浦区","上海市黄浦区大林路10弄",121.49434833112,31.2193864048932,2022-03-29
"黄浦区","上海市黄浦区瑞金南路1号",121.474173108011,31.2107613627134,2022-03-29
"黄浦区","上海市黄浦区曹市弄62号",121.495654826654,31.2249117246057,2022-03-29
"黄浦区","上海市黄浦区北京东路360弄",121.489311532126,31.2465650935736,2022-03-29
"黄浦区","上海市黄浦区方浜中路45弄",121.502692691002,31.2311761743309,2022-03-29
"黄浦区","上海市黄浦区汉口路457号",121.488246590944,31.2404915559304,2022-03-29
"黄浦区","上海市黄浦区曹市弄33弄",121.491585592524,31.2372471520636,2022-03-29
"黄浦区","上海市黄浦区已对相关居住地落实终末消毒措施",121.491585592524,31.2372471520636,2022-03-29
"静安区","上海市静安区洛川中路1100弄",121.456053477399,31.2707076099104,2022-03-29
"静安区","上海市静安区原平路918弄",121.437979031555,31.3012898618801,2022-03-29
"静安区","上海市静安区汾西路400弄",121.464971944333,31.3233030332376,2022-03-29
"静安区","上海市静安区临汾路380弄",121.468559956201,31.3181868863255,2022-03-29
"静安区","上海市静安区武定西路1398弄",121.436339893491,31.2318542549372,2022-03-29
"静安区","上海市静安区永兴路37弄",121.483078010531,31.2613976309694,2022-03-29
"静安区","上海市静安区新闸路1910弄",121.447706602262,31.2328402575056,2022-03-29
"静安区","上海市静安区华山路251弄",121.452721931755,31.225976852693,2022-03-29
"静安区","上海市静安区镇宁路404弄",121.44247621843,31.2288010007761,2022-03-29
"静安区","上海市静安区南京西路1856号",121.449808457494,31.2281690622961,2022-03-29
"静安区","上海市静安区华山路421弄",121.451505985416,31.2235924373865,2022-03-29
"静安区","上海市静安区柳营路319弄",121.469876782248,31.273721070047,2022-03-29
"静安区","上海市静安区普善路661号",121.459559204483,31.2690579358118,2022-03-29
"静安区","上海市静安区共和新路2399弄",121.459654424867,31.2876586207956,2022-03-29
"静安区","上海市静安区交城路229弄",121.436722391977,31.3001965879157,2022-03-29
"静安区","上海市静安区襄阳北路44弄",121.461172291687,31.2257324386365,2022-03-29
"静安区","上海市静安区平顺路721弄",121.457853861302,31.3236286296725,2022-03-29
"静安区","上海市静安区灵石路737弄",121.445329775713,31.2904458041579,2022-03-29
"静安区","上海市静安区岭南路338弄",121.462187017591,31.3178559493552,2022-03-29
"静安区","上海市静安区西藏北路225弄",121.477575619791,31.2501236044624,2022-03-29
"静安区","上海市静安区场中路2600弄",121.448262024559,31.3102327367817,2022-03-29
"静安区","上海市静安区海宁路1399号",121.475086415223,31.2500566897152,2022-03-29
"静安区","上海市静安区新马路258弄",121.474455714924,31.2542516963853,2022-03-29
"静安区","上海市静安区中华新路455弄",121.4744274183,31.2614964089054,2022-03-29
"静安区","上海市静安区南山路35弄",121.472991117621,31.2628109943866,2022-03-29
"静安区","上海市静安区西藏北路1071弄",121.472543042832,31.2668462357251,2022-03-29
"静安区","上海市静安区康定路307号",121.456863659139,31.2411870904636,2022-03-29
"静安区","上海市静安区康定路501弄",121.454354961341,31.2395189875951,2022-03-29
"静安区","上海市静安区康定路775号",121.448680275604,31.2380126445337,2022-03-29
"静安区","上海市静安区芷江西路521弄",121.462757261929,31.2630793110879,2022-03-29
"静安区","上海市静安区保德路213号",121.46941900576,31.3241789482997,2022-03-29
"静安区","上海市静安区光复路921号",121.463040497656,31.245029997256,2022-03-29
"静安区","上海市静安区延安中路877弄",121.459913675837,31.2291939337407,2022-03-29
"静安区","上海市静安区中山北路198号",121.477000973756,31.2705968814931,2022-03-29
"静安区","上海市静安区康定路389号",121.455324143156,31.2407062914809,2022-03-29
"静安区","上海市静安区康定路716弄",121.44969688795,31.2386757781013,2022-03-29
"静安区","上海市静安区武定路540弄",121.456470021664,31.2398248845832,2022-03-29
"静安区","上海市静安区武定路600弄",121.455240241421,31.2392510663985,2022-03-29
"静安区","上海市静安区新闸路1550弄",121.45368967628,31.236338309772,2022-03-29
"静安区","上海市静安区武定路458号",121.457801040939,31.2408248512284,2022-03-29
"静安区","上海市静安区武定路650弄",121.452287960363,31.2364928460047,2022-03-29
"静安区","上海市静安区康定路367弄",121.455781111169,31.240800305668,2022-03-29
"静安区","上海市静安区西康路520号",121.454138829035,31.2404447802563,2022-03-29
"静安区","上海市静安区柳营路205弄",121.457450971281,31.2686268196777,2022-03-29
"静安区","上海市静安区万航渡路174号",121.447679383605,31.2314552347383,2022-03-29
"静安区","上海市静安区大统路757号",121.465587912421,31.2579718240759,2022-03-29
"静安区","上海市静安区芷江西路429号",121.46421988296,31.2632517062841,2022-03-29
"静安区","上海市静安区永兴路595弄",121.47292419386,31.2572717067993,2022-03-29
"静安区","上海市静安区永兴小马路70号",121.470868781023,31.257513568894,2022-03-29
"静安区","上海市静安区中兴路1395弄",121.466589163743,31.2585638944702,2022-03-29
"静安区","上海市静安区芷江西路393弄",121.464417689833,31.2643917136024,2022-03-29
"静安区","上海市静安区普善路239弄",121.463956948937,31.2632953066303,2022-03-29
"静安区","上海市静安区康定东路13弄",121.463927843839,31.2433318607002,2022-03-29
"静安区","上海市静安区洛川东路37号",121.472114101951,31.2786382010722,2022-03-29
"静安区","上海市静安区普善路390弄",121.460373069275,31.2663243619374,2022-03-29
"静安区","上海市静安区武定路530号",121.456642496322,31.2399535570773,2022-03-29
"静安区","上海市静安区新闸路1309弄",121.462857872146,31.2394428798368,2022-03-29
"静安区","上海市静安区康定东路23号",121.463759231895,31.2433293907732,2022-03-29
"静安区","上海市静安区康定东路25号",121.463723120013,31.2433219038066,2022-03-29
"静安区","上海市静安区康定东路3弄",121.453431772769,31.2338449304017,2022-03-29
"静安区","上海市静安区康定东路9号",121.46403725745,31.2434461719377,2022-03-29
"静安区","上海市静安区康定东路31号",121.463623677593,31.2432753611038,2022-03-29
"静安区","上海市静安区新闸路1051号",121.462533224535,31.2389582896353,2022-03-29
"静安区","上海市静安区大田路158号",121.471304998178,31.2391245542212,2022-03-29
"静安区","上海市静安区灵石路697号",121.45443302409,31.2899628670312,2022-03-29
"静安区","上海市静安区康定路400号",121.455063544727,31.2409214896615,2022-03-29
"静安区","上海市静安区武定路1128弄",121.446410616903,31.2360211314597,2022-03-29
"静安区","上海市静安区洛川东路161号",121.471042064156,31.2779514324296,2022-03-29
"静安区","上海市静安区康定东路27号",121.463667784394,31.2432842374088,2022-03-29
"静安区","上海市静安区武定路44弄",121.465352556378,31.2430547653583,2022-03-29
"静安区","上海市静安区宝山路499弄",121.484717238426,31.2636615487347,2022-03-29
"静安区","上海市静安区延长路152弄",121.466546224739,31.279114021301,2022-03-29
"静安区","上海市静安区延平路85号",121.44713240538,31.2340126707415,2022-03-29
"静安区","上海市静安区延平路260号",121.446170859162,31.2373029605899,2022-03-29
"静安区","上海市静安区彭江路399弄",121.468318042527,31.2745314021669,2022-03-29
"静安区","上海市静安区芷江中路660弄",121.475069886401,31.2641234778376,2022-03-29
"静安区","上海市静安区银都二村15号",121.446379086379,31.3240176164379,2022-03-29
"静安区","上海市静安区阳曲路190弄",121.466627251896,31.3151963025536,2022-03-29
"静安区","上海市静安区临汾路809弄",121.457646801882,31.3169826742419,2022-03-29
"静安区","上海市静安区中华新路940号",121.461082191644,31.2605717507339,2022-03-29
"静安区","上海市静安区中华新路793弄",121.464296059267,31.2602477863762,2022-03-29
"静安区","上海市静安区场中路2251弄",121.453224264196,31.3126499580522,2022-03-29
"静安区","上海市静安区铜仁路278号",121.456223526632,31.2334533292566,2022-03-29
"静安区","上海市静安区普善路128弄",121.462973753557,31.2617262215432,2022-03-29
"静安区","上海市静安区淮安路687弄",121.458216686898,31.2455075323067,2022-03-29
"静安区","上海市静安区沪太路631弄",121.456626326823,31.2673061427831,2022-03-29
"静安区","上海市静安区北京西路1818号",121.448667429835,31.2304704527069,2022-03-29
"静安区","上海市静安区通阁路188号",121.477097361937,31.2661583000528,2022-03-29
"静安区","上海市静安区通阁路181号",121.477066550058,31.2659264919843,2022-03-29
"静安区","上海市静安区大宁路667弄",121.454031481527,31.2791984295658,2022-03-29
"静安区","上海市静安区已对相关居住地落实终末消毒措施",121.453431772769,31.2338449304017,2022-03-29
"徐汇区","上海市徐汇区长桥二村",121.447470527574,31.143062762579,2022-03-29
"徐汇区","上海市徐汇区汇成二村",121.441477841686,31.1525364827155,2022-03-29
"徐汇区","上海市徐汇区园南一村",121.446000181115,31.1470629888059,2022-03-29
"徐汇区","上海市徐汇区罗秀三村",121.45301783359,31.1405420967382,2022-03-29
"徐汇区","上海市徐汇区汇成一村",121.438515858928,31.1532893789645,2022-03-29
"徐汇区","上海市徐汇区长桥四村",121.446028028586,31.1399378439366,2022-03-29
"徐汇区","上海市徐汇区汇成五村",121.441892050357,31.1484195129521,2022-03-29
"徐汇区","上海市徐汇区长桥五村",121.441221195802,31.1432295837323,2022-03-29
"徐汇区","上海市徐汇区老沪闵路790弄",121.438157974013,31.1461588345253,2022-03-29
"徐汇区","上海市徐汇区老沪闵路666弄",121.435401164233,31.1517966374804,2022-03-29
"徐汇区","上海市徐汇区长桥六村",121.442889079642,31.1390047216134,2022-03-29
"徐汇区","上海市徐汇区汇成三村",121.440343191996,31.1503428895036,2022-03-29
"徐汇区","上海市徐汇区长桥新村",121.447001881589,31.1442060108186,2022-03-29
"徐汇区","上海市徐汇区汇成四村",121.443023915299,31.1492877182944,2022-03-29
"徐汇区","上海市徐汇区罗香路1135号",121.444327037704,31.1413864596347,2022-03-29
"徐汇区","上海市徐汇区长桥三村",121.448297956779,31.1410138284795,2022-03-29
"徐汇区","上海市徐汇区老沪闵路728弄",121.436331718911,31.1488588318855,2022-03-29
"徐汇区","上海市徐汇区老沪闵路710弄",121.435548396506,31.1501586970389,2022-03-29
"徐汇区","上海市徐汇区长桥一村",121.44421255315,31.1439569019531,2022-03-29
"徐汇区","上海市徐汇区喜泰路247弄",121.457669798504,31.1487581580309,2022-03-29
"徐汇区","上海市徐汇区罗城路799弄",121.440093463065,31.1546083428313,2022-03-29
"徐汇区","上海市徐汇区喜泰支路15弄",121.458025707147,31.1526030036022,2022-03-29
"徐汇区","上海市徐汇区龙瑞路77弄",121.460857615267,31.1446506035965,2022-03-29
"徐汇区","上海市徐汇区龙川北路436弄",121.443286310339,31.1535223158827,2022-03-29
"徐汇区","上海市徐汇区老沪闵路1060号",121.442797721972,31.1366800661874,2022-03-29
"徐汇区","上海市徐汇区龙吴路1343弄",121.457336167837,31.1425782918706,2022-03-29
"徐汇区","上海市徐汇区漕溪北路750号",121.44265713716,31.1908066301204,2022-03-29
"徐汇区","上海市徐汇区宜山路408弄",121.4347533063,31.1934722896081,2022-03-29
"徐汇区","上海市徐汇区宜山路187号",121.436766049625,31.1958431082473,2022-03-29
"徐汇区","上海市徐汇区零陵路789弄",121.446307311769,31.1921748008894,2022-03-29
"徐汇区","上海市徐汇区日晖二村",121.472543312324,31.2005826350408,2022-03-29
"徐汇区","上海市徐汇区日晖七村",121.466176122869,31.2037039892407,2022-03-29
"徐汇区","上海市徐汇区小木桥路323弄",121.465495566615,31.2025366016642,2022-03-29
"徐汇区","上海市徐汇区茶陵路78弄",121.473443414445,31.2034955006626,2022-03-29
"徐汇区","上海市徐汇区清真路73号",121.465369983504,31.205339836292,2022-03-29
"徐汇区","上海市徐汇区斜土路1212弄",121.472478813988,31.2056977343511,2022-03-29
"徐汇区","上海市徐汇区田林十一村",121.431996137198,31.1784792182662,2022-03-29
"徐汇区","上海市徐汇区桂林路567弄",121.421398557605,31.1845685191457,2022-03-29
"徐汇区","上海市徐汇区柳州路374弄",121.42892168659,31.1760086288465,2022-03-29
"徐汇区","上海市徐汇区田林八村",121.428402106683,31.1780064390276,2022-03-29
"徐汇区","上海市徐汇区田林十三村",121.431878818498,31.1799641976388,2022-03-29
"徐汇区","上海市徐汇区钦州路920号",121.431465597964,31.185239368465,2022-03-29
"徐汇区","上海市徐汇区柳州路356号",121.431122265598,31.1750965658784,2022-03-29
"徐汇区","上海市徐汇区钦州路780号",121.43473543002,31.1822812931254,2022-03-29
"徐汇区","上海市徐汇区田林东路360弄",121.462399736336,31.2012134470105,2022-03-29
"徐汇区","上海市徐汇区钦州北路540号",121.419867389596,31.1862850344765,2022-03-29
"徐汇区","上海市徐汇区古井路380弄",121.424004182567,31.1970225488681,2022-03-29
"徐汇区","上海市徐汇区建国西路355弄",121.462542027929,31.2105203834793,2022-03-29
"徐汇区","上海市徐汇区天平路212弄",121.443912968263,31.2061299899894,2022-03-29
"徐汇区","上海市徐汇区天钥桥南路1199弄",121.462923448448,31.1588355156482,2022-03-29
"徐汇区","上海市徐汇区天钥桥南路1111弄",121.461782690281,31.1623088304242,2022-03-29
"徐汇区","上海市徐汇区云锦路50弄",121.462366678693,31.1799079687433,2022-03-29
"徐汇区","上海市徐汇区龙华西路31弄",121.457319100032,31.1746273227092,2022-03-29
"徐汇区","上海市徐汇区龙南三村",121.462678031383,31.1624058589018,2022-03-29
"徐汇区","上海市徐汇区丰谷路205弄",121.462727168694,31.176347328833,2022-03-29
"徐汇区","上海市徐汇区机场新村",121.458088049549,31.1737422039756,2022-03-29
"徐汇区","上海市徐汇区龙华路2518弄",121.458866161782,31.1848288735099,2022-03-29
"徐汇区","上海市徐汇区龙华西路81弄",121.457099733827,31.1761814161989,2022-03-29
"徐汇区","上海市徐汇区龙华西路21弄",121.454790729344,31.1750608803076,2022-03-29
"徐汇区","上海市徐汇区龙吴路988弄",121.45732853224,31.1553440712405,2022-03-29
"徐汇区","上海市徐汇区丰谷路185弄",121.462960009482,31.1763159692049,2022-03-29
"徐汇区","上海市徐汇区龙南六村",121.459373884056,31.1623585034551,2022-03-29
"徐汇区","上海市徐汇区龙恒路31弄",121.457190807776,31.173970864646,2022-03-29
"徐汇区","上海市徐汇区龙南七村",121.459623163835,31.1645714373345,2022-03-29
"徐汇区","上海市徐汇区龙华西路398弄",121.450587378202,31.1825089060495,2022-03-29
"徐汇区","上海市徐汇区龙水北路960弄",121.452796311451,31.1777578833271,2022-03-29
"徐汇区","上海市徐汇区龙南五村",121.460453018465,31.1614279215894,2022-03-29
"徐汇区","上海市徐汇区龙南佳苑",121.46029249127,31.1586332621741,2022-03-29
"徐汇区","上海市徐汇区云锦路201弄",121.464716825568,31.1771205025532,2022-03-29
"徐汇区","上海市徐汇区龙华西路334弄",121.451694270251,31.1811904117047,2022-03-29
"徐汇区","上海市徐汇区龙恒路290号",121.455126066791,31.1727179615551,2022-03-29
"徐汇区","上海市徐汇区天钥桥南路1118弄",121.461017333986,31.1620362076758,2022-03-29
"徐汇区","上海市徐汇区宛平南路1188弄",121.460507815101,31.186706786342,2022-03-29
"徐汇区","上海市徐汇区罗秀路930弄",121.432818895214,31.1375055711784,2022-03-29
"徐汇区","上海市徐汇区梅陇九村",121.429158479922,31.1367430437498,2022-03-29
"徐汇区","上海市徐汇区老沪闵路875弄",121.44119155172,31.1398052477888,2022-03-29
"徐汇区","上海市徐汇区化工一村",121.428727023786,31.1460338191736,2022-03-29
"徐汇区","上海市徐汇区老沪闵路1039弄",121.433693036306,31.1538631830606,2022-03-29
"徐汇区","上海市徐汇区罗秀路850号",121.439136767697,31.1377521471767,2022-03-29
"徐汇区","上海市徐汇区上中西路280号",121.432080038932,31.14099134304,2022-03-29
"徐汇区","上海市徐汇区罗秀路1135号",121.432087674529,31.1352991855845,2022-03-29
"徐汇区","上海市徐汇区梅陇十一村",121.433632041362,31.1387218313397,2022-03-29
"徐汇区","上海市徐汇区梅陇五村",121.429165935858,31.1400780123881,2022-03-29
"徐汇区","上海市徐汇区罗秀路887号",121.439491418712,31.1375816072181,2022-03-29
"徐汇区","上海市徐汇区化工二村",121.42406167412,31.1444072909172,2022-03-29
"徐汇区","上海市徐汇区梅陇三村",121.423632373917,31.1437019201098,2022-03-29
"徐汇区","上海市徐汇区桂林东街101弄",121.432280450892,31.1623430530595,2022-03-29
"徐汇区","上海市徐汇区桂平路258弄",121.414757744292,31.1640397230495,2022-03-29
"徐汇区","上海市徐汇区桂林路81号",121.427132800997,31.1677889281247,2022-03-29
"徐汇区","上海市徐汇区桂林西街151弄",121.427377499418,31.1587542434872,2022-03-29
"徐汇区","上海市徐汇区浦北路959弄",121.42047824361,31.1579268394382,2022-03-29
"徐汇区","上海市徐汇区桂林西街30弄",121.423684385806,31.161511895278,2022-03-29
"徐汇区","上海市徐汇区桂平支路35弄",121.419122880256,31.1533212871072,2022-03-29
"徐汇区","上海市徐汇区桂林西街15弄",121.4224232547,31.1617198592318,2022-03-29
"徐汇区","上海市徐汇区桂林西街11弄",121.422643519211,31.1632329144471,2022-03-29
"徐汇区","上海市徐汇区桂林西街47弄",121.423043983808,31.1604233988607,2022-03-29
"徐汇区","上海市徐汇区桂江路77弄",121.435059628478,31.1721788780382,2022-03-29
"徐汇区","上海市徐汇区钦州南路300弄",121.430443865277,31.1668997279413,2022-03-29
"徐汇区","上海市徐汇区江安路58弄",121.422428824194,31.153696844359,2022-03-29
"徐汇区","上海市徐汇区桂林路70弄",121.422365763148,31.1640596536989,2022-03-29
"徐汇区","上海市徐汇区桂林东街218弄",121.427859530155,31.1629831608182,2022-03-29
"徐汇区","上海市徐汇区桂林西街85弄",121.423066441445,31.1585731577345,2022-03-29
"徐汇区","上海市徐汇区康健路363弄",121.425690751162,31.1711447312173,2022-03-29
"徐汇区","上海市徐汇区柳州路208号",121.431625226853,31.1686875439835,2022-03-29
"徐汇区","上海市徐汇区冠生园路411弄",121.429201957909,31.1691881788961,2022-03-29
"徐汇区","上海市徐汇区浦北路948弄",121.420650538607,31.1595965503106,2022-03-29
"徐汇区","上海市徐汇区浦北路21弄",121.433807480428,31.1642156224717,2022-03-29
"徐汇区","上海市徐汇区桂平路350弄",121.413579257293,31.166860408583,2022-03-29
"徐汇区","上海市徐汇区虹漕公寓",121.419742172075,31.1664127538229,2022-03-29
"徐汇区","上海市徐汇区钦州南路381弄",121.43156441157,31.1660604221461,2022-03-29
"徐汇区","上海市徐汇区钦州南路917弄",121.419185132828,31.1622886676468,2022-03-29
"徐汇区","上海市徐汇区虹漕南路173号",121.419791758539,31.1662733971854,2022-03-29
"徐汇区","上海市徐汇区龙吴路2888弄",121.461576798658,31.1154641931161,2022-03-29
"徐汇区","上海市徐汇区华济路1号",121.466660040047,31.1221698374958,2022-03-29
"徐汇区","上海市徐汇区龙吴路2418弄",121.469078008989,31.1253760301988,2022-03-29
"徐汇区","上海市徐汇区龙吴路2588弄",121.462948960325,31.1201446383344,2022-03-29
"徐汇区","上海市徐汇区华泾路1000弄",121.452448128235,31.1262005525971,2022-03-29
"徐汇区","上海市徐汇区龙吴路2388弄",121.46634913651,31.1289552194858,2022-03-29
"徐汇区","上海市徐汇区龙吟路455弄",121.459304085718,31.1199525806603,2022-03-29
"徐汇区","上海市徐汇区华展路55弄",121.459532973962,31.1180969046061,2022-03-29
"徐汇区","上海市徐汇区华泾路880弄",121.454471202074,31.125287309952,2022-03-29
"徐汇区","上海市徐汇区华济路2弄",121.443396352764,31.1945567728227,2022-03-29
"徐汇区","上海市徐汇区华发小区",121.458835080411,31.1344242825094,2022-03-29
"徐汇区","上海市徐汇区老沪闵路1111弄",121.440711868349,31.1327655388946,2022-03-29
"徐汇区","上海市徐汇区华发路100弄",121.459335167088,31.1346399566882,2022-03-29
"徐汇区","上海市徐汇区华发路99弄",121.459929036861,31.1321048458046,2022-03-29
"徐汇区","上海市徐汇区华发路58弄",121.46111740522,31.1354939164795,2022-03-29
"徐汇区","上海市徐汇区龙吟路500弄",121.458560019264,31.1190384271235,2022-03-29
"徐汇区","上海市徐汇区复兴中路1462弄",121.455775631505,31.216996108374,2022-03-29
"徐汇区","上海市徐汇区乌鲁木齐中路162弄",121.451774848255,31.2201952779132,2022-03-29
"徐汇区","上海市徐汇区古美路1068弄",121.407544171386,31.1615831222115,2022-03-29
"徐汇区","上海市徐汇区古美路1107弄",121.407081544048,31.1610961204934,2022-03-29
"徐汇区","上海市徐汇区东兰路121弄",121.405809902768,31.1625120802491,2022-03-29
"徐汇区","上海市徐汇区田林路360弄",121.462399736336,31.2012134470105,2022-03-29
"徐汇区","上海市徐汇区桂平路470号",121.410748606801,31.1731607199078,2022-03-29
"徐汇区","上海市徐汇区东安路230弄",121.459038007626,31.1992838547995,2022-03-29
"徐汇区","上海市徐汇区天钥新村",121.452930158972,31.1920618943491,2022-03-29
"徐汇区","上海市徐汇区东安二村",121.45997781485,31.1928310771145,2022-03-29
"徐汇区","上海市徐汇区龙华路2381弄",121.457359344119,31.1876758101734,2022-03-29
"徐汇区","上海市徐汇区零陵路289弄",121.465095191849,31.1987138808072,2022-03-29
"徐汇区","上海市徐汇区医学院路110弄",121.461591351207,31.2052840859211,2022-03-29
"徐汇区","上海市徐汇区斜土路2171弄",121.47546091879,31.205033286058,2022-03-29
"徐汇区","上海市徐汇区东安一村",121.463765520033,31.1953510331687,2022-03-29
"徐汇区","上海市徐汇区中山南二路999弄",121.45251900454,31.1869834306542,2022-03-29
"徐汇区","上海市徐汇区枫林路135号",121.461351054483,31.204781250051,2022-03-29
"徐汇区","上海市徐汇区东安五村",121.459093516133,31.1907246652838,2022-03-29
"徐汇区","上海市徐汇区三江小区",121.446398040625,31.1710708852209,2022-03-29
"徐汇区","上海市徐汇区石龙路79弄",121.453114850585,31.1623511645175,2022-03-29
"徐汇区","上海市徐汇区钦州路381弄",121.437373573642,31.2153862525092,2022-03-29
"徐汇区","上海市徐汇区冠生园路237弄",121.433090812292,31.1678745955627,2022-03-29
"徐汇区","上海市徐汇区东泉路104弄",121.451995921241,31.1611801717318,2022-03-29
"徐汇区","上海市徐汇区康健路100弄",121.434161322968,31.1710799228616,2022-03-29
"徐汇区","上海市徐汇区东泉路50弄",121.449427755619,31.1616930526113,2022-03-29
"徐汇区","上海市徐汇区冠生园路235弄",121.432660344292,31.1694670377952,2022-03-29
"徐汇区","上海市徐汇区漕溪一村",121.443510976547,31.1794268550151,2022-03-29
"徐汇区","上海市徐汇区漕溪路199号",121.442452682826,31.1789662842061,2022-03-29
"徐汇区","上海市徐汇区三江路88弄",121.444720724577,31.1729248192592,2022-03-29
"徐汇区","上海市徐汇区罗城路570弄",121.443682552899,31.1568750755244,2022-03-29
"徐汇区","上海市徐汇区石龙路33弄",121.453846879745,31.1628135164647,2022-03-29
"徐汇区","上海市徐汇区钦州路111弄",121.438197140133,31.1688065039178,2022-03-29
"徐汇区","上海市徐汇区龙吴路515号",121.455421249981,31.1640415770636,2022-03-29
"徐汇区","上海市徐汇区龙川北路800弄",121.442387016693,31.1583278725079,2022-03-29
"徐汇区","上海市徐汇区宾南路19弄",121.442219033562,31.1662931728628,2022-03-29
"徐汇区","上海市徐汇区龙吴路9弄",121.443396352764,31.1945567728227,2022-03-29
"徐汇区","上海市徐汇区石龙路759号",121.439110088023,31.156898329724,2022-03-29
"徐汇区","上海市徐汇区罗秀二村",121.454301781655,31.1384360811623,2022-03-29
"徐汇区","上海市徐汇区老沪闵路706弄",121.436863246281,31.1521170369213,2022-03-29
"徐汇区","上海市徐汇区龙川北路162号",121.445081737592,31.1477501086425,2022-03-29
"徐汇区","上海市徐汇区龙川北路426号",121.444311636248,31.1528300704782,2022-03-29
"徐汇区","上海市徐汇区罗香路286号",121.441025095709,31.140646179277,2022-03-29
"徐汇区","上海市徐汇区长桥七村",121.44386203434,31.1374483122908,2022-03-29
"徐汇区","上海市徐汇区龙川北路418弄",121.44413422091,31.1512602923946,2022-03-29
"徐汇区","上海市徐汇区老沪闵路680弄",121.435563757531,31.1511610118171,2022-03-29
"徐汇区","上海市徐汇区百色路238弄",121.451933129686,31.1496612056011,2022-03-29
"徐汇区","上海市徐汇区老沪闵路864号",121.439661018792,31.141804215302,2022-03-29
"徐汇区","上海市徐汇区龙瑞路128弄",121.461031886536,31.1477541177855,2022-03-29
"徐汇区","上海市徐汇区园南二村",121.449341877612,31.1485310040404,2022-03-29
"徐汇区","上海市徐汇区罗秀路105号",121.455458978813,31.1406118714596,2022-03-29
"徐汇区","上海市徐汇区龙吴路1323弄",121.456191996109,31.1473358868488,2022-03-29
"徐汇区","上海市徐汇区上中路289弄",121.449155209727,31.1452407636458,2022-03-29
"徐汇区","上海市徐汇区宜山路299号",121.436317795176,31.1950999750355,2022-03-29
"徐汇区","上海市徐汇区裕德路66弄",121.441771138435,31.1908449354668,2022-03-29
"徐汇区","上海市徐汇区南丹路333弄",121.436679902127,31.1965904828723,2022-03-29
"徐汇区","上海市徐汇区宛平南路590弄",121.454323071496,31.1956106625576,2022-03-29
"徐汇区","上海市徐汇区零陵路675号",121.450615944317,31.1926290514092,2022-03-29
"徐汇区","上海市徐汇区天钥桥路64号",121.44753682252,31.1994241919908,2022-03-29
"徐汇区","上海市徐汇区虹桥路693弄",121.431831298137,31.2018613974462,2022-03-29
"徐汇区","上海市徐汇区宛平南路170弄",121.451968792415,31.2002239452287,2022-03-29
"徐汇区","上海市徐汇区中漕路38弄",121.44074805829,31.1903196257023,2022-03-29
"徐汇区","上海市徐汇区江南二村",121.468645025733,31.1983538710604,2022-03-29
"徐汇区","上海市徐汇区瑞金南路458弄",121.473380533059,31.2067154391574,2022-03-29
"徐汇区","上海市徐汇区中山南二路262号",121.470567399524,31.1978104560446,2022-03-29
"徐汇区","上海市徐汇区肇嘉浜路9弄",121.443396352764,31.1945567728227,2022-03-29
"徐汇区","上海市徐汇区宜山路701弄",121.424135694494,31.1798146657762,2022-03-29
"徐汇区","上海市徐汇区田林九村",121.428338416822,31.1790096921167,2022-03-29
"徐汇区","上海市徐汇区柳州路460号",121.429827178544,31.178442066447,2022-03-29
"徐汇区","上海市徐汇区田林路89弄",121.425384967967,31.176957835365,2022-03-29
"徐汇区","上海市徐汇区桂林路303弄",121.424907518588,31.1752011507849,2022-03-29
"徐汇区","上海市徐汇区田林路65弄",121.426129663234,31.1767201677456,2022-03-29
"徐汇区","上海市徐汇区金祥苑",121.425745457968,31.1857796126133,2022-03-29
"徐汇区","上海市徐汇区天平路222弄",121.444208241284,31.2055795933954,2022-03-29
"徐汇区","上海市徐汇区嘉善路69弄",121.465943282081,31.2180489735707,2022-03-29
"徐汇区","上海市徐汇区嘉善路77号",121.465940048181,31.2179206569823,2022-03-29
"徐汇区","上海市徐汇区襄阳南路360号",121.464279979599,31.2138248565786,2022-03-29
"徐汇区","上海市徐汇区龙吴路338弄",121.452778974154,31.1722357295196,2022-03-29
"徐汇区","上海市徐汇区龙水南路290号",121.463548669083,31.1603860853814,2022-03-29
"徐汇区","上海市徐汇区龙水南路336弄",121.459753058812,31.1595157423346,2022-03-29
"徐汇区","上海市徐汇区龙水南路359号",121.461166093379,31.159946047868,2022-03-29
"徐汇区","上海市徐汇区龙南四村",121.458213273337,31.1634543935241,2022-03-29
"徐汇区","上海市徐汇区黄石路169弄",121.463303252018,31.1638340045102,2022-03-29
"徐汇区","上海市徐汇区龙吴路238弄",121.452202369814,31.1727374269,2022-03-29
"徐汇区","上海市徐汇区龙吴路410弄",121.458058764789,31.1641434705308,2022-03-29
"徐汇区","上海市徐汇区上中西路135弄",121.436167508664,31.1415630587805,2022-03-29
"徐汇区","上海市徐汇区老沪闵路777号",121.436302793474,31.146524685046,2022-03-29
"徐汇区","上海市徐汇区罗秀路717弄",121.441354324679,31.1376876248454,2022-03-29
"徐汇区","上海市徐汇区上中西路55弄",121.436471585079,31.1407341895892,2022-03-29
"徐汇区","上海市徐汇区桂平路67弄",121.418314225636,31.1561612228732,2022-03-29
"徐汇区","上海市徐汇区桂平路264号",121.414342996638,31.1644128426438,2022-03-29
"徐汇区","上海市徐汇区康健路341弄",121.425975424178,31.1712005019,2022-03-29
"徐汇区","上海市徐汇区桂林东街150弄",121.430592355177,31.1638810502092,2022-03-29
"徐汇区","上海市徐汇区桂林西街201弄",121.427928070865,31.1588939975685,2022-03-29
"徐汇区","上海市徐汇区浦北路24弄",121.420573194502,31.1599002362596,2022-03-29
"徐汇区","上海市徐汇区桂平路218弄",121.41747035744,31.1581428459049,2022-03-29
"徐汇区","上海市徐汇区桂林西街358弄",121.42616487681,31.1584623738722,2022-03-29
"徐汇区","上海市徐汇区百花街350号",121.420652245387,31.1522299915635,2022-03-29
"徐汇区","上海市徐汇区桂林西街111弄",121.425720035922,31.1569824619793,2022-03-29
"徐汇区","上海市徐汇区钦州南路768弄",121.417984906836,31.1624747676004,2022-03-29
"徐汇区","上海市徐汇区华发路180弄",121.458213542829,31.1335297432581,2022-03-29
"徐汇区","上海市徐汇区龙吟路132号",121.460222925435,31.1246950242391,2022-03-29
"徐汇区","上海市徐汇区龙吟路69号",121.460422655739,31.1244125454719,2022-03-29
"徐汇区","上海市徐汇区华发路333弄",121.455827733225,31.1321893093888,2022-03-29
"徐汇区","上海市徐汇区老沪闵路1296弄",121.44694492902,31.1273331868082,2022-03-29
"徐汇区","上海市徐汇区老沪闵路1389弄",121.442207429785,31.1202481054172,2022-03-29
"徐汇区","上海市徐汇区龙吟路501弄",121.459716318116,31.1198596045106,2022-03-29
"徐汇区","上海市徐汇区华发路79号",121.46127065614,31.1331840111368,2022-03-29
"徐汇区","上海市徐汇区龙吴路2038弄",121.462679109349,31.1337003678502,2022-03-29
"徐汇区","上海市徐汇区老沪闵路1070弄",121.443571971491,31.1344116094143,2022-03-29
"徐汇区","上海市徐汇区乌鲁木齐中路190号",121.45202673312,31.2196078284974,2022-03-29
"徐汇区","上海市徐汇区乌鲁木齐中路301弄",121.453408686317,31.217970918194,2022-03-29
"徐汇区","上海市徐汇区虹梅路1035弄",121.410696954234,31.1628498247082,2022-03-29
"徐汇区","上海市徐汇区钦州北路1018弄",121.415583556547,31.1861275451876,2022-03-29
"徐汇区","上海市徐汇区虹梅路2666弄",121.402816748809,31.1804012834667,2022-03-29
"徐汇区","上海市徐汇区龙山新村",121.452206484053,31.1906486976297,2022-03-29
"徐汇区","上海市徐汇区中山南二路981弄",121.453756779702,31.1886549720492,2022-03-29
"徐汇区","上海市徐汇区枫林新村",121.46613228556,31.1972549910549,2022-03-29
"徐汇区","上海市徐汇区天钥桥路905弄",121.453126798048,31.1863627947601,2022-03-29
"徐汇区","上海市徐汇区斜土路2096弄",121.457535681491,31.198649709287,2022-03-29
"徐汇区","上海市徐汇区宛南一村",121.457053291432,31.1903627194398,2022-03-29
"徐汇区","上海市徐汇区斜土路2183弄",121.454883973456,31.1998032455031,2022-03-29
"徐汇区","上海市徐汇区南宁路501弄",121.449311245394,31.1712522558279,2022-03-29
"徐汇区","上海市徐汇区融水路99弄",121.450834142725,31.1668946295579,2022-03-29
"徐汇区","上海市徐汇区康健路43弄",121.437491700816,31.1721329951599,2022-03-29
"徐汇区","上海市徐汇区漕溪二村",121.443639883388,31.1780744866355,2022-03-29
"徐汇区","上海市徐汇区漕溪四村",121.446825274726,31.1784801451306,2022-03-29
"徐汇区","上海市徐汇区龙吴路401弄",121.454905485306,31.1655046509148,2022-03-29
"徐汇区","上海市徐汇区沪闵路9202号",121.438911203183,31.1675660688234,2022-03-29
"徐汇区","上海市徐汇区康健路55弄",121.43671637333,31.1720895068218,2022-03-29
"徐汇区","上海市徐汇区龙吴路11弄",121.450063216937,31.1802756186035,2022-03-29
"徐汇区","上海市徐汇区龙漕路58弄",121.442918813555,31.1740632236563,2022-03-29
"徐汇区","上海市徐汇区东泉路25号",121.452078655179,31.1600706584196,2022-03-29
"徐汇区","上海市徐汇区漕溪三村",121.444011063224,31.1760910446685,2022-03-29
"徐汇区","上海市徐汇区三江路301弄",121.445765184394,31.1702192574716,2022-03-29
"徐汇区","上海市徐汇区沪闵路9228号",121.439324423718,31.1681547715696,2022-03-29
"徐汇区","上海市徐汇区嘉善路140弄",121.465492153054,31.2165643661385,2022-03-29
"徐汇区","上海市徐汇区已对相关居住地落实终末消毒措施",121.443396352764,31.1945567728227,2022-03-29
"长宁区","上海市长宁区长宁路476弄",121.431701043838,31.2294174956496,2022-03-29
"长宁区","上海市长宁区新泾五村",121.373090292364,31.2236284904824,2022-03-29
"长宁区","上海市长宁区新泾一村",121.377624938579,31.2238128474236,2022-03-29
"长宁区","上海市长宁区虹桥机场新村",121.425393052716,31.2043622695753,2022-03-29
"长宁区","上海市长宁区玉屏南路9号",121.418097464517,31.218330080476,2022-03-29
"长宁区","上海市长宁区定西路1310弄住宅",121.429546278411,31.2222665693493,2022-03-29
"长宁区","上海市长宁区天山五村",121.404386807179,31.2170167226262,2022-03-29
"长宁区","上海市长宁区哈密路780弄",121.375266167971,31.2101740085245,2022-03-29
"长宁区","上海市长宁区虹桥路1041弄",121.419038080216,31.2040318558953,2022-03-29
"长宁区","上海市长宁区金钟路333弄",121.370157594366,31.225717384686,2022-03-29
"长宁区","上海市长宁区万航渡路1424弄",121.427913877638,31.2312131508476,2022-03-29
"长宁区","上海市长宁区新华路73弄",121.436927295464,31.2078374497496,2022-03-29
"长宁区","上海市长宁区安顺路231弄住宅",121.423082880436,31.2068536546628,2022-03-29
"长宁区","上海市长宁区仙霞西路888弄",121.356563177761,31.2162503635159,2022-03-29
"长宁区","上海市长宁区蒲松北路17弄",121.381465913278,31.2232445667587,2022-03-29
"长宁区","上海市长宁区虹桥路1077弄",121.418879349633,31.2027466367506,2022-03-29
"长宁区","上海市长宁区联建新村",121.414996513896,31.2114993529339,2022-03-29
"长宁区","上海市长宁区定西路710弄",121.432318898368,31.2134388079781,2022-03-29
"长宁区","上海市长宁区虹桥路1829弄",121.395856767548,31.2054085590028,2022-03-29
"长宁区","上海市长宁区延安西路1264弄",121.433207502178,31.2161726154701,2022-03-29
"长宁区","上海市长宁区天山路840弄",121.409858565702,31.2180119918524,2022-03-29
"长宁区","上海市长宁区娄山关路470弄",121.410576760957,31.2141050496559,2022-03-29
"长宁区","上海市长宁区泉口路109弄",121.378231025306,31.2177088801825,2022-03-29
"长宁区","上海市长宁区已对相关居住地落实终末消毒措施",121.430454375451,31.2268479682254,2022-03-29
"普陀区","上海市普陀区石泉路450弄",121.422891900685,31.2535128856685,2022-03-29
"普陀区","上海市普陀区金沙江路753弄",121.406545794642,31.2373795332302,2022-03-29
"普陀区","上海市普陀区长寿路28弄",121.451453165052,31.2513741373454,2022-03-29
"普陀区","上海市普陀区曹杨九村",121.409897192838,31.2381495016077,2022-03-29
"普陀区","上海市普陀区长风一村",121.409779784308,31.2374634388639,2022-03-29
"普陀区","上海市普陀区金沙江路759号",121.40611505715,31.2376632837176,2022-03-29
"普陀区","上海市普陀区武威东路788弄",121.449732101526,31.2719072493736,2022-03-29
"普陀区","上海市普陀区白玉路669弄",121.428100635354,31.234186277431,2022-03-29
"普陀区","上海市普陀区宜川一村",121.447123422325,31.2685465687369,2022-03-29
"普陀区","上海市普陀区中山北路1560号",121.445349807926,31.2609628524691,2022-03-29
"普陀区","上海市普陀区石泉路130弄",121.432140225402,31.2571131146903,2022-03-29
"普陀区","上海市普陀区宜川五村",121.450467993399,31.2674891789892,2022-03-29
"普陀区","上海市普陀区中潭路99弄",121.443888264861,31.2591168348233,2022-03-29
"普陀区","上海市普陀区棕榈路451弄",121.364649634131,31.2453615011584,2022-03-29
"普陀区","上海市普陀区三源路52号",121.413368963973,31.2670002585423,2022-03-29
"普陀区","上海市普陀区桃浦路1861号",121.373345950112,31.2689647988452,2022-03-29
"普陀区","上海市普陀区泰山一村",121.453747616986,31.2664736784822,2022-03-29
"普陀区","上海市普陀区宜川三村",121.447419503821,31.263551892326,2022-03-29
"普陀区","上海市普陀区中山北路2605弄",121.4286673763,31.2500346935075,2022-03-29
"普陀区","上海市普陀区兰凤新村",121.430679670473,31.2551283367716,2022-03-29
"普陀区","上海市普陀区铜川路276弄",121.422128520662,31.2591907657489,2022-03-29
"普陀区","上海市普陀区华池路58弄",121.434798221575,31.2641542678854,2022-03-29
"普陀区","上海市普陀区泰山三村",121.454927990426,31.2650678556895,2022-03-29
"普陀区","上海市普陀区交通路1913弄",121.446762752662,31.2631853411164,2022-03-29
"普陀区","上海市普陀区顺义路299弄",121.422356959754,31.2373538289134,2022-03-29
"普陀区","上海市普陀区新村路349弄",121.440943349908,31.2741473787659,2022-03-29
"普陀区","上海市普陀区柳园路599号",121.348642099435,31.3014796966877,2022-03-29
"普陀区","上海市普陀区昌化路994弄",121.451138488632,31.2523540686302,2022-03-29
"普陀区","上海市普陀区金鼎路298弄",121.396664613693,31.2641366735736,2022-03-29
"普陀区","上海市普陀区交通路1517弄",121.450490001884,31.2623974440707,2022-03-29
"普陀区","上海市普陀区祁安路88弄",121.392503842232,31.2903482911758,2022-03-29
"普陀区","上海市普陀区金沙江路2348弄",121.372580054835,31.2443258466508,2022-03-29
"普陀区","上海市普陀区石泉路300弄",121.434236331479,31.2580655893844,2022-03-29
"普陀区","上海市普陀区顺义路100弄",121.425882090236,31.2370260789573,2022-03-29
"普陀区","上海市普陀区长寿路505弄",121.441715623155,31.243599538652,2022-03-29
"普陀区","上海市普陀区祁连山南路2727弄",121.375016079717,31.2656585692924,2022-03-29
"普陀区","上海市普陀区交通西路108弄",121.454447486809,31.2621174727863,2022-03-29
"普陀区","上海市普陀区大渡河路1262弄",121.402631428382,31.2431244637904,2022-03-29
"普陀区","上海市普陀区真光路1339弄",121.387637272132,31.2516845490758,2022-03-29
"普陀区","上海市普陀区真北支路263弄",121.401193241261,31.2631300110511,2022-03-29
"普陀区","上海市普陀区大渡河路658号",121.402628463974,31.2351949498528,2022-03-29
"普陀区","上海市普陀区普雄路82弄",121.428633510182,31.2421393414841,2022-03-29
"普陀区","上海市普陀区枣阳路465弄",121.408361180247,31.2357748138537,2022-03-29
"普陀区","上海市普陀区中山北路3671弄",121.414423125489,31.2312606258947,2022-03-29
"普陀区","上海市普陀区长风二村",121.408447417576,31.2403716835701,2022-03-29
"普陀区","上海市普陀区志丹路211号",121.436421100309,31.2735012405916,2022-03-29
"普陀区","上海市普陀区远景路97弄",121.453840052623,31.2578487328491,2022-03-29
"普陀区","上海市普陀区农林路101弄",121.440924036339,31.2614284990856,2022-03-29
"普陀区","上海市普陀区铜川路2060弄",121.387079873563,31.2615079072677,2022-03-29
"普陀区","上海市普陀区武威东路477弄",121.411292232199,31.2819319044574,2022-03-29
"普陀区","上海市普陀区桃浦路743弄",121.39476963822,31.2652756669229,2022-03-29
"普陀区","上海市普陀区中山北路平民后村",121.434532053652,31.2569070603073,2022-03-29
"普陀区","上海市普陀区曹杨一村",121.413827998089,31.2451058689164,2022-03-29
"普陀区","上海市普陀区千阳南路99弄",121.374098640299,31.234555952852,2022-03-29
"普陀区","上海市普陀区铜川路1781弄",121.393772968257,31.2573308990162,2022-03-29
"普陀区","上海市普陀区新村路285弄",121.440960956696,31.2728978450436,2022-03-29
"普陀区","上海市普陀区曹杨七村",121.416892028353,31.246969606438,2022-03-29
"普陀区","上海市普陀区同普路1441弄",121.37130607796,31.2400048098991,2022-03-29
"普陀区","上海市普陀区长寿路393号",121.44380005126,31.2461430584432,2022-03-29
"普陀区","上海市普陀区三源路41弄",121.414370844109,31.2663561544207,2022-03-29
"普陀区","上海市普陀区武宁路8弄",121.403569349165,31.2549733682796,2022-03-29
"普陀区","上海市普陀区中山北路1243弄",121.450589354474,31.2635302851367,2022-03-29
"普陀区","上海市普陀区金沙江路875弄",121.404254666439,31.2371538290179,2022-03-29
"普陀区","上海市普陀区东新支路55弄",121.43136885046,31.2490687075801,2022-03-29
"普陀区","上海市普陀区真北路2904弄",121.400707168149,31.2714888781142,2022-03-29
"普陀区","上海市普陀区梅川路43弄",121.409241519647,31.2461410516879,2022-03-29
"普陀区","上海市普陀区澳门路660弄",121.442532362524,31.2521310246081,2022-03-29
"普陀区","上海市普陀区岚皋路321号",121.42841135923,31.2600329413614,2022-03-29
"普陀区","上海市普陀区灵石路1620弄",121.429462376676,31.2714767636842,2022-03-29
"普陀区","上海市普陀区已对相关居住地落实终末消毒措施",121.403569349165,31.2549733682796,2022-03-29
"虹口区","上海市虹口区吴淞路355弄",121.495504899464,31.2557239752274,2022-03-29
"虹口区","上海市虹口区赤峰路525号",121.49105020244,31.2880342566204,2022-03-29
"虹口区","上海市虹口区北苏州路400号",121.490087937578,31.2488658770524,2022-03-29
"虹口区","上海市虹口区广灵二路160号",121.483728563381,31.2887198710382,2022-03-29
"虹口区","上海市虹口区石油新村",121.48697099712,31.2879457674792,2022-03-29
"虹口区","上海市虹口区长春路158号",121.493969695348,31.2663607843931,2022-03-29
"虹口区","上海市虹口区公平路369号",121.51103633224,31.2605764581639,2022-03-29
"虹口区","上海市虹口区水电路120号",121.479174603599,31.2795089803404,2022-03-29
"虹口区","上海市虹口区广粤路219号",121.471768523822,31.2908476584023,2022-03-29
"虹口区","上海市虹口区广灵二路220号",121.482163086369,31.2905843588211,2022-03-29
"虹口区","上海市虹口区广灵一路265号",121.486262323903,31.2917196352756,2022-03-29
"虹口区","上海市虹口区横浜路206弄",121.484597045148,31.2702033508643,2022-03-29
"虹口区","上海市虹口区同心路125弄",121.48450595697,31.2729028604958,2022-03-29
"虹口区","上海市虹口区同心路133弄",121.484233590739,31.274202625147,2022-03-29
"虹口区","上海市虹口区场中路755弄",121.4771157772,31.3128107696889,2022-03-29
"虹口区","上海市虹口区车站北路507弄",121.479871688674,31.3026197773295,2022-03-29
"虹口区","上海市虹口区车站西路80弄",121.489782603535,31.3018271990629,2022-03-29
"虹口区","上海市虹口区大连西路420弄",121.494248102683,31.282017778758,2022-03-29
"虹口区","上海市虹口区东余杭路980号",121.511533185018,31.2631780872464,2022-03-29
"虹口区","上海市虹口区多伦路201弄",121.488095316296,31.269706651114,2022-03-29
"虹口区","上海市虹口区飞虹支路83弄",121.509606912581,31.2681014679884,2022-03-29
"虹口区","上海市虹口区广灵二村",121.484946845314,31.2917500305005,2022-03-29
"虹口区","上海市虹口区广灵四路866弄",121.46941900576,31.2916910143821,2022-03-29
"虹口区","上海市虹口区西宝兴路949弄",121.475029552484,31.2755931874033,2022-03-29
"虹口区","上海市虹口区广中路564号",121.474165292753,31.2858065729015,2022-03-29
"虹口区","上海市虹口区广灵一路263号",121.486281008657,31.2913818927447,2022-03-29
"虹口区","上海市虹口区海伦路236号",121.499602340387,31.2631793219477,2022-03-29
"虹口区","上海市虹口区海平路18号",121.51299589588,31.2559810447591,2022-03-29
"虹口区","上海市虹口区邯郸路47弄",121.501451322618,31.2978224738985,2022-03-29
"虹口区","上海市虹口区虹湾路288弄",121.474703916736,31.3194341171327,2022-03-29
"虹口区","上海市虹口区虹湾路313弄",121.476694022763,31.3190298409555,2022-03-29
"虹口区","上海市虹口区通州路392弄",121.501437398883,31.2642075909767,2022-03-29
"虹口区","上海市虹口区池沟路348弄",121.486298705276,31.3099638613929,2022-03-29
"虹口区","上海市虹口区凉城路126弄",121.476346860723,31.2873917494866,2022-03-29
"虹口区","上海市虹口区凉城路203号",121.476065388567,31.2891209612386,2022-03-29
"虹口区","上海市虹口区凉城四村",121.478733445763,31.2989852010278,2022-03-29
"虹口区","上海市虹口区临平路333号",121.502142568708,31.2683045037026,2022-03-29
"虹口区","上海市虹口区四平路327弄",121.497287856241,31.2717911210581,2022-03-29
"虹口区","上海市虹口区欧阳路354弄",121.513691633497,31.2648801846945,2022-03-29
"虹口区","上海市虹口区曲阳路269弄",121.497535968222,31.2768933775627,2022-03-29
"虹口区","上海市虹口区曲阳路920弄",121.498688673853,31.2963530184847,2022-03-29
"虹口区","上海市虹口区山阴路85弄",121.492920564343,31.2709641752509,2022-03-29
"虹口区","上海市虹口区四川北路2023弄",121.48945076948,31.2695980820892,2022-03-29
"虹口区","上海市虹口区罗浮路89弄",121.487438834629,31.2580202887903,2022-03-29
"虹口区","上海市虹口区天宝西路231弄",121.502506023118,31.2800709010176,2022-03-29
"虹口区","上海市虹口区天通庵路570号",121.482444345824,31.268940415001,2022-03-29
"虹口区","上海市虹口区甜爱路26号",121.489911959529,31.2712028382569,2022-03-29
"虹口区","上海市虹口区万安路969号",121.47954326818,31.3070466755776,2022-03-29
"虹口区","上海市虹口区万安路979弄",121.4789873069,31.3074114348506,2022-03-29
"虹口区","上海市虹口区汶水东路298弄",121.491495672143,31.29663867274,2022-03-29
"虹口区","上海市虹口区吴淞路355弄",121.495504899464,31.2557239752274,2022-03-29
"虹口区","上海市虹口区物华路98弄",121.500522744213,31.2646287728779,2022-03-29
"虹口区","上海市虹口区祥德路180弄",121.494016137743,31.2777221226424,2022-03-29
"虹口区","上海市虹口区运光路70弄",121.502286117929,31.2963335788439,2022-03-29
"虹口区","上海市虹口区运光路71弄",121.502083011053,31.2959918416394,2022-03-29
"虹口区","上海市虹口区长春路348号",121.490950490529,31.269071053687,2022-03-29
"虹口区","上海市虹口区广中路465号",121.476221064912,31.285758585502,2022-03-29
"虹口区","上海市虹口区虬江支路180弄",121.48974595267,31.2594864888665,2022-03-29
"虹口区","上海市虹口区已对相关居住地落实终末消毒措施",121.511586454535,31.2697466989314,2022-03-29
"杨浦区","上海市杨浦区国定路555弄",121.51217592261,31.3088040478,2022-03-29
"杨浦区","上海市杨浦区三门路358弄",121.499199540196,31.3169780467797,2022-03-29
"杨浦区","上海市杨浦区双阳支路34号",121.547212173094,31.2807196169902,2022-03-29
"杨浦区","上海市杨浦区双阳路37号",121.545053185631,31.2780885396613,2022-03-29
"杨浦区","上海市杨浦区黄兴路1413弄",121.529714349556,31.2879476190401,2022-03-29
"杨浦区","上海市杨浦区世界路99弄",121.531495150399,31.3261684279167,2022-03-29
"杨浦区","上海市杨浦区江浦路1315弄",121.525653110346,31.2769588842612,2022-03-29
"杨浦区","上海市杨浦区控江二村",121.532540867844,31.2855664042064,2022-03-29
"杨浦区","上海市杨浦区控江路1197弄",121.534276663581,31.2837947070212,2022-03-29
"杨浦区","上海市杨浦区民府路517号",121.517666276057,31.3214630295506,2022-03-29
"杨浦区","上海市杨浦区凤城二村",121.525134338914,31.2841340200324,2022-03-29
"杨浦区","上海市杨浦区凤六新苑",121.523210976986,31.2902358888224,2022-03-29
"杨浦区","上海市杨浦区中山北二路99弄",121.526292524208,31.290833154958,2022-03-29
"杨浦区","上海市杨浦区政立路717弄",121.505710548363,31.3138367953923,2022-03-29
"杨浦区","上海市杨浦区恒耀路66弄",121.515005764628,31.3490095431007,2022-03-29
"杨浦区","上海市杨浦区黄兴路1039弄",121.530002525964,31.2861163302003,2022-03-29
"杨浦区","上海市杨浦区源泉路118弄",121.537648812634,31.2835882485692,2022-03-29
"杨浦区","上海市杨浦区双阳路503号",121.537609916006,31.2893091235604,2022-03-29
"杨浦区","上海市杨浦区延吉东路5弄",121.532519937325,31.2655241446571,2022-03-29
"杨浦区","上海市杨浦区顺平路1260弄",121.541741133216,31.2799432867599,2022-03-29
"杨浦区","上海市杨浦区延吉四村",121.544679580369,31.299251408193,2022-03-29
"杨浦区","上海市杨浦区锦西路30弄",121.519901709318,31.2828509042502,2022-03-29
"杨浦区","上海市杨浦区顺平路60弄",121.56168396469,31.2897777919015,2022-03-29
"杨浦区","上海市杨浦区控江路1209号",121.533105093534,31.2835982011732,2022-03-29
"杨浦区","上海市杨浦区松花江路287号",121.540881185351,31.2978070458554,2022-03-29
"杨浦区","上海市杨浦区永吉路121号",121.540111876512,31.2917065977268,2022-03-29
"杨浦区","上海市杨浦区海州路8号",121.554092205164,31.2732203766526,2022-03-29
"杨浦区","上海市杨浦区凤城三村",121.528297991259,31.2878228700411,2022-03-29
"杨浦区","上海市杨浦区长阳路1900弄",121.546077433573,31.276999237599,2022-03-29
"杨浦区","上海市杨浦区周家嘴路3118弄",121.512762516108,31.3114739036586,2022-03-29
"杨浦区","上海市杨浦区双阳路50弄",121.544640683741,31.2780455634713,2022-03-29
"杨浦区","上海市杨浦区宁武路445弄",121.548177582025,31.2768785633207,2022-03-29
"杨浦区","上海市杨浦区松花一村",121.547631861428,31.3012392597695,2022-03-29
"杨浦区","上海市杨浦区延吉东路100号",121.550273777933,31.300292933536,2022-03-29
"杨浦区","上海市杨浦区双辽路200弄",121.522798924249,31.2784074270024,2022-03-29
"杨浦区","上海市杨浦区军工路400弄",121.562258970047,31.2948290772144,2022-03-29
"杨浦区","上海市杨浦区江浦路989弄",121.528908749175,31.2712579320553,2022-03-29
"杨浦区","上海市杨浦区凤南一村",121.532808345972,31.2815290634777,2022-03-29
"杨浦区","上海市杨浦区鞍山六村",121.511773391911,31.2797154478117,2022-03-29
"杨浦区","上海市杨浦区包头南路629弄",121.54559109097,31.3059884105333,2022-03-29
"杨浦区","上海市杨浦区四平路2065弄",121.518430464554,31.3002697149448,2022-03-29
"杨浦区","上海市杨浦区市光路70弄",121.520399999385,31.3178226319349,2022-03-29
"杨浦区","上海市杨浦区国伟路500弄",121.542613028544,31.3402368577107,2022-03-29
"杨浦区","上海市杨浦区平凉路1545弄",121.545825458878,31.2725263921886,2022-03-29
"杨浦区","上海市杨浦区殷行路305弄",121.546045274236,31.3327019171164,2022-03-29
"杨浦区","上海市杨浦区眉州路530弄",121.539919279811,31.2698159916461,2022-03-29
"杨浦区","上海市杨浦区军工路2866号",121.549025851918,31.3410077515834,2022-03-29
"杨浦区","上海市杨浦区控江五村",121.536617288417,31.2934922620784,2022-03-29
"杨浦区","上海市杨浦区控江四村",121.531554977546,31.2909119209767,2022-03-29
"杨浦区","上海市杨浦区长白二村",121.550028001545,31.3007088616052,2022-03-29
"杨浦区","上海市杨浦区河间路88弄",121.538746002984,31.2699228628259,2022-03-29
"杨浦区","上海市杨浦区平凉路2545弄",121.545825458878,31.2725263921886,2022-03-29
"杨浦区","上海市杨浦区眉州路954号",121.535750064278,31.2759042131161,2022-03-29
"杨浦区","上海市杨浦区本溪路141弄",121.523868985773,31.2823774948043,2022-03-29
"杨浦区","上海市杨浦区长阳路900号",121.527896448696,31.2691536962582,2022-03-29
"杨浦区","上海市杨浦区隆昌路203号",121.55517897517,31.2755049179475,2022-03-29
"杨浦区","上海市杨浦区工农四村",121.547265083288,31.328559402651,2022-03-29
"杨浦区","上海市杨浦区邯郸路470弄",121.518081832186,31.306176461715,2022-03-29
"杨浦区","上海市杨浦区政本路350弄",121.5214638626,31.2909151611053,2022-03-29
"杨浦区","上海市杨浦区国顺路300弄",121.519068171636,31.2976118808898,2022-03-29
"杨浦区","上海市杨浦区隆昌路235弄",121.553913981351,31.2760598413214,2022-03-29
"杨浦区","上海市杨浦区市光二村",121.548000975162,31.322108912847,2022-03-29
"杨浦区","上海市杨浦区国和一村",121.535612713366,31.3224029714254,2022-03-29
"杨浦区","上海市杨浦区包头路1150弄",121.543856732522,31.3369528924666,2022-03-29
"杨浦区","上海市杨浦区市光一村",121.542728011649,31.322038964866,2022-03-29
"杨浦区","上海市杨浦区殷行路451弄",121.54292878293,31.333609744767,2022-03-29
"杨浦区","上海市杨浦区中原路990弄",121.540077740903,31.3345621330624,2022-03-29
"杨浦区","上海市杨浦区市光四村",121.541898785833,31.3257489117535,2022-03-29
"杨浦区","上海市杨浦区民星路408弄",121.543835442682,31.3177841472147,2022-03-29
"杨浦区","上海市杨浦区殷行路280弄",121.546307399784,31.3353625295916,2022-03-29
"杨浦区","上海市杨浦区江浦路160弄",121.537465648141,31.2605577056136,2022-03-29
"杨浦区","上海市杨浦区杭州路849弄",121.551684656567,31.2734443734282,2022-03-29
"杨浦区","上海市杨浦区松花江路2号",121.55117495802,31.3036466864857,2022-03-29
"杨浦区","上海市杨浦区翔殷路785号",121.534637423073,31.3096913601005,2022-03-29
"杨浦区","上海市杨浦区丹阳路188弄",121.540168290098,31.2618158159074,2022-03-29
"杨浦区","上海市杨浦区营口路600弄",121.540632714047,31.3014316402085,2022-03-29
"杨浦区","上海市杨浦区已对相关居住地落实终末消毒措施",121.532519937325,31.2655241446571,2022-03-29
"宝山区","上海市宝山区竹韵路58弄",121.452594462203,31.3713189153604,2022-03-29
"宝山区","上海市宝山区朱家弄村",121.395986662525,31.3476683389689,2022-03-29
"宝山区","上海市宝山区真金路1202号",121.413157682517,31.2908187286575,2022-03-29
"宝山区","上海市宝山区真华路1615弄",121.417625315141,31.2925048935079,2022-03-29
"宝山区","上海市宝山区真大路358弄",121.406913560918,31.2951408102778,2022-03-29
"宝山区","上海市宝山区长江西路1430号",121.459958501282,31.3424701038485,2022-03-29
"宝山区","上海市宝山区真金路1106号",121.413228019839,31.2886029150022,2022-03-29
"宝山区","上海市宝山区长江南路926号",121.485757835528,31.3469725952097,2022-03-29
"宝山区","上海市宝山区长江南路579号",121.487454375315,31.3430186920626,2022-03-29
"宝山区","上海市宝山区张墅村",121.335100862517,31.3939398911552,2022-03-29
"宝山区","上海市宝山区蕴川路1623弄",121.430222253307,31.4108360600659,2022-03-29
"宝山区","上海市宝山区月川路33弄",121.411631012303,31.4516685801236,2022-03-29
"宝山区","上海市宝山区长江西路1000号",121.468585647739,31.3456568049603,2022-03-29
"宝山区","上海市宝山区远景村",121.342295571007,31.4087056190161,2022-03-29
"宝山区","上海市宝山区永顺路81弄",121.355972002905,31.4183699913323,2022-03-29
"宝山区","上海市宝山区影园路345弄",121.448459202618,31.380860238169,2022-03-29
"宝山区","上海市宝山区殷高路23弄",121.496700544098,31.3269551698663,2022-03-29
"宝山区","上海市宝山区逸仙路3808号",121.507580550943,31.3580659432036,2022-03-29
"宝山区","上海市宝山区杨泰一村",121.447667975125,31.3792338614304,2022-03-29
"宝山区","上海市宝山区星星村",121.417886811875,31.3826673157729,2022-03-29
"宝山区","上海市宝山区长江路848弄",121.490973397319,31.3523174453853,2022-03-29
"宝山区","上海市宝山区新陆村",121.334549392764,31.5017306035846,2022-03-29
"宝山区","上海市宝山区新二路1088弄",121.480990797679,31.3351778529679,2022-03-29
"宝山区","上海市宝山区祥和路3493弄",121.405731480697,31.3548603163456,2022-03-29
"宝山区","上海市宝山区西界泾村",121.496563013525,31.4102794734761,2022-03-29
"宝山区","上海市宝山区西浜村",121.447716483622,31.3653429124013,2022-03-29
"宝山区","上海市宝山区藻南路539号",121.468337625587,31.3589886332431,2022-03-29
"宝山区","上海市宝山区王家村",121.395228851997,31.3915288634113,2022-03-29
"宝山区","上海市宝山区通南路99号",121.481559335236,31.3436288047175,2022-03-29
"宝山区","上海市宝山区通河六村",121.458292414052,31.337235877828,2022-03-29
"宝山区","上海市宝山区铁山路69号",121.475410703512,31.3711168129759,2022-03-29
"宝山区","上海市宝山区天家路99弄",121.346396964474,31.3896395763877,2022-03-29
"宝山区","上海市宝山区杨泰路99弄",121.456365818225,31.3713307085066,2022-03-29
"宝山区","上海市宝山区塘西街397弄",121.348745404569,31.4282357219895,2022-03-29
"宝山区","上海市宝山区谭杨村",121.401169256504,31.3806532239243,2022-03-29
"宝山区","上海市宝山区泰和西路3527弄",121.406642272654,31.3534617613297,2022-03-29
"宝山区","上海市宝山区塔源路58弄",121.409077668722,31.4541533634886,2022-03-29
"宝山区","上海市宝山区淞塘路98弄",121.496502916886,31.3395088282548,2022-03-29
"宝山区","上海市宝山区淞南五村",121.491637424752,31.3448847930404,2022-03-29
"宝山区","上海市宝山区杨泰路338弄",121.446317013468,31.3778280423042,2022-03-29
"宝山区","上海市宝山区淞南六村",121.49087404473,31.3429617901604,2022-03-29
"宝山区","上海市宝山区通南路369号",121.474700503176,31.3418282939441,2022-03-29
"宝山区","上海市宝山区美平路288弄",121.355792341803,31.3963800615977,2022-03-29
"宝山区","上海市宝山区淞滨支路120弄",121.493633549426,31.375008709761,2022-03-29
"宝山区","上海市宝山区泗塘一村",121.460399838779,31.3447274291945,2022-03-29
"宝山区","上海市宝山区淞南二村",121.493693646065,31.3490422325901,2022-03-29
"宝山区","上海市宝山区四方村",121.345619031903,31.4356316746968,2022-03-29
"宝山区","上海市宝山区泰和西路3499弄",121.408908966947,31.3560168586793,2022-03-29
"宝山区","上海市宝山区南大路126弄",121.409637402885,31.3060302168583,2022-03-29
"宝山区","上海市宝山区铁峰路2001弄",121.461356623978,31.4025526377976,2022-03-29
"宝山区","上海市宝山区水产西路999弄",121.417190086121,31.360786576709,2022-03-29
"宝山区","上海市宝山区水产路2900弄",121.440928707528,31.3688979743335,2022-03-29
"宝山区","上海市宝山区沈家桥村",121.318303447786,31.5048879069605,2022-03-29
"宝山区","上海市宝山区泗塘八村",121.46330199439,31.3361948421589,2022-03-29
"宝山区","上海市宝山区韶山路348弄",121.372228188566,31.3691002356995,2022-03-29
"宝山区","上海市宝山区三门路485弄",121.499861232035,31.3186269512395,2022-03-29
"宝山区","上海市宝山区南大路64号",121.412435983871,31.3057275448129,2022-03-29
"宝山区","上海市宝山区祁连四村",121.388636547181,31.3217118204702,2022-03-29
