"district","address","lng","lat","date"
"浦东新区","上海市浦东新区白杨路360弄",121.56134817809,31.2120202201198,2022-04-29
"浦东新区","上海市浦东新区板泉路50号",121.501198269956,31.1634647451668,2022-04-29
"浦东新区","上海市浦东新区北艾路1200弄",121.538886767458,31.1884818678728,2022-04-29
"浦东新区","上海市浦东新区北艾路862弄",121.543408388242,31.1902277232209,2022-04-29
"浦东新区","上海市浦东新区北蔡镇北蔡村周家宅",121.562600954955,31.1889053987174,2022-04-29
"浦东新区","上海市浦东新区北蔡大街31弄",121.560543565845,31.1936780975778,2022-04-29
"浦东新区","上海市浦东新区北蔡镇联勤村冯桥队冯家宅",121.557447915227,31.1712123975815,2022-04-29
"浦东新区","上海市浦东新区北蔡镇联勤村冯桥队张家宅",121.557447915227,31.1712123975815,2022-04-29
"浦东新区","上海市浦东新区北蔡镇卫行村张浜队王家宅",121.59502735844,31.1638725526298,2022-04-29
"浦东新区","上海市浦东新区北蔡镇五星村陈家队陈家宅",121.578579474383,31.194413133383,2022-04-29
"浦东新区","上海市浦东新区北蔡镇中界村陈家队陈家宅",121.578579474383,31.194413133383,2022-04-29
"浦东新区","上海市浦东新区北蔡镇中界村复兴队顾家宅",121.578066721598,31.1937157839413,2022-04-29
"浦东新区","上海市浦东新区北蔡镇中界村林家队中界庙",121.578541026907,31.19086787233,2022-04-29
"浦东新区","上海市浦东新区北蔡镇中界村陆家队陆家宅",121.507419754257,31.1905632054564,2022-04-29
"浦东新区","上海市浦东新区北蔡镇中界村沈家队黄家宅",121.574173735009,31.1954461740634,2022-04-29
"浦东新区","上海市浦东新区北新园路350弄",121.633354461329,31.3270160144631,2022-04-29
"浦东新区","上海市浦东新区北新园路460弄",121.634743151816,31.3261917171778,2022-04-29
"浦东新区","上海市浦东新区北洋泾路609号",121.557758010289,31.2491713575653,2022-04-29
"浦东新区","上海市浦东新区北中路280弄",121.563938531859,31.1899177254468,2022-04-29
"浦东新区","上海市浦东新区博华路1018弄",121.557501993219,31.1768508579768,2022-04-29
"浦东新区","上海市浦东新区博华路930弄",121.556749213201,31.1803200299912,2022-04-29
"浦东新区","上海市浦东新区博华路980弄",121.556426811354,31.1772710428287,2022-04-29
"浦东新区","上海市浦东新区博山东路553弄",121.577927484244,31.2615326789026,2022-04-29
"浦东新区","上海市浦东新区博山东路811弄",121.57981814785,31.2654428107137,2022-04-29
"浦东新区","上海市浦东新区博山路12弄",121.563217821348,31.2532525679138,2022-04-29
"浦东新区","上海市浦东新区博山路13弄",121.56423874556,31.2509367653137,2022-04-29
"浦东新区","上海市浦东新区博山路50弄",121.562882933054,31.2522236381075,2022-04-29
"浦东新区","上海市浦东新区博兴路250弄",121.586387276384,31.274900995229,2022-04-29
"浦东新区","上海市浦东新区博兴路465弄",121.58987225261,31.2720666651517,2022-04-29
"浦东新区","上海市浦东新区博兴路799弄",121.59697731021,31.27188533547,2022-04-29
"浦东新区","上海市浦东新区博兴路916弄",121.597995000523,31.2704201787296,2022-04-29
"浦东新区","上海市浦东新区博兴路986弄",121.597262971363,31.270671034824,2022-04-29
"浦东新区","上海市浦东新区曹路镇顾东村苍龙桥",121.668037318424,31.3056298935306,2022-04-29
"浦东新区","上海市浦东新区曹路镇顾东村船板桥",121.670280566944,31.3031164562783,2022-04-29
"浦东新区","上海市浦东新区曹路镇顾东村新屋宅",121.66573451225,31.3018178654977,2022-04-29
"浦东新区","上海市浦东新区曹路镇光明村沙桥宅",121.658185512066,31.292967682843,2022-04-29
"浦东新区","上海市浦东新区曹路镇黎明村张唐村",121.700912784834,31.2745557073923,2022-04-29
"浦东新区","上海市浦东新区曹路镇联合村路南宅",121.348674887586,31.408630188596,2022-04-29
"浦东新区","上海市浦东新区曹路镇民建村南邵家宅",121.654516473041,31.2803786713243,2022-04-29
"浦东新区","上海市浦东新区曹路镇五四村沈家宅",121.658040076404,31.2603987332248,2022-04-29
"浦东新区","上海市浦东新区曹路镇迅建村蔡家宅",121.697148794917,31.2892028145954,2022-04-29
"浦东新区","上海市浦东新区曹路镇迅建村撑圩村",121.699485287548,31.2867503457957,2022-04-29
"浦东新区","上海市浦东新区曹路镇众三村南俞家圈",121.672454286617,31.2885500687241,2022-04-29
"浦东新区","上海市浦东新区长岛路1201弄",121.596729737212,31.2693476089323,2022-04-29
"浦东新区","上海市浦东新区长岛路1203弄",121.60099758669,31.2700940107856,2022-04-29
"浦东新区","上海市浦东新区长岛路588弄",121.588731943595,31.266885513111,2022-04-29
"浦东新区","上海市浦东新区长岛路625弄",121.590574547857,31.2669994097199,2022-04-29
"浦东新区","上海市浦东新区长清路595弄",121.498337885551,31.165653164939,2022-04-29
"浦东新区","上海市浦东新区长清路693弄",121.536884264815,31.1897022555378,2022-04-29
"浦东新区","上海市浦东新区长清路773弄",121.498012070143,31.1619738650998,2022-04-29
"浦东新区","上海市浦东新区昌里东路411弄",121.519301551407,31.1855112286687,2022-04-29
"浦东新区","上海市浦东新区昌里东路650弄",121.521399004942,31.1835358991941,2022-04-29
"浦东新区","上海市浦东新区昌里东路80弄",121.512747873728,31.1803744049484,2022-04-29
"浦东新区","上海市浦东新区昌里路167弄",121.504545446117,31.1810916262197,2022-04-29
"浦东新区","上海市浦东新区昌里路340弄",121.500968393576,31.1782390828587,2022-04-29
"浦东新区","上海市浦东新区昌里路98弄",121.509564638323,31.1806719991486,2022-04-29
"浦东新区","上海市浦东新区昌邑路1669号",121.548057029426,31.2528668363296,2022-04-29
"浦东新区","上海市浦东新区昌邑路55弄",121.519121980136,31.2460588518643,2022-04-29
"浦东新区","上海市浦东新区朝农新村",121.842479624729,31.1029429067547,2022-04-29
"浦东新区","上海市浦东新区陈春东路99弄",121.565897017532,31.1818564965736,2022-04-29
"浦东新区","上海市浦东新区陈春路620弄",121.552907609688,31.1780781941088,2022-04-29
"浦东新区","上海市浦东新区成山路1488弄",121.533431537757,31.1819798422434,2022-04-29
"浦东新区","上海市浦东新区成山路1728弄",121.535534201464,31.1818249843163,2022-04-29
"浦东新区","上海市浦东新区成山路2008弄",121.543485283194,31.1832765452903,2022-04-29
"浦东新区","上海市浦东新区成山路226弄",121.503720083014,31.1763904289944,2022-04-29
"浦东新区","上海市浦东新区成山路24弄",121.492308997952,31.1741468770644,2022-04-29
"浦东新区","上海市浦东新区成山路345号",121.508875458336,31.1778262400724,2022-04-29
"浦东新区","上海市浦东新区成山路608弄",121.515115986714,31.1776118237191,2022-04-29
"浦东新区","上海市浦东新区川环南路408弄",121.711588517006,31.1947442760181,2022-04-29
"浦东新区","上海市浦东新区川沙路1258号",121.684650311034,31.2676190480528,2022-04-29
"浦东新区","上海市浦东新区川沙路1666弄",121.67243200864,31.2858133621136,2022-04-29
"浦东新区","上海市浦东新区川沙路2301弄",121.652778790863,31.290487771739,2022-04-29
"浦东新区","上海市浦东新区川沙路5015弄",121.652778790863,31.290487771739,2022-04-29
"浦东新区","上海市浦东新区川沙新镇八灶村郭家宅",121.724141797525,31.1621241979325,2022-04-29
"浦东新区","上海市浦东新区川沙新镇高桥村陈家宅",121.730865434606,31.1726920849992,2022-04-29
"浦东新区","上海市浦东新区川沙新镇其成村",121.692090616251,31.1200929335103,2022-04-29
"浦东新区","上海市浦东新区川沙新镇吴店村孙家宅",121.7277554111,31.1522469888303,2022-04-29
"浦东新区","上海市浦东新区川周公路2928弄",121.620997999547,31.1479346835682,2022-04-29
"浦东新区","上海市浦东新区川周公路3010弄",121.617623155577,31.147196115555,2022-04-29
"浦东新区","上海市浦东新区创新西路199弄",121.660810450597,31.2075822554859,2022-04-29
"浦东新区","上海市浦东新区创新西路75弄",121.663731470623,31.2097267922427,2022-04-29
"浦东新区","上海市浦东新区创新中路399弄",121.673244705635,31.2153254895784,2022-04-29
"浦东新区","上海市浦东新区创新中路593弄",121.675777028868,31.2168388376937,2022-04-29
"浦东新区","上海市浦东新区大同路922弄",121.579332973045,31.3423643180898,2022-04-29
"浦东新区","上海市浦东新区德平路100弄",121.568682662918,31.2539399811791,2022-04-29
"浦东新区","上海市浦东新区德平路1125弄",121.57509494731,31.2490535802043,2022-04-29
"浦东新区","上海市浦东新区德平路155弄",121.567954047319,31.2566018365944,2022-04-29
"浦东新区","上海市浦东新区德州路220弄",121.536884264815,31.1897022555378,2022-04-29
"浦东新区","上海市浦东新区德州路254号",121.499092282518,31.1729180218512,2022-04-29
"浦东新区","上海市浦东新区德州路420弄",121.490352488551,31.1723887494362,2022-04-29
"浦东新区","上海市浦东新区德州路60弄",121.536884264815,31.1897022555378,2022-04-29
"浦东新区","上海市浦东新区丁香路1599弄",121.572306876498,31.2338622988355,2022-04-29
"浦东新区","上海市浦东新区东八灶63弄",121.550454606832,31.2273482924363,2022-04-29
"浦东新区","上海市浦东新区东波路195弄",121.58624157123,31.290794581957,2022-04-29
"浦东新区","上海市浦东新区东昌新村",121.518093689818,31.2389819866023,2022-04-29
"浦东新区","上海市浦东新区东方路248号",121.527542157003,31.2427353714358,2022-04-29
"浦东新区","上海市浦东新区东方路573弄",121.531333545238,31.2376845881265,2022-04-29
"浦东新区","上海市浦东新区东后老街262号",121.654271235637,31.0292693246488,2022-04-29
"浦东新区","上海市浦东新区东环龙路181弄",121.535363613248,31.2093387964144,2022-04-29
"浦东新区","上海市浦东新区东建路670弄",121.546590815172,31.205427245394,2022-04-29
"浦东新区","上海市浦东新区东建新村",121.526861421087,31.2227134169234,2022-04-29
"浦东新区","上海市浦东新区东靖路人民塘路交界口工地生活区",121.75028805736,31.2491627905408,2022-04-29
"浦东新区","上海市浦东新区东陆路1182弄",121.602356004282,31.2753682698756,2022-04-29
"浦东新区","上海市浦东新区东陆路1221号",121.604299398422,31.2769738528053,2022-04-29
"浦东新区","上海市浦东新区东陆路1268弄",121.601560554753,31.2728788634835,2022-04-29
"浦东新区","上海市浦东新区东三街102弄",121.517106182571,31.207639780426,2022-04-29
"浦东新区","上海市浦东新区东三里桥路160弄",121.516139875334,31.2060282193702,2022-04-29
"浦东新区","上海市浦东新区东书房路390弄",121.541617795869,31.1696664870587,2022-04-29
"浦东新区","上海市浦东新区东书房路560弄",121.543073679609,31.1677333099084,2022-04-29
"浦东新区","上海市浦东新区东塘路222弄",121.574045816304,31.3064234422234,2022-04-29
"浦东新区","上海市浦东新区东绣路1155弄",121.541281200795,31.2049419385272,2022-04-29
"浦东新区","上海市浦东新区东绣路1389弄",121.538790289446,31.204676312065,2022-04-29
"浦东新区","上海市浦东新区东园四村",121.519432883673,31.2360922245748,2022-04-29
"浦东新区","上海市浦东新区渡桥路288弄",121.584859707864,31.1200779398788,2022-04-29
"浦东新区","上海市浦东新区渡桥路78弄",121.584859707864,31.1200779398788,2022-04-29
"浦东新区","上海市浦东新区峨山路187弄",121.534061519411,31.220750375235,2022-04-29
"浦东新区","上海市浦东新区峨山路500弄",121.530728716138,31.2194978888096,2022-04-29
"浦东新区","上海市浦东新区峨山路681弄",121.526390349678,31.2196070564495,2022-04-29
"浦东新区","上海市浦东新区繁荣东路159弄",121.591870173895,31.1128143261855,2022-04-29
"浦东新区","上海市浦东新区方竹路88弄",121.874119741402,30.9331532478893,2022-04-29
"浦东新区","上海市浦东新区芳草路352弄",121.561626023985,31.1992148959303,2022-04-29
"浦东新区","上海市浦东新区芳甸路333弄",121.529696185109,31.2072012517119,2022-04-29
"浦东新区","上海市浦东新区芳华路310弄",121.564018211558,31.2013345278281,2022-04-29
"浦东新区","上海市浦东新区芳华路411弄",121.565570303818,31.2023994608537,2022-04-29
"浦东新区","上海市浦东新区芳华路455弄",121.566150609177,31.2026175270033,2022-04-29
"浦东新区","上海市浦东新区芳华路478弄",121.536884264815,31.1897022555378,2022-04-29
"浦东新区","上海市浦东新区芳华路63号",121.558171590146,31.200731052684,2022-04-29
"浦东新区","上海市浦东新区芳华路713弄",121.536884264815,31.1897022555378,2022-04-29
"浦东新区","上海市浦东新区芳华路739弄",121.536884264815,31.1897022555378,2022-04-29
"浦东新区","上海市浦东新区芳华路933弄",121.536884264815,31.1897022555378,2022-04-29
"浦东新区","上海市浦东新区芳芯路210弄",121.562195280186,31.1977535428501,2022-04-29
"浦东新区","上海市浦东新区芳芯路312弄",121.564077499721,31.1971826328678,2022-04-29
"浦东新区","上海市浦东新区芳芯路363弄",121.536884264815,31.1897022555378,2022-04-29
"浦东新区","上海市浦东新区港辉路308弄",121.86591084599,30.8736943675999,2022-04-29
"浦东新区","上海市浦东新区高宝路300弄",121.5896261169,31.2815848989426,2022-04-29
"浦东新区","上海市浦东新区高宝路379弄",121.5896261169,31.2815848989426,2022-04-29
"浦东新区","上海市浦东新区高宝路528弄",121.5896261169,31.2815848989426,2022-04-29
"浦东新区","上海市浦东新区高东镇灯塔村王家宅",121.667620055515,31.3180004789526,2022-04-29
"浦东新区","上海市浦东新区高东镇竞赛村龙稍宅",121.65845033253,31.3075214254193,2022-04-29
"浦东新区","上海市浦东新区高东镇竞赛村沈家宅",121.652243490609,31.3048216825485,2022-04-29
"浦东新区","上海市浦东新区高东镇先锋村卢家宅",121.591521541526,31.2903783011154,2022-04-29
"浦东新区","上海市浦东新区高东镇先锋村杨树园",121.639655984651,31.3120842228244,2022-04-29
"浦东新区","上海市浦东新区高科西路2111弄",121.5423303318,31.1941812247261,2022-04-29
"浦东新区","上海市浦东新区高科西路3030弄",121.569848753301,31.1958928407386,2022-04-29
"浦东新区","上海市浦东新区高科西路3060弄",121.570701963874,31.1958678972719,2022-04-29
"浦东新区","上海市浦东新区高桥镇陆凌村西凌家宅",121.5817386352,31.3535668406377,2022-04-29
"浦东新区","上海市浦东新区高桥镇南塘村顾家宅",121.5746809183,31.345394276907,2022-04-29
"浦东新区","上海市浦东新区高桥镇三岔港村三岔港",121.514471272849,31.3715312688423,2022-04-29
"浦东新区","上海市浦东新区高桥镇西浜头",121.615635834297,31.2925041992064,2022-04-29
"浦东新区","上海市浦东新区高桥镇西新村尖角圩",121.523275744814,31.3619537605392,2022-04-29
"浦东新区","上海市浦东新区高青路2861弄",121.53503303682,31.1680806914771,2022-04-29
"浦东新区","上海市浦东新区高青路4567弄",121.536884264815,31.1897022555378,2022-04-29
"浦东新区","上海市浦东新区高行镇朱家浜村瞿家弄",121.578020189372,31.3063489316204,2022-04-29
"浦东新区","上海市浦东新区{东镇永新村",121.796911999769,31.0758994124495,2022-04-29
"浦东新区","上海市浦东新区龚华路479弄",121.693823986563,31.2655189744749,2022-04-29
"浦东新区","上海市浦东新区龚新路549弄",121.691114786976,31.2646183552466,2022-04-29
"浦东新区","上海市浦东新区拱川路411弄",121.749658974011,31.0699078431069,2022-04-29
"浦东新区","上海市浦东新区古棕路555弄",121.924901670525,30.8878154751876,2022-04-29
"浦东新区","上海市浦东新区崮山路157号",121.558485997074,31.2530718191383,2022-04-29
"浦东新区","上海市浦东新区崮山路95号",121.55737820672,31.2536873822811,2022-04-29
"浦东新区","上海市浦东新区关岳路229弄",121.594448041217,31.1273752275532,2022-04-29
"浦东新区","上海市浦东新区光明路222弄",121.622302967962,31.3377020692766,2022-04-29
"浦东新区","上海市浦东新区光泽路428弄",121.623076229345,31.3364001046861,2022-04-29
"浦东新区","上海市浦东新区光泽路429弄",121.624748694543,31.3361840469722,2022-04-29
"浦东新区","上海市浦东新区海鸣路顾如路交界口工地生活区",121.680259034379,31.2908487384459,2022-04-29
"浦东新区","上海市浦东新区海鹏路380弄",121.676483635982,31.2939871381692,2022-04-29
"浦东新区","上海市浦东新区海容路399弄",121.686258637219,31.2876554577026,2022-04-29
"浦东新区","上海市浦东新区海阳路1080弄",121.513439479141,31.1641353592278,2022-04-29
"浦东新区","上海市浦东新区航城五路151弄",121.754215359219,31.1483316643714,2022-04-29
"浦东新区","上海市浦东新区航都南路29弄",121.617970530317,31.0319618481551,2022-04-29
"浦东新区","上海市浦东新区航鹤路1858弄",121.590976180251,31.0561511926496,2022-04-29
"浦东新区","上海市浦东新区航鹤路999弄",121.591588555117,31.047493511594,2022-04-29
"浦东新区","上海市浦东新区航梅路525弄",121.580651056719,31.0306667698032,2022-04-29
"浦东新区","上海市浦东新区航梅路526弄",121.58752462099,31.028592642453,2022-04-29
"浦东新区","上海市浦东新区航三路航吉路交界口工地生活区",121.614290352304,31.045793267667,2022-04-29
"浦东新区","上海市浦东新区航头路988弄",121.606904664062,31.0406249008946,2022-04-29
"浦东新区","上海市浦东新区航头镇福善村",121.618555596696,31.0319771652647,2022-04-29
"浦东新区","上海市浦东新区航头镇果园村",121.642441899529,31.025361102765,2022-04-29
"浦东新区","上海市浦东新区航头镇航东村",121.607737213609,31.03214843823,2022-04-29
"浦东新区","上海市浦东新区航头镇牌楼村谈弄",121.56382300977,31.0616364770888,2022-04-29
"浦东新区","上海市浦东新区航头镇王楼村",121.624150692565,31.0742551228397,2022-04-29
"浦东新区","上海市浦东新区航绣路50弄",121.60439363067,31.0765771467867,2022-04-29
"浦东新区","上海市浦东新区合庆镇蔡路村东蔡家宅",121.751834430791,31.2301868682127,2022-04-29
"浦东新区","上海市浦东新区合庆镇蔡路村杨家宅",121.744404964744,31.2099848375333,2022-04-29
"浦东新区","上海市浦东新区合庆镇大星村老顾家宅",121.728211211316,31.227971358702,2022-04-29
"浦东新区","上海市浦东新区合庆镇东风村曹家宅",121.705700034558,31.2324508135927,2022-04-29
"浦东新区","上海市浦东新区合庆镇东风村潘家宅",121.702325999063,31.2335158558652,2022-04-29
"浦东新区","上海市浦东新区合庆镇建光村西陈家宅",121.766481451466,31.1970530521115,2022-04-29
"浦东新区","上海市浦东新区合庆镇前哨村顾家宅",121.744203834141,31.2472226093968,2022-04-29
"浦东新区","上海市浦东新区合庆镇勤益村陆家宅",121.71885868316,31.2190244672744,2022-04-29
"浦东新区","上海市浦东新区合庆镇奚家村卫家宅",121.717943669167,31.2536196211407,2022-04-29
"浦东新区","上海市浦东新区合庆镇向东村张家宅",121.740482334074,31.2418269684034,2022-04-29
"浦东新区","上海市浦东新区合庆镇营房村高路二宅",121.742081317882,31.2162274328676,2022-04-29
"浦东新区","上海市浦东新区合庆镇永红村薛家宅",121.716091812359,31.2408407518082,2022-04-29
"浦东新区","上海市浦东新区合庆镇直属村凌北宅",121.758238420445,31.2274649391561,2022-04-29
"浦东新区","上海市浦东新区和炯路77弄",121.525530311983,31.1391594184198,2022-04-29
"浦东新区","上海市浦东新区菏泽路567弄",121.601772100444,31.2704060021067,2022-04-29
"浦东新区","上海市浦东新区鹤永路750弄",121.609967885851,31.0777774939509,2022-04-29
"浦东新区","上海市浦东新区虹盛路250弄",121.687377836054,31.2476231831513,2022-04-29
"浦东新区","上海市浦东新区洪山路121弄",121.505002773452,31.1847097022013,2022-04-29
"浦东新区","上海市浦东新区沪南路1168弄",121.536884264815,31.1897022555378,2022-04-29
"浦东新区","上海市浦东新区沪南路1391弄",121.536884264815,31.1897022555378,2022-04-29
"浦东新区","上海市浦东新区沪南路2518弄",121.536884264815,31.1897022555378,2022-04-29
"浦东新区","上海市浦东新区沪南路2688弄",121.570334646751,31.1439723553759,2022-04-29
"浦东新区","上海市浦东新区沪南路2727弄",121.582921973049,31.1481048184037,2022-04-29
"浦东新区","上海市浦东新区沪南路3150弄",121.572258906984,31.1285035199315,2022-04-29
"浦东新区","上海市浦东新区沪南路3158弄",121.572008728899,31.1277255406032,2022-04-29
"浦东新区","上海市浦东新区沪南路3219弄",121.574558389428,31.1299938497428,2022-04-29
"浦东新区","上海市浦东新区沪南路3468弄",121.571596496501,31.1222910203693,2022-04-29
"浦东新区","上海市浦东新区沪南路4855弄",121.536884264815,31.1897022555378,2022-04-29
"浦东新区","上海市浦东新区沪一小区",121.590529542751,31.2758395544201,2022-04-29
"浦东新区","上海市浦东新区花木街道龙王庙村南杨家堂",121.558963805775,31.202723239483,2022-04-29
"浦东新区","上海市浦东新区华丰路50弄",121.514504959306,31.1974954638598,2022-04-29
"浦东新区","上海市浦东新区华鹏路300弄",121.53191420992,31.1787183489582,2022-04-29
"浦东新区","上海市浦东新区华夏东路2170弄",121.699897250455,31.2057116332773,2022-04-29
"浦东新区","上海市浦东新区华夏二路1255弄",121.69800191566,31.1828119771678,2022-04-29
"浦东新区","上海市浦东新区华夏一路325弄",121.694130129081,31.199287020883,2022-04-29
"浦东新区","上海市浦东新区环林东路271弄",121.533164112206,31.1552989527053,2022-04-29
"浦东新区","上海市浦东新区环林东路875弄",121.537591500743,31.1471015438154,2022-04-29
"浦东新区","上海市浦东新区环林东路906弄",121.535471409909,31.1479283479325,2022-04-29
"浦东新区","上海市浦东新区环桥路1137弄",121.584859707864,31.1200779398788,2022-04-29
"浦东新区","上海市浦东新区环庆南路239弄",121.731379984002,31.2347908492126,2022-04-29
"浦东新区","上海市浦东新区环庆南路508弄",121.737905005735,31.233807954925,2022-04-29
"浦东新区","上海市浦东新区惠南镇幸福村",121.780862693867,31.0321276286587,2022-04-29
"浦东新区","上海市浦东新区惠南镇徐庙村",121.721202721558,31.0362185164271,2022-04-29
"浦东新区","上海市浦东新区季景北路180弄",121.590926503956,31.3478491358925,2022-04-29
"浦东新区","上海市浦东新区季景路333弄",121.597617712208,31.3403936894075,2022-04-29
"浦东新区","上海市浦东新区济阳路95弄",121.488983291293,31.1697081226183,2022-04-29
"浦东新区","上海市浦东新区佳虹路50弄",121.620594570543,31.2723240755337,2022-04-29
"浦东新区","上海市浦东新区建中路171弄",121.525530311983,31.1391594184198,2022-04-29
"浦东新区","上海市浦东新区江东路238号",121.554374003603,31.3659368145242,2022-04-29
"浦东新区","上海市浦东新区江东路25号",121.555930138237,31.3688276760728,2022-04-29
"浦东新区","上海市浦东新区江心沙路300号工地生活区",121.545603397756,31.351088386754,2022-04-29
"浦东新区","上海市浦东新区界浜路55弄",121.649959998003,31.1337394692756,2022-04-29
"浦东新区","上海市浦东新区金港路333号",121.619450308984,31.2603792860984,2022-04-29
"浦东新区","上海市浦东新区金高路2131弄",121.61704653327,31.2674719711318,2022-04-29
"浦东新区","上海市浦东新区金海路2668弄",121.663904394434,31.2718276185442,2022-04-29
"浦东新区","上海市浦东新区金沪路1218弄",121.610691291278,31.246915347325,2022-04-29
"浦东新区","上海市浦东新区金吉路33弄",121.652778790863,31.290487771739,2022-04-29
"浦东新区","上海市浦东新区金口路411弄",121.586485461176,31.2531180482564,2022-04-29
"浦东新区","上海市浦东新区金口路53弄",121.583033812085,31.2567326468791,2022-04-29
"浦东新区","上海市浦东新区金葵路945弄",121.602138614349,31.2442502059109,2022-04-29
"浦东新区","上海市浦东新区金睦路353弄",121.681557714655,31.293510699442,2022-04-29
"浦东新区","上海市浦东新区金桥路1506弄",121.596460784542,31.2555643772158,2022-04-29
"浦东新区","上海市浦东新区金桥路226弄",121.621784825343,31.2606638156741,2022-04-29
"浦东新区","上海市浦东新区金桥路2552弄",121.609184383785,31.2399130333655,2022-04-29
"浦东新区","上海市浦东新区金桥路2618号",121.610079994379,31.2389558967816,2022-04-29
"浦东新区","上海市浦东新区金桥路351弄",121.579623035894,31.273050854795,2022-04-29
"浦东新区","上海市浦东新区金台路161弄",121.593995744392,31.2578895574809,2022-04-29
"浦东新区","上海市浦东新区金湘路201弄",121.619764626082,31.261871069581,2022-04-29
"浦东新区","上海市浦东新区金杨新村街道金浜村",121.568140715204,31.2632658281684,2022-04-29
"浦东新区","上海市浦东新区金杨路660弄",121.588399929879,31.2575016841727,2022-04-29
"浦东新区","上海市浦东新区金杨路785弄",121.589437562574,31.2596987884712,2022-04-29
"浦东新区","上海市浦东新区锦康路389弄",121.543707254485,31.2158963661811,2022-04-29
"浦东新区","上海市浦东新区锦绣路3088弄",121.546294823507,31.1857314194091,2022-04-29
"浦东新区","上海市浦东新区锦绣路3336弄",121.547059550988,31.1835749798571,2022-04-29
"浦东新区","上海市浦东新区锦绣路3338弄",121.545288092522,31.1854903757833,2022-04-29
"浦东新区","上海市浦东新区锦绣路4899弄",121.554664515604,31.1560634926233,2022-04-29
"浦东新区","上海市浦东新区巨峰路176弄",121.603201669089,31.285412489154,2022-04-29
"浦东新区","上海市浦东新区巨峰路399弄",121.602835340102,31.2864912778845,2022-04-29
"浦东新区","上海市浦东新区巨野路482弄",121.55494415811,31.2421741524547,2022-04-29
"浦东新区","上海市浦东新区巨野路61弄",121.552332604331,31.250494065864,2022-04-29
"浦东新区","上海市浦东新区康佳路39弄",121.600871015443,31.1343595260666,2022-04-29
"浦东新区","上海市浦东新区康桥路1633弄",121.584859707864,31.1200779398788,2022-04-29
"浦东新区","上海市浦东新区康桥镇花墙村",121.55274169266,31.1563281752622,2022-04-29
"浦东新区","上海市浦东新区康桥镇火箭村",121.614989413652,31.1451293459159,2022-04-29
"浦东新区","上海市浦东新区康桥镇人南村",121.633575534315,31.1452932272884,2022-04-29
"浦东新区","上海市浦东新区康杉路151弄",121.567301338536,31.1577240432149,2022-04-29
"浦东新区","上海市浦东新区康沈公路1300弄",121.578537793007,31.1439095371964,2022-04-29
"浦东新区","上海市浦东新区康沈路1365弄",121.583578454715,31.128538373131,2022-04-29
"浦东新区","上海市浦东新区康沈路2262弄",121.58731262089,31.1071241716612,2022-04-29
"浦东新区","上海市浦东新区康沈路465弄",121.584859707864,31.1200779398788,2022-04-29
"浦东新区","上海市浦东新区康士路15弄",121.569516739584,31.1556683987021,2022-04-29
"浦东新区","上海市浦东新区康梧路189号工地生活区",121.557148959153,31.1422771769984,2022-04-29
"浦东新区","上海市浦东新区康泽路550弄",121.550454606832,31.2273482924363,2022-04-29
"浦东新区","上海市浦东新区莱阳路451弄",121.58929185742,31.2821589973274,2022-04-29
"浦东新区","上海市浦东新区蓝村路31弄",121.539160391316,31.2186428408334,2022-04-29
"浦东新区","上海市浦东新区蓝村路471弄",121.53360158699,31.2179022047027,2022-04-29
"浦东新区","上海市浦东新区蓝村路502弄",121.531098189195,31.2172612366498,2022-04-29
"浦东新区","上海市浦东新区崂山路562号",121.524569933562,31.2434191571406,2022-04-29
"浦东新区","上海市浦东新区崂山路571弄",121.529543491848,31.2323093937171,2022-04-29
"浦东新区","上海市浦东新区崂山路645弄",121.531348816432,31.2278054602837,2022-04-29
"浦东新区","上海市浦东新区崂山路80弄",121.523114678636,31.2441511781966,2022-04-29
"浦东新区","上海市浦东新区崂山三村",121.526396817478,31.2389325085635,2022-04-29
"浦东新区","上海市浦东新区崂山四村",121.524541996261,31.2411728108698,2022-04-29
"浦东新区","上海市浦东新区老港镇牛肚村西沙",121.827343536208,31.0610696113642,2022-04-29
"浦东新区","上海市浦东新区历城路100弄",121.4979155023,31.1798977733905,2022-04-29
"浦东新区","上海市浦东新区历城路22弄",121.536884264815,31.1897022555378,2022-04-29
"浦东新区","上海市浦东新区利川路421弄",121.688665736664,31.2141557761719,2022-04-29
"浦东新区","上海市浦东新区利津路729弄",121.596582954092,31.2806785708705,2022-04-29
"浦东新区","上海市浦东新区连波路26弄",121.558484380125,31.2008978485061,2022-04-29
"浦东新区","上海市浦东新区连波路66弄",121.558484380125,31.2008978485061,2022-04-29
"浦东新区","上海市浦东新区莲溪路550弄",121.566736484031,31.1865065237717,2022-04-29
"浦东新区","上海市浦东新区莲溪路780弄",121.56871715785,31.1834782049839,2022-04-29
"浦东新区","上海市浦东新区莲园路100弄",121.554990690335,31.1893334069738,2022-04-29
"浦东新区","上海市浦东新区莲中路174弄",121.563636880869,31.188634784044,2022-04-29
"浦东新区","上海市浦东新区莲中路318弄",121.564485240592,31.1865044385056,2022-04-29
"浦东新区","上海市浦东新区莲中路337弄",121.564751767837,31.1877701093195,2022-04-29
"浦东新区","上海市浦东新区莲中路356弄",121.56492999165,31.1857610767685,2022-04-29
"浦东新区","上海市浦东新区林鸣路326弄",121.532165645632,31.1385712292048,2022-04-29
"浦东新区","上海市浦东新区林悦路125弄",121.525530311983,31.1391594184198,2022-04-29
"浦东新区","上海市浦东新区林展路422弄",121.516191887223,31.149587574481,2022-04-29
"浦东新区","上海市浦东新区临沂北路255弄",121.52533744579,31.2093577908745,2022-04-29
"浦东新区","上海市浦东新区临沂路181弄",121.520668143579,31.1975792508032,2022-04-29
"浦东新区","上海市浦东新区灵山路1724弄",121.574529733483,31.2463031356353,2022-04-29
"浦东新区","上海市浦东新区灵岩路56弄",121.500072962644,31.1725382931417,2022-04-29
"浦东新区","上海市浦东新区灵岩南路156弄",121.500710759556,31.1648391859701,2022-04-29
"浦东新区","上海市浦东新区灵岩南路769弄",121.504644708876,31.155998287562,2022-04-29
"浦东新区","上海市浦东新区凌河路420弄",121.605932248348,31.2799170540613,2022-04-29
"浦东新区","上海市浦东新区凌空北路东靖路交界口工地生活区",121.704172915191,31.2562093274673,2022-04-29
"浦东新区","上海市浦东新区凌兆路285弄",121.525530311983,31.1391594184198,2022-04-29
"浦东新区","上海市浦东新区凌兆路379弄",121.525530311983,31.1391594184198,2022-04-29
"浦东新区","上海市浦东新区凌兆路500弄",121.50674692343,31.1491084685835,2022-04-29
"浦东新区","上海市浦东新区凌兆路530弄",121.509243899221,31.1473446768569,2022-04-29
"浦东新区","上海市浦东新区凌兆路555弄",121.508150525789,31.1502543473656,2022-04-29
"浦东新区","上海市浦东新区凌兆路586弄",121.525530311983,31.1391594184198,2022-04-29
"浦东新区","上海市浦东新区柳埠路135弄",121.588934241996,31.2688910299805,2022-04-29
"浦东新区","上海市浦东新区龙东大道云山路交界口工地生活区",121.657993454348,31.2334182062668,2022-04-29
"浦东新区","上海市浦东新区龙居路180弄",121.568971737631,31.2585512381558,2022-04-29
"浦东新区","上海市浦东新区龙阳路1188号",121.537174956478,31.2042222743912,2022-04-29
"浦东新区","上海市浦东新区龙阳路1880弄",121.559292495761,31.2066989150554,2022-04-29
"浦东新区","上海市浦东新区芦云路200弄",121.865041915071,30.8791243095893,2022-04-29
"浦东新区","上海市浦东新区罗山路1502弄",121.575171482939,31.2348882658017,2022-04-29
"浦东新区","上海市浦东新区绿林路320弄",121.554834744499,31.1761626467343,2022-04-29
"浦东新区","上海市浦东新区苗桥路935弄",121.602516621307,31.104273708865,2022-04-29
"浦东新区","上海市浦东新区妙川路1111弄",121.720690956908,31.1884085761446,2022-04-29
"浦东新区","上海市浦东新区民冬路169号生活区",121.660902796403,31.2925156166073,2022-04-29
"浦东新区","上海市浦东新区民耀路268弄",121.659229253238,31.2782094438455,2022-04-29
"浦东新区","上海市浦东新区民雨路336弄",121.652778790863,31.290487771739,2022-04-29
"浦东新区","上海市浦东新区牡丹路259弄",121.555825036493,31.2146547012618,2022-04-29
"浦东新区","上海市浦东新区南曹路901弄",121.670398694119,31.2084526156349,2022-04-29
"浦东新区","上海市浦东新区南码头路1136弄",121.519727887202,31.1898749404218,2022-04-29
"浦东新区","上海市浦东新区南码头路1378弄",121.520136256887,31.1859674423011,2022-04-29
"浦东新区","上海市浦东新区南码头路144弄",121.514083474361,31.2046377807221,2022-04-29
"浦东新区","上海市浦东新区南码头路450弄",121.516319536436,31.2003681163043,2022-04-29
"浦东新区","上海市浦东新区南码头路451弄",121.516514289071,31.2008203193739,2022-04-29
"浦东新区","上海市浦东新区南泉北路101弄",121.522040215415,31.244123854865,2022-04-29
"浦东新区","上海市浦东新区南泉北路1040弄",121.526876422789,31.2317676424559,2022-04-29
"浦东新区","上海市浦东新区南泉北路170弄",121.523003378583,31.2424016970164,2022-04-29
"浦东新区","上海市浦东新区南泉北路301弄",121.523199299015,31.2399847410265,2022-04-29
"浦东新区","上海市浦东新区南泉路1211弄",121.529722254645,31.2192635716987,2022-04-29
"浦东新区","上海市浦东新区南泉路1241弄",121.530365890543,31.2182807459278,2022-04-29
"浦东新区","上海市浦东新区南泉路1250弄",121.527931123289,31.2177477149724,2022-04-29
"浦东新区","上海市浦东新区年家浜路425弄",121.578911038946,31.1200416923784,2022-04-29
"浦东新区","上海市浦东新区欧高路138弄",121.584067851557,31.3553669703079,2022-04-29
"浦东新区","上海市浦东新区鹏岳路152弄",121.560933340606,31.1772149667974,2022-04-29
"浦东新区","上海市浦东新区浦城路366弄",121.519347814141,31.2336685441239,2022-04-29
"浦东新区","上海市浦东新区浦城路580弄",121.521080555639,31.230158967011,2022-04-29
"浦东新区","上海市浦东新区浦电路149弄",121.527706996064,31.2244778572583,2022-04-29
"浦东新区","上海市浦东新区浦电路218号",121.530503780439,31.2254074271682,2022-04-29
"浦东新区","上海市浦东新区浦电路221号",121.530044566662,31.2249883073877,2022-04-29
"浦东新区","上海市浦东新区浦电路305弄",121.531913940428,31.2253816423621,2022-04-29
"浦东新区","上海市浦东新区浦电路330弄",121.534528817937,31.2266271793415,2022-04-29
"浦东新区","上海市浦东新区浦电路331弄",121.535182335196,31.225922581402,2022-04-29
"浦东新区","上海市浦东新区浦电路48弄",121.523018290455,31.2247743849636,2022-04-29
"浦东新区","上海市浦东新区浦电路62弄",121.524943538824,31.2243655300639,2022-04-29
"浦东新区","上海市浦东新区浦东北路4588弄",121.569196224178,31.3542177437897,2022-04-29
"浦东新区","上海市浦东新区浦东大道136弄",121.520173536566,31.2440242095398,2022-04-29
"浦东新区","上海市浦东新区浦东大道140弄",121.521669035579,31.2440488314387,2022-04-29
"浦东新区","上海市浦东新区浦东大道1585弄",121.547254752775,31.2507606428061,2022-04-29
"浦东新区","上海市浦东新区浦东大道1623弄",121.549043907859,31.2517675929144,2022-04-29
"浦东新区","上海市浦东新区浦东大道1851弄",121.552497443392,31.2531016867014,2022-04-29
"浦东新区","上海市浦东新区浦东大道2511弄",121.566406266925,31.265127505972,2022-04-29
"浦东新区","上海市浦东新区浦东大道2515号",121.567126438453,31.2650712510494,2022-04-29
"浦东新区","上海市浦东新区浦东大道2639弄",121.573829414507,31.2700964028423,2022-04-29
"浦东新区","上海市浦东新区浦东大道2641弄",121.575420313565,31.2714724426133,2022-04-29
"浦东新区","上海市浦东新区浦东大道2746弄",121.579756524092,31.2744655851279,2022-04-29
"浦东新区","上海市浦东新区浦东大道2778弄",121.581374821469,31.2756511334779,2022-04-29
"浦东新区","上海市浦东新区浦东大道290弄",121.523437799128,31.2448877473747,2022-04-29
"浦东新区","上海市浦东新区浦东大道2970弄",121.585274365688,31.2829352319847,2022-04-29
"浦东新区","上海市浦东新区浦东大道501弄",121.525107120257,31.2485129292745,2022-04-29
"浦东新区","上海市浦东新区浦东南路1200号",121.522643607226,31.232223939573,2022-04-29
"浦东新区","上海市浦东新区浦东南路1288号",121.523559878847,31.2308961867454,2022-04-29
"浦东新区","上海市浦东新区浦东南路1299号",121.52421420458,31.2307668070321,2022-04-29
"浦东新区","上海市浦东新区浦东南路1449号",121.524690037009,31.2293428464114,2022-04-29
"浦东新区","上海市浦东新区浦东南路1533号",121.527644653661,31.2273723011377,2022-04-29
"浦东新区","上海市浦东新区浦东南路1700弄",121.525060767693,31.2237849777418,2022-04-29
"浦东新区","上海市浦东新区浦东南路1862弄",121.524135153695,31.2217476120428,2022-04-29
"浦东新区","上海市浦东新区浦东南路2108号",121.522886149714,31.2157862677185,2022-04-29
"浦东新区","上海市浦东新区浦东南路2141弄",121.52295558873,31.2143046355609,2022-04-29
"浦东新区","上海市浦东新区浦东南路2178弄",121.520482104508,31.2130211015995,2022-04-29
"浦东新区","上海市浦东新区浦东南路2192弄",121.519879611003,31.2122755567109,2022-04-29
"浦东新区","上海市浦东新区浦东南路2351弄",121.519461719279,31.2055986658343,2022-04-29
"浦东新区","上海市浦东新区浦东南路3643弄",121.512246170101,31.1951255365065,2022-04-29
"浦东新区","上海市浦东新区浦东南路3905弄",121.508197686829,31.1889342827717,2022-04-29
"浦东新区","上海市浦东新区浦东南路575弄",121.518573025638,31.2425843960653,2022-04-29
"浦东新区","上海市浦东新区浦东南路978号",121.521134184478,31.236312064832,2022-04-29
"浦东新区","上海市浦东新区浦明路233弄",121.517192869053,31.2325821208295,2022-04-29
"浦东新区","上海市浦东新区浦三路12弄",121.517827791387,31.2027220039836,2022-04-29
"浦东新区","上海市浦东新区浦三路277弄",121.521689337283,31.1993452459115,2022-04-29
"浦东新区","上海市浦东新区浦三路288弄",121.519581912557,31.1984411322372,2022-04-29
"浦东新区","上海市浦东新区浦三路635弄",121.525132182981,31.1951443021741,2022-04-29
"浦东新区","上海市浦东新区浦三路637弄",121.52647389209,31.1943613150149,2022-04-29
"浦东新区","上海市浦东新区浦三路741弄",121.526881722792,31.1921087714312,2022-04-29
"浦东新区","上海市浦东新区浦三路秀浦路交界口工地生活区",121.616024890413,31.1357172383185,2022-04-29
"浦东新区","上海市浦东新区栖山路100弄",121.550437449197,31.2475527934367,2022-04-29
"浦东新区","上海市浦东新区栖山路1489弄",121.571031731827,31.2638235251368,2022-04-29
"浦东新区","上海市浦东新区栖山路1558弄",121.57216036287,31.2630398005953,2022-04-29
"浦东新区","上海市浦东新区栖山路401弄",121.556033443371,31.2539878305727,2022-04-29
"浦东新区","上海市浦东新区栖山路465弄",121.557328440594,31.2538809411679,2022-04-29
"浦东新区","上海市浦东新区栖霞路190弄",121.526081152921,31.2441861427874,2022-04-29
"浦东新区","上海市浦东新区齐河路10弄",121.508225444469,31.1834231367154,2022-04-29
"浦东新区","上海市浦东新区齐恒路118弄",121.525095981269,31.1930859254333,2022-04-29
"浦东新区","上海市浦东新区钱仓路313弄",121.527825482561,31.2452163188024,2022-04-29
"浦东新区","上海市浦东新区勤政路88弄",121.630646878691,31.1780795844112,2022-04-29
"浦东新区","上海市浦东新区清溪路400弄",121.577475636572,31.3476508374997,2022-04-29
"浦东新区","上海市浦东新区乳山路161弄",121.528018079262,31.2415971840306,2022-04-29
"浦东新区","上海市浦东新区乳山路200弄",121.535521715017,31.2435075340906,2022-04-29
"浦东新区","上海市浦东新区瑞福路52弄",121.607602647444,31.1017584182868,2022-04-29
"浦东新区","上海市浦东新区瑞浦路611弄",121.592073640093,31.0973300787465,2022-04-29
"浦东新区","上海市浦东新区瑞浦路612弄",121.592520906406,31.0963454338329,2022-04-29
"浦东新区","上海市浦东新区瑞浦路8弄",121.550454606832,31.2273482924363,2022-04-29
"浦东新区","上海市浦东新区三彩路166弄",121.525530311983,31.1391594184198,2022-04-29
"浦东新区","上海市浦东新区三彩路59弄",121.506355531719,31.132930313735,2022-04-29
"浦东新区","上海市浦东新区三林路168号",121.50263852318,31.1415921892231,2022-04-29
"浦东新区","上海市浦东新区三林路184号",121.502530996011,31.1424148693693,2022-04-29
"浦东新区","上海市浦东新区三林路235号",121.502736528311,31.1436912572177,2022-04-29
"浦东新区","上海市浦东新区三林路88弄",121.536884264815,31.1897022555378,2022-04-29
"浦东新区","上海市浦东新区三林镇东明村北张队北张家宅",121.529586520682,31.1678359718402,2022-04-29
"浦东新区","上海市浦东新区三林镇红旗村东桥队毛家塘",121.507890556175,31.1336601072747,2022-04-29
"浦东新区","上海市浦东新区三林镇胡巷村吴家宅",121.525354423764,31.1666240285963,2022-04-29
"浦东新区","上海市浦东新区三林镇临江村临江队王家渡",121.481034545157,31.1308233546774,2022-04-29
"浦东新区","上海市浦东新区三林镇临江村王家宅队王家宅",121.484029855049,31.1268779245209,2022-04-29
"浦东新区","上海市浦东新区三林镇南阜村高树队西汤家宅",121.526881543131,31.1363513458081,2022-04-29
"浦东新区","上海市浦东新区三林镇天花庵村北陈队大陈家宅",121.531939542135,31.1285359001772,2022-04-29
"浦东新区","上海市浦东新区三林镇天花庵村乐耕队",121.528534964252,31.1325218308858,2022-04-29
"浦东新区","上海市浦东新区三林镇天花庵村闵北队闵家宅",121.539890174712,31.126238497919,2022-04-29
"浦东新区","上海市浦东新区三林镇天花庵村闵西队闵家宅",121.539890174712,31.126238497919,2022-04-29
"浦东新区","上海市浦东新区三林镇天花庵村南陈队大陈家宅",121.531939542135,31.1285359001772,2022-04-29
"浦东新区","上海市浦东新区三林镇西林村圈门队西林街",121.505050473475,31.1424654028824,2022-04-29
"浦东新区","上海市浦东新区三林镇西林村万家队西林街",121.505050473475,31.1424654028824,2022-04-29
"浦东新区","上海市浦东新区三林镇新春村陈桥队陈家桥",121.482444895587,31.1340229536591,2022-04-29
"浦东新区","上海市浦东新区三三公路5020弄",121.879902942444,30.9812557067702,2022-04-29
"浦东新区","上海市浦东新区三舒路181弄",121.525530311983,31.1391594184198,2022-04-29
"浦东新区","上海市浦东新区三舒路192弄",121.510630657472,31.1278552944324,2022-04-29
"浦东新区","上海市浦东新区三舒路288弄",121.525530311983,31.1391594184198,2022-04-29
"浦东新区","上海市浦东新区三舒路62弄",121.509892699496,31.1304092986302,2022-04-29
"浦东新区","上海市浦东新区商城路108弄",121.515923024384,31.2338968041146,2022-04-29
"浦东新区","上海市浦东新区商城路1178弄",121.534434855181,31.2403688276266,2022-04-29
"浦东新区","上海市浦东新区商城路991弄",121.530389965131,31.2397038535453,2022-04-29
"浦东新区","上海市浦东新区上南路1000弄",121.50066746123,31.1805938353858,2022-04-29
"浦东新区","上海市浦东新区上南路1251弄",121.502606274012,31.1785212361064,2022-04-29
"浦东新区","上海市浦东新区上南路1500弄",121.502331302696,31.1749569131774,2022-04-29
"浦东新区","上海市浦东新区上南路1551弄",121.504524605429,31.1745415069555,2022-04-29
"浦东新区","上海市浦东新区上南路3323弄",121.584859707864,31.1200779398788,2022-04-29
"浦东新区","上海市浦东新区上南路3500弄",121.525530311983,31.1391594184198,2022-04-29
"浦东新区","上海市浦东新区上南路3521号",121.511585466399,31.1615953281232,2022-04-29
"浦东新区","上海市浦东新区上南路3651弄",121.513459421523,31.1605853221933,2022-04-29
"浦东新区","上海市浦东新区上南路6333弄",121.584859707864,31.1200779398788,2022-04-29
"浦东新区","上海市浦东新区上南路6500弄",121.584859707864,31.1200779398788,2022-04-29
"浦东新区","上海市浦东新区上南路6733弄",121.584859707864,31.1200779398788,2022-04-29
"浦东新区","上海市浦东新区上南路929弄",121.507678825566,31.1860937173936,2022-04-29
"浦东新区","上海市浦东新区上浦路510弄",121.506222941826,31.1521017393601,2022-04-29
"浦东新区","上海市浦东新区申江路2877号",121.633142012076,31.257179870039,2022-04-29
"浦东新区","上海市浦东新区沈家弄路877弄",121.552906531721,31.2444312032937,2022-04-29
"浦东新区","上海市浦东新区沈家弄路901弄",121.552898267311,31.2449719550083,2022-04-29
"浦东新区","上海市浦东新区盛夏路1107弄",121.640893669982,31.2039764136165,2022-04-29
"浦东新区","上海市浦东新区世博家园大道站路94弄",121.545610314708,31.1654593463491,2022-04-29
"浦东新区","上海市浦东新区寿光路161弄",121.590525320716,31.2803961854226,2022-04-29
"浦东新区","上海市浦东新区寿光路31弄",121.589460469364,31.2787974510506,2022-04-29
"浦东新区","上海市浦东新区寿光路78弄",121.592102026547,31.2793908554345,2022-04-29
"浦东新区","上海市浦东新区双桥路1108弄",121.5896261169,31.2815848989426,2022-04-29
"浦东新区","上海市浦东新区硕川路125弄",121.693519281334,31.2068003760843,2022-04-29
"浦东新区","上海市浦东新区思浦路13弄",121.500159469464,31.1649102558777,2022-04-29
"浦东新区","上海市浦东新区松林路283号",121.540448022434,31.2333759042748,2022-04-29
"浦东新区","上海市浦东新区台儿庄路663弄",121.600337960954,31.264978881782,2022-04-29
"浦东新区","上海市浦东新区唐安路1047弄",121.662412129321,31.2098194477251,2022-04-29
"浦东新区","上海市浦东新区唐陆公路568弄",121.66143872547,31.2169805125697,2022-04-29
"浦东新区","上海市浦东新区唐镇大众村小包新村",121.641589856752,31.2311772550643,2022-04-29
"浦东新区","上海市浦东新区唐镇虹二村盛家宅",121.664209009833,31.2534517616121,2022-04-29
"浦东新区","上海市浦东新区唐镇虹二村朱家宅",121.668338969415,31.2583088385362,2022-04-29
"浦东新区","上海市浦东新区唐镇虹四村吴张家宅",121.658368227407,31.2467905435275,2022-04-29
"浦东新区","上海市浦东新区唐镇虹一村奚家宅",121.678443738605,31.2379222554596,2022-04-29
"浦东新区","上海市浦东新区唐镇机口村杨家宅",121.66776432338,31.2211930610595,2022-04-29
"浦东新区","上海市浦东新区唐镇吕三村百胜新村",121.645558660326,31.222123744433,2022-04-29
"浦东新区","上海市浦东新区唐镇民丰村李家宅",121.648615953299,31.2142128338184,2022-04-29
"浦东新区","上海市浦东新区唐镇民丰村陆家宅",121.648615953299,31.2142128338184,2022-04-29
"浦东新区","上海市浦东新区唐镇民丰村西曹家宅",121.648615953299,31.2142128338184,2022-04-29
"浦东新区","上海市浦东新区唐镇前进村墙圈西宅",121.648881338285,31.2092890538277,2022-04-29
"浦东新区","上海市浦东新区唐镇前进村西李家宅",121.648552173608,31.2141666626809,2022-04-29
"浦东新区","上海市浦东新区唐镇唐四村龚家宅",121.667689494531,31.2210198162809,2022-04-29
"浦东新区","上海市浦东新区唐镇唐四村黄家东宅",121.673744882143,31.2241561610778,2022-04-29
"浦东新区","上海市浦东新区唐镇小湾村北街",121.697839941295,31.2397379836963,2022-04-29
"浦东新区","上海市浦东新区唐镇小湾村小湾新村",121.696664967569,31.239619872733,2022-04-29
"浦东新区","上海市浦东新区唐镇新虹村缪家宅",121.655033627523,31.2487133679639,2022-04-29
"浦东新区","上海市浦东新区唐镇新镇村石家观音堂",121.648514804098,31.2218474355031,2022-04-29
"浦东新区","上海市浦东新区唐镇新镇村谢家宅",121.648514804098,31.2218474355031,2022-04-29
"浦东新区","上海市浦东新区唐镇一心村缪家宅",121.688848811327,31.2500387840308,2022-04-29
"浦东新区","上海市浦东新区唐镇一心村徐家宅",121.696688503174,31.2581345820698,2022-04-29
"浦东新区","上海市浦东新区塘南路159弄",121.516400833085,31.2080020709147,2022-04-29
"浦东新区","上海市浦东新区塘桥路400弄",121.524547925077,31.2170740873566,2022-04-29
"浦东新区","上海市浦东新区听悦路960弄",121.746328147011,31.0657086071498,2022-04-29
"浦东新区","上海市浦东新区庭安路825弄",121.595222111074,31.3305112346674,2022-04-29
"浦东新区","上海市浦东新区通济路616弄",121.753024026451,31.061788826504,2022-04-29
"浦东新区","上海市浦东新区万祥镇万兴村万一",121.830318813888,30.9603269458143,2022-04-29
"浦东新区","上海市浦东新区潍坊路280号",121.541086987143,31.2343116383973,2022-04-29
"浦东新区","上海市浦东新区潍坊路328号工地生活区",121.541579887377,31.2342464105756,2022-04-29
"浦东新区","上海市浦东新区潍坊路375弄",121.541472090715,31.2347481618797,2022-04-29
"浦东新区","上海市浦东新区潍坊路606号",121.528018797906,31.2292048956976,2022-04-29
"浦东新区","上海市浦东新区潍坊路716号",121.528397793001,31.229747279369,2022-04-29
"浦东新区","上海市浦东新区潍坊路89弄",121.526387025948,31.2297083723614,2022-04-29
"浦东新区","上海市浦东新区五莲路100弄",121.585797359155,31.2816781004793,2022-04-29
"浦东新区","上海市浦东新区五莲路1047弄",121.601390415689,31.2777458097831,2022-04-29
"浦东新区","上海市浦东新区五莲路108弄",121.588773624971,31.2771578731139,2022-04-29
"浦东新区","上海市浦东新区五莲路1769弄",121.60380012022,31.290088693223,2022-04-29
"浦东新区","上海市浦东新区五莲路30弄",121.584500744982,31.2815552719446,2022-04-29
"浦东新区","上海市浦东新区五莲路759弄",121.597702871571,31.2763872229612,2022-04-29
"浦东新区","上海市浦东新区五星路151弄",121.536884264815,31.1897022555378,2022-04-29
"浦东新区","上海市浦东新区五星路231弄",121.536884264815,31.1897022555378,2022-04-29
"浦东新区","上海市浦东新区西泰林路850弄",121.546822039011,31.1487391512895,2022-04-29
"浦东新区","上海市浦东新区西营路170弄",121.489786017096,31.1721608802115,2022-04-29
"浦东新区","上海市浦东新区西营南路68弄",121.525530311983,31.1391594184198,2022-04-29
"浦东新区","上海市浦东新区下南路1071弄",121.541526977182,31.1913899354429,2022-04-29
"浦东新区","上海市浦东新区下南路225弄",121.552785889291,31.1753995837175,2022-04-29
"浦东新区","上海市浦东新区下南路276弄",121.536884264815,31.1897022555378,2022-04-29
"浦东新区","上海市浦东新区下南路309弄",121.529696185109,31.2072012517119,2022-04-29
"浦东新区","上海市浦东新区下南路320弄",121.547891741212,31.1755488136572,2022-04-29
"浦东新区","上海市浦东新区下南路339弄",121.550641274717,31.1767910741702,2022-04-29
"浦东新区","上海市浦东新区下南路370弄",121.536884264815,31.1897022555378,2022-04-29
"浦东新区","上海市浦东新区下南路500弄",121.543720818899,31.1779675877605,2022-04-29
"浦东新区","上海市浦东新区下南路526弄",121.544402003967,31.1780418917603,2022-04-29
"浦东新区","上海市浦东新区下南路551弄",121.54679904239,31.1790168752743,2022-04-29
"浦东新区","上海市浦东新区夏碧路380弄",121.593186999942,31.3434458407328,2022-04-29
"浦东新区","上海市浦东新区新场镇众安村",121.656744719859,31.0039427689734,2022-04-29
"浦东新区","上海市浦东新区新川路640弄",121.70007250986,31.1994028531321,2022-04-29
"浦东新区","上海市浦东新区新川路742弄",121.698304195464,31.1972881970345,2022-04-29
"浦东新区","上海市浦东新区新德路365弄",121.704561252663,31.2031656244534,2022-04-29
"浦东新区","上海市浦东新区新德西路508弄",121.676387607123,31.198096102614,2022-04-29
"浦东新区","上海市浦东新区新龙路203弄",121.63662186796,31.3203509429906,2022-04-29
"浦东新区","上海市浦东新区新龙路289弄",121.652778790863,31.290487771739,2022-04-29
"浦东新区","上海市浦东新区新龙路423弄",121.637527898897,31.3179938463292,2022-04-29
"浦东新区","上海市浦东新区新龙路69弄",121.634390027921,31.3235124885829,2022-04-29
"浦东新区","上海市浦东新区新浦路199弄",121.545245782332,31.1712264561122,2022-04-29
"浦东新区","上海市浦东新区新浦路346弄",121.541876328195,31.1775466336355,2022-04-29
"浦东新区","上海市浦东新区新浦路543弄",121.536926664835,31.1758010055361,2022-04-29
"浦东新区","上海市浦东新区新浦路587弄",121.532965137536,31.1927229594364,2022-04-29
"浦东新区","上海市浦东新区新浦路629弄",121.542012690971,31.1775770659788,2022-04-29
"浦东新区","上海市浦东新区新元南路正茂路交界口工地生活区",121.82788341782,30.8836711316312,2022-04-29
"浦东新区","上海市浦东新区新园路251弄",121.652778790863,31.290487771739,2022-04-29
"浦东新区","上海市浦东新区新跃路154弄",121.652778790863,31.290487771739,2022-04-29
"浦东新区","上海市浦东新区秀浦路788弄",121.580855331392,31.1330577420922,2022-04-29
"浦东新区","上海市浦东新区秀浦路800弄",121.584859707864,31.1200779398788,2022-04-29
"浦东新区","上海市浦东新区秀沿路1168弄",121.584859707864,31.1200779398788,2022-04-29
"浦东新区","上海市浦东新区秀沿路1弄",121.584859707864,31.1200779398788,2022-04-29
"浦东新区","上海市浦东新区秀沿路2501弄",121.607210087936,31.1446754834221,2022-04-29
"浦东新区","上海市浦东新区秀沿路2875弄",121.616066481959,31.1449302308223,2022-04-29
"浦东新区","上海市浦东新区秀沿西路68弄",121.543756032475,31.1375878662796,2022-04-29
"浦东新区","上海市浦东新区宣桥镇新安村宣治",121.692875375945,31.0232159912098,2022-04-29
"浦东新区","上海市浦东新区宣桥镇腰路村丰乐",121.693163821844,31.0795875736828,2022-04-29
"浦东新区","上海市浦东新区宣桥镇张家桥村胡桥",121.693527412796,31.0508223108026,2022-04-29
"浦东新区","上海市浦东新区宣中路289号生活区",121.710520970738,31.0371478626675,2022-04-29
"浦东新区","上海市浦东新区学北路20弄",121.711386398267,31.1957212480872,2022-04-29
"浦东新区","上海市浦东新区学前二村",121.590492532564,31.3525874321299,2022-04-29
"浦东新区","上海市浦东新区雪野二路296号工地生活区",121.481863055784,31.1831820039776,2022-04-29
"浦东新区","上海市浦东新区雪野路34弄",121.503822310181,31.1865529402405,2022-04-29
"浦东新区","上海市浦东新区严民路280弄",121.535971137264,31.193933020819,2022-04-29
"浦东新区","上海市浦东新区严民路40弄",121.535360828501,31.1982091563279,2022-04-29
"浦东新区","上海市浦东新区严桥路108弄",121.533823019298,31.1958828787975,2022-04-29
"浦东新区","上海市浦东新区严桥路150弄",121.53448201622,31.1955148268081,2022-04-29
"浦东新区","上海市浦东新区严桥路240弄",121.534920658801,31.1938866852314,2022-04-29
"浦东新区","上海市浦东新区严杨路165弄",121.535772517227,31.2010332805955,2022-04-29
"浦东新区","上海市浦东新区严杨路30弄",121.532512930542,31.1982761081556,2022-04-29
"浦东新区","上海市浦东新区严镇路75弄",121.534643980704,31.1975138429377,2022-04-29
"浦东新区","上海市浦东新区严中路373弄",121.539982161197,31.1948547081198,2022-04-29
"浦东新区","上海市浦东新区严中路388弄",121.539515401654,31.1948428926634,2022-04-29
"浦东新区","上海市浦东新区杨高北路4705弄",121.611561030673,31.2844008867663,2022-04-29
"浦东新区","上海市浦东新区杨高南路1218弄",121.536872766504,31.2110085182781,2022-04-29
"浦东新区","上海市浦东新区杨高南路2140弄",121.5300002802,31.1942849388584,2022-04-29
"浦东新区","上海市浦东新区杨高南路3288弄",121.525582413702,31.1746251599369,2022-04-29
"浦东新区","上海市浦东新区杨高南路5055弄",121.537526104102,31.1561531881371,2022-04-29
"浦东新区","上海市浦东新区杨高南路5777弄",121.550326957619,31.134223831037,2022-04-29
"浦东新区","上海市浦东新区杨高中路10弄",121.606373585845,31.2634200112248,2022-04-29
"浦东新区","上海市浦东新区杨高中路750弄",121.591252499026,31.258041279869,2022-04-29
"浦东新区","上海市浦东新区杨莲路310弄",121.536884264815,31.1897022555378,2022-04-29
"浦东新区","上海市浦东新区杨南路1015弄",121.513807514908,31.1584340984722,2022-04-29
"浦东新区","上海市浦东新区杨南路1899弄",121.525480006874,31.1614217413702,2022-04-29
"浦东新区","上海市浦东新区杨南路399弄",121.503661154173,31.1574167191885,2022-04-29
"浦东新区","上海市浦东新区杨南路694弄",121.507554859406,31.1553909666812,2022-04-29
"浦东新区","上海市浦东新区杨思路1121弄",121.512446312569,31.1707936532361,2022-04-29
"浦东新区","上海市浦东新区杨思路502弄",121.501390507335,31.1651814797804,2022-04-29
"浦东新区","上海市浦东新区杨思新村",121.600645630591,31.2244171774298,2022-04-29
"浦东新区","上海市浦东新区杨新路197弄",121.498520151739,31.1688455907204,2022-04-29
"浦东新区","上海市浦东新区杨新路198弄",121.498479727991,31.1692324410427,2022-04-29
"浦东新区","上海市浦东新区杨新路80弄",121.500333510246,31.1696131563215,2022-04-29
"浦东新区","上海市浦东新区杨新路89号",121.500261247479,31.1693171029611,2022-04-29
"浦东新区","上海市浦东新区杨新路93弄",121.500194952532,31.1693279946805,2022-04-29
"浦东新区","上海市浦东新区杨新路95号",121.500005679561,31.1692729953471,2022-04-29
"浦东新区","上海市浦东新区耀华路220弄",121.497392239341,31.1792613340205,2022-04-29
"浦东新区","上海市浦东新区耀华路414弄",121.492226982658,31.1790527910542,2022-04-29
"浦东新区","上海市浦东新区耀华路550弄",121.487451231245,31.1759876966065,2022-04-29
"浦东新区","上海市浦东新区耀华路579弄",121.48605966618,31.17881049444,2022-04-29
"浦东新区","上海市浦东新区耀华支路2号工地生活区",121.475803802003,31.1816234755384,2022-04-29
"浦东新区","上海市浦东新区耀元路228弄",121.480329835216,31.1769398309366,2022-04-29
"浦东新区","上海市浦东新区益江路299弄",121.637229571638,31.2035027591617,2022-04-29
"浦东新区","上海市浦东新区银冬路568号生活区",121.643025528618,31.2116879803861,2022-04-29
"浦东新区","上海市浦东新区银山路185弄",121.58695895801,31.250513515047,2022-04-29
"浦东新区","上海市浦东新区银山路200弄",121.586551217139,31.2497236588597,2022-04-29
"浦东新区","上海市浦东新区英伦路111号生活区",121.615716951285,31.316258010878,2022-04-29
"浦东新区","上海市浦东新区樱花路801弄",121.567035979088,31.214397826977,2022-04-29
"浦东新区","上海市浦东新区樱花路802弄",121.567473903024,31.2138070211684,2022-04-29
"浦东新区","上海市浦东新区永泰路133弄",121.509215736463,31.1415938891426,2022-04-29
"浦东新区","上海市浦东新区永泰路2079弄",121.525530311983,31.1391594184198,2022-04-29
"浦东新区","上海市浦东新区永泰路595弄",121.521072740381,31.1462686284638,2022-04-29
"浦东新区","上海市浦东新区永泰路630弄",121.52411305538,31.1453658573196,2022-04-29
"浦东新区","上海市浦东新区永业路188弄",121.62271349358,31.2730736171925,2022-04-29
"浦东新区","上海市浦东新区御衡路68弄",121.588337407815,31.159592610344,2022-04-29
"浦东新区","上海市浦东新区御桥路1978弄",121.536884264815,31.1897022555378,2022-04-29
"浦东新区","上海市浦东新区御青路260弄",121.584859707864,31.1200779398788,2022-04-29
"浦东新区","上海市浦东新区御青路56弄",121.578469072636,31.1650319243446,2022-04-29
"浦东新区","上海市浦东新区御山路360弄",121.574682445419,31.1620356669102,2022-04-29
"浦东新区","上海市浦东新区园二路299弄",121.641001825966,31.3230769196488,2022-04-29
"浦东新区","上海市浦东新区源深路600弄",121.540367174938,31.2377605429358,2022-04-29
"浦东新区","上海市浦东新区源深路836号",121.542754960814,31.2334733223372,2022-04-29
"浦东新区","上海市浦东新区云山路1395弄",121.584226761802,31.251544007244,2022-04-29
"浦东新区","上海市浦东新区云山路999弄",121.578509226892,31.2581962432747,2022-04-29
"浦东新区","上海市浦东新区云台路183弄",121.510618530348,31.1833989622759,2022-04-29
"浦东新区","上海市浦东新区运通路6号",121.703541226756,31.2208488872947,2022-04-29
"浦东新区","上海市浦东新区韵涛路36弄",121.584859707864,31.1200779398788,2022-04-29
"浦东新区","上海市浦东新区枣庄路1029弄",121.591822294211,31.2533881678545,2022-04-29
"浦东新区","上海市浦东新区枣庄路118弄",121.576826700672,31.2654180401154,2022-04-29
"浦东新区","上海市浦东新区枣庄路210弄",121.577389219582,31.2643915592667,2022-04-29
"浦东新区","上海市浦东新区枣庄路212弄",121.577860650314,31.2641916172029,2022-04-29
"浦东新区","上海市浦东新区张东路2281弄",121.643330323678,31.2079843888241,2022-04-29
"浦东新区","上海市浦东新区张江镇环东中心村桥弄天主堂宅",121.661359854247,31.1867612348264,2022-04-29
"浦东新区","上海市浦东新区张江镇沔北村朱家宅",121.637550266705,31.1732648435155,2022-04-29
"浦东新区","上海市浦东新区张江镇沔北村诸家宅",121.628810113415,31.1677259713913,2022-04-29
"浦东新区","上海市浦东新区张江镇钱堂村立达宅",121.599518706329,31.1638817454656,2022-04-29
"浦东新区","上海市浦东新区张杨北路5848弄",121.579901600432,31.3546347418898,2022-04-29
"浦东新区","上海市浦东新区张杨北路588弄",121.595215283953,31.275260170384,2022-04-29
"浦东新区","上海市浦东新区张杨路1673弄",121.549771894644,31.2433326325524,2022-04-29
"浦东新区","上海市浦东新区张杨路1698弄",121.551694448097,31.2417697732193,2022-04-29
"浦东新区","上海市浦东新区张杨路310弄",121.519739385513,31.2308058679906,2022-04-29
"浦东新区","上海市浦东新区张杨路370弄",121.521538421957,31.2321643454895,2022-04-29
"浦东新区","上海市浦东新区招远路19弄",121.521229943845,31.2416451169276,2022-04-29
"浦东新区","上海市浦东新区赵高公路610号",121.632972950979,31.3220401216688,2022-04-29
"浦东新区","上海市浦东新区中科路2500弄",121.642259274018,31.1948978769969,2022-04-29
"浦东新区","上海市浦东新区中科路2635弄",121.644202488498,31.1969291857144,2022-04-29
"浦东新区","上海市浦东新区周东路191弄",121.593915615541,31.1186181360998,2022-04-29
"浦东新区","上海市浦东新区周东路782弄",121.59005002727,31.1317982106719,2022-04-29
"浦东新区","上海市浦东新区周汇路158弄",121.584859707864,31.1200779398788,2022-04-29
"浦东新区","上海市浦东新区周浦镇果园村",121.655344890382,31.1190312393745,2022-04-29
"浦东新区","上海市浦东新区周浦镇里仁村",121.575105367653,31.1138505842326,2022-04-29
"浦东新区","上海市浦东新区周浦镇沈西村梅林",121.56865355782,31.0925725798678,2022-04-29
"浦东新区","上海市浦东新区周浦镇周南村",121.589970886555,31.111919735761,2022-04-29
"浦东新区","上海市浦东新区周泰路32弄",121.607434035499,31.107255809072,2022-04-29
"浦东新区","上海市浦东新区周星路500弄",121.585699803177,31.1080593111742,2022-04-29
"浦东新区","上海市浦东新区周阳路259弄",121.608888481951,31.0999497699982,2022-04-29
"浦东新区","上海市浦东新区周园路1680弄",121.584859707864,31.1200779398788,2022-04-29
"浦东新区","上海市浦东新区竹柏路366弄",121.914996953972,30.907133597653,2022-04-29
"浦东新区","上海市浦东新区祝家港路255弄",121.594791104091,31.1163357174362,2022-04-29
"浦东新区","上海市浦东新区祝家港路399弄",121.598346597299,31.1175235002507,2022-04-29
"浦东新区","上海市浦东新区祝桥镇红旗村俞家宅",121.762470427533,31.1755604770638,2022-04-29
"浦东新区","上海市浦东新区祝桥镇义泓村果园",121.843812620276,31.0819638207255,2022-04-29
"浦东新区","上海市浦东新区梓康路580弄",121.567316070746,31.1288750806472,2022-04-29
"浦东新区","上海市浦东新区紫叶路147弄",121.557617155985,31.1894307936389,2022-04-29
"浦东新区","上海市浦东新区紫叶路51弄",121.557614011916,31.1902708942297,2022-04-29
"浦东新区","上海市浦东新区邹平路191号工地生活区",121.521600584699,31.1763068548283,2022-04-29
"浦东新区","上海市浦东新区祖冲之路集创路交界口工地生活区",121.614742199976,31.2113691742905,2022-04-29
"黄浦区","上海市黄浦区保屯路180号",121.496907154365,31.2103224109692,2022-04-29
"黄浦区","上海市黄浦区保屯路211弄",121.498305816045,31.209535149529,2022-04-29
"黄浦区","上海市黄浦区保屯路50弄",121.496314991373,31.2118891156666,2022-04-29
"黄浦区","上海市黄浦区北海路267弄",121.484519341722,31.2360802599392,2022-04-29
"黄浦区","上海市黄浦区北京东路228弄",121.491444468729,31.246235400016,2022-04-29
"黄浦区","上海市黄浦区北京东路288弄",121.490646324283,31.2464802699138,2022-04-29
"黄浦区","上海市黄浦区北京东路316弄",121.477099248379,31.2054004512698,2022-04-29
"黄浦区","上海市黄浦区北京东路345号",121.489809552701,31.245917375379,2022-04-29
"黄浦区","上海市黄浦区北京东路431弄",121.488688467424,31.2454462486496,2022-04-29
"黄浦区","上海市黄浦区北京东路460号",121.487887178909,31.2457626231683,2022-04-29
"黄浦区","上海市黄浦区北京西路256号",121.475433161149,31.2417952447631,2022-04-29
"黄浦区","上海市黄浦区北京西路266号",121.475059376227,31.2417632895525,2022-04-29
"黄浦区","上海市黄浦区曹家街45号",121.492972037248,31.2246563452789,2022-04-29
"黄浦区","上海市黄浦区曹家街48弄",121.492725182894,31.2244683615626,2022-04-29
"黄浦区","上海市黄浦区曹家弄11号",121.491585592524,31.2372471520636,2022-04-29
"黄浦区","上海市黄浦区曹市弄42弄",121.495654826654,31.2249117246057,2022-04-29
"黄浦区","上海市黄浦区长乐路434弄",121.465529342902,31.2268726718444,2022-04-29
"黄浦区","上海市黄浦区成都北路274弄",121.474027313026,31.2345860579065,2022-04-29
"黄浦区","上海市黄浦区成都北路600号",121.473469734796,31.240024184076,2022-04-29
"黄浦区","上海市黄浦区成都南路132弄",121.474190714799,31.2275981061468,2022-04-29
"黄浦区","上海市黄浦区重庆北路212号",121.476441509084,31.2331334393856,2022-04-29
"黄浦区","上海市黄浦区重庆南路169弄",121.478156104811,31.2231556302522,2022-04-29
"黄浦区","上海市黄浦区重庆南路177号",121.477809987698,31.2220698569214,2022-04-29
"黄浦区","上海市黄浦区重庆南路18号",121.477852747041,31.2268588532583,2022-04-29
"黄浦区","上海市黄浦区重庆南路205弄",121.477585501151,31.2205009292658,2022-04-29
"黄浦区","上海市黄浦区重庆南路26弄",121.491585592524,31.2372471520636,2022-04-29
"黄浦区","上海市黄浦区重庆南路283号",121.479915436153,31.2153682629798,2022-04-29
"黄浦区","上海市黄浦区重庆南路30弄",121.477818162278,31.2253379471355,2022-04-29
"黄浦区","上海市黄浦区打浦路25号",121.477097451768,31.2097319655096,2022-04-29
"黄浦区","上海市黄浦区打浦路303弄",121.478195181101,31.2059046737052,2022-04-29
"黄浦区","上海市黄浦区打浦路316弄",121.477142906027,31.2052986798579,2022-04-29
"黄浦区","上海市黄浦区打浦路318号",121.478605616888,31.20485661383,2022-04-29
"黄浦区","上海市黄浦区打浦路339弄",121.478552257541,31.2052967494431,2022-04-29
"黄浦区","上海市黄浦区打浦路350号",121.47811352513,31.2044837324089,2022-04-29
"黄浦区","上海市黄浦区打浦路38弄",121.476392910756,31.2106707928914,2022-04-29
"黄浦区","上海市黄浦区打浦路470弄",121.479363247756,31.2030630784288,2022-04-29
"黄浦区","上海市黄浦区打浦路92号",121.477142456874,31.2087272653975,2022-04-29
"黄浦区","上海市黄浦区大夫坊25号",121.491585592524,31.2372471520636,2022-04-29
"黄浦区","上海市黄浦区大夫坊39号",121.491585592524,31.2372471520636,2022-04-29
"黄浦区","上海市黄浦区大沽路183弄",121.477665540172,31.2319429515929,2022-04-29
"黄浦区","上海市黄浦区大沽路191号",121.47719725351,31.2319528325033,2022-04-29
"黄浦区","上海市黄浦区大沽路254号",121.475885817296,31.2319917385775,2022-04-29
"黄浦区","上海市黄浦区大吉路26弄",121.449603104854,31.2296828975263,2022-04-29
"黄浦区","上海市黄浦区大吉路44弄",121.492894333822,31.2207215781948,2022-04-29
"黄浦区","上海市黄浦区大吉路57号",121.493029977954,31.2210478411933,2022-04-29
"黄浦区","上海市黄浦区大林路256号",121.490978338,31.2181194626927,2022-04-29
"黄浦区","上海市黄浦区大林路31弄",121.494257961586,31.2193829306693,2022-04-29
"黄浦区","上海市黄浦区大林路39号",121.494129234406,31.2195395022319,2022-04-29
"黄浦区","上海市黄浦区大林路43弄",121.49331950182,31.219241105019,2022-04-29
"黄浦区","上海市黄浦区淡水路208号",121.479680708923,31.2234540149858,2022-04-29
"黄浦区","上海市黄浦区淡水路210号",121.479653041113,31.2234698413164,2022-04-29
"黄浦区","上海市黄浦区淡水路214弄",121.479010483182,31.2233875443681,2022-04-29
"黄浦区","上海市黄浦区淡水路219号",121.479874383591,31.2230292507135,2022-04-29
"黄浦区","上海市黄浦区淡水路225弄",121.479878246304,31.2227551833205,2022-04-29
"黄浦区","上海市黄浦区淡水路227弄",121.479884264951,31.2227210599438,2022-04-29
"黄浦区","上海市黄浦区淡水路229弄",121.480324434651,31.2223618373075,2022-04-29
"黄浦区","上海市黄浦区淡水路232号",121.479694542828,31.2230056269078,2022-04-29
"黄浦区","上海市黄浦区淡水路266弄",121.47956931904,31.222047854132,2022-04-29
"黄浦区","上海市黄浦区淡水路274号",121.479712059785,31.2221101567539,2022-04-29
"黄浦区","上海市黄浦区淡水路460弄",121.480455677086,31.217062274703,2022-04-29
"黄浦区","上海市黄浦区定兴路16号",121.477781780905,31.2413086598904,2022-04-29
"黄浦区","上海市黄浦区豆市街75号",121.509620962079,31.2255498610741,2022-04-29
"黄浦区","上海市黄浦区多稼路168号",121.508546139536,31.2174490032215,2022-04-29
"黄浦区","上海市黄浦区多稼路208号",121.508549193775,31.2175481364076,2022-04-29
"黄浦区","上海市黄浦区方斜路401弄",121.490010862965,31.2204078211292,2022-04-29
"黄浦区","上海市黄浦区方斜路403号",121.490026044328,31.2203513076877,2022-04-29
"黄浦区","上海市黄浦区方斜路405号",121.489989842616,31.2203118563443,2022-04-29
"黄浦区","上海市黄浦区凤阳路228弄",121.478205960767,31.2405736834601,2022-04-29
"黄浦区","上海市黄浦区凤阳路358弄",121.475650191761,31.240041088235,2022-04-29
"黄浦区","上海市黄浦区福建中路225号",121.487760697493,31.2401062348282,2022-04-29
"黄浦区","上海市黄浦区福州路105号",121.494982804302,31.2408287105927,2022-04-29
"黄浦区","上海市黄浦区福州路384弄",121.489639054315,31.2400334466292,2022-04-29
"黄浦区","上海市黄浦区福州路614弄",121.485855032185,31.2389698679587,2022-04-29
"黄浦区","上海市黄浦区福州路646号",121.484994275845,31.2383369947022,2022-04-29
"黄浦区","上海市黄浦区复兴东路322号",121.50490144459,31.2264482318849,2022-04-29
"黄浦区","上海市黄浦区复兴东路330号",121.504685491946,31.2265609425748,2022-04-29
"黄浦区","上海市黄浦区复兴东路338号",121.50448732575,31.2265650341247,2022-04-29
"黄浦区","上海市黄浦区复兴东路346号",121.504371264678,31.226603324847,2022-04-29
"黄浦区","上海市黄浦区复兴东路354号",121.504317815501,31.2266762006947,2022-04-29
"黄浦区","上海市黄浦区复兴东路404弄",121.503635193144,31.2268925119336,2022-04-29
"黄浦区","上海市黄浦区复兴东路427弄",121.503317013332,31.2276403335529,2022-04-29
"黄浦区","上海市黄浦区复兴东路443弄",121.502922657213,31.2277467125648,2022-04-29
"黄浦区","上海市黄浦区复兴东路663弄",121.498122382059,31.2279773029395,2022-04-29
"黄浦区","上海市黄浦区复兴中路408弄",121.480135790494,31.2225478951959,2022-04-29
"黄浦区","上海市黄浦区复兴中路480弄",121.479297671453,31.2216158263835,2022-04-29
"黄浦区","上海市黄浦区复兴中路616弄",121.470347673996,31.2209954199316,2022-04-29
"黄浦区","上海市黄浦区高家横弄11号",121.491585592524,31.2372471520636,2022-04-29
"黄浦区","上海市黄浦区高家横弄18弄",121.471987979858,31.2162274328676,2022-04-29
"黄浦区","上海市黄浦区高家横弄19弄",121.491585592524,31.2372471520636,2022-04-29
"黄浦区","上海市黄浦区高家弄45弄",121.491585592524,31.2372471520636,2022-04-29
"黄浦区","上海市黄浦区高家弄47号",121.491585592524,31.2372471520636,2022-04-29
"黄浦区","上海市黄浦区高家弄60号",121.491585592524,31.2372471520636,2022-04-29
"黄浦区","上海市黄浦区高家弄66弄",121.484578540055,31.2354982364646,2022-04-29
"黄浦区","上海市黄浦区高家弄69号",121.491585592524,31.2372471520636,2022-04-29
"黄浦区","上海市黄浦区牯岭路145弄",121.477555497747,31.2417679207431,2022-04-29
"黄浦区","上海市黄浦区光启路103弄",121.50137002597,31.2297738349363,2022-04-29
"黄浦区","上海市黄浦区光启路215号",121.500806518923,31.228077968931,2022-04-29
"黄浦区","上海市黄浦区光启南路77号",121.501123261446,31.2264059267416,2022-04-29
"黄浦区","上海市黄浦区广东路138号",121.494688699078,31.2390723746523,2022-04-29
"黄浦区","上海市黄浦区广东路154号",121.494732266895,31.2392483647979,2022-04-29
"黄浦区","上海市黄浦区广东路543号",121.487577892322,31.237774668671,2022-04-29
"黄浦区","上海市黄浦区广东路658号",121.485644199881,31.2371210231277,2022-04-29
"黄浦区","上海市黄浦区广西北路134号",121.485300687854,31.2375118370194,2022-04-29
"黄浦区","上海市黄浦区广西北路228弄",121.485099557251,31.2391192282015,2022-04-29
"黄浦区","上海市黄浦区广西北路255弄",121.483857560053,31.2397740947917,2022-04-29
"黄浦区","上海市黄浦区广西北路425号",121.483259827566,31.2421428148632,2022-04-29
"黄浦区","上海市黄浦区广西南路21号",121.487140058217,31.2349399073597,2022-04-29
"黄浦区","上海市黄浦区贵州路169号",121.482444076333,31.2428328569367,2022-04-29
"黄浦区","上海市黄浦区国货路236号",121.501919699111,31.2143285703991,2022-04-29
"黄浦区","上海市黄浦区海潮路256弄",121.50354920089,31.2128867884433,2022-04-29
"黄浦区","上海市黄浦区海潮路93弄",121.505912038289,31.2149615288345,2022-04-29
"黄浦区","上海市黄浦区海口路7号",121.48750908212,31.2371253457868,2022-04-29
"黄浦区","上海市黄浦区汉口路425号",121.488895077691,31.2406955624338,2022-04-29
"黄浦区","上海市黄浦区汉口路678号",121.484266828043,31.2396475833219,2022-04-29
"黄浦区","上海市黄浦区河南南路1009弄",121.499914321891,31.2189816183382,2022-04-29
"黄浦区","上海市黄浦区河南南路600弄",121.497305552859,31.2256173337539,2022-04-29
"黄浦区","上海市黄浦区河南南路790弄",121.498540094122,31.2220411374899,2022-04-29
"黄浦区","上海市黄浦区河南中路130号",121.49288579992,31.2388916756538,2022-04-29
"黄浦区","上海市黄浦区河南中路166弄",121.492936733842,31.2395675390638,2022-04-29
"黄浦区","上海市黄浦区河南中路505号",121.490653420897,31.2443474582795,2022-04-29
"黄浦区","上海市黄浦区湖北路20号",121.488464340199,31.2370663723487,2022-04-29
"黄浦区","上海市黄浦区淮海中路567弄",121.474629626871,31.2262219609052,2022-04-29
"黄浦区","上海市黄浦区淮海中路593弄",121.474224760577,31.2263526592894,2022-04-29
"黄浦区","上海市黄浦区淮海中路605号",121.473892118047,31.2261869124002,2022-04-29
"黄浦区","上海市黄浦区淮海中路606弄",121.473667092517,31.2264680720641,2022-04-29
"黄浦区","上海市黄浦区淮海中路613弄",121.473823038353,31.2257835448502,2022-04-29
"黄浦区","上海市黄浦区淮海中路637弄",121.472951322686,31.225788408431,2022-04-29
"黄浦区","上海市黄浦区淮海中路697弄",121.471974235783,31.2249414467614,2022-04-29
"黄浦区","上海市黄浦区淮海中路833弄",121.468989885218,31.224196151208,2022-04-29
"黄浦区","上海市黄浦区淮海中路927弄",121.467196957251,31.2226196933692,2022-04-29
"黄浦区","上海市黄浦区黄陂南路584号",121.483072800359,31.221956445997,2022-04-29
"黄浦区","上海市黄浦区黄陂南路596弄",121.482998420663,31.2218577034941,2022-04-29
"黄浦区","上海市黄浦区黄河路215弄",121.434456955312,31.2533728868238,2022-04-29
"黄浦区","上海市黄浦区黄河路223弄",121.476039876691,31.2425346111887,2022-04-29
"黄浦区","上海市黄浦区黄家路88弄",121.50359063719,31.2212345193213,2022-04-29
"黄浦区","上海市黄浦区黄家阙路88弄",121.493958197037,31.2199379556041,2022-04-29
"黄浦区","上海市黄浦区徽宁路144号",121.500286310202,31.2171251982981,2022-04-29
"黄浦区","上海市黄浦区火腿弄21号",121.491585592524,31.2372471520636,2022-04-29
"黄浦区","上海市黄浦区济南路241号",121.486559303704,31.2235076700957,2022-04-29
"黄浦区","上海市黄浦区建国东路115弄",121.477432699384,31.2143144411244,2022-04-29
"黄浦区","上海市黄浦区建国东路127号",121.485297364124,31.2188429575022,2022-04-29
"黄浦区","上海市黄浦区建国东路131号",121.485264396312,31.2188054356594,2022-04-29
"黄浦区","上海市黄浦区建国东路143弄",121.485327098036,31.2182331870898,2022-04-29
"黄浦区","上海市黄浦区建国东路61弄",121.486442404214,31.219232432313,2022-04-29
"黄浦区","上海市黄浦区建国西路120弄",121.471453488079,31.2140467565938,2022-04-29
"黄浦区","上海市黄浦区建国西路180号",121.468890622459,31.2130024939337,2022-04-29
"黄浦区","上海市黄浦区建国西路91弄",121.478096367495,31.2181663267346,2022-04-29
"黄浦区","上海市黄浦区建国中路103弄",121.475834883374,31.2154260147615,2022-04-29
"黄浦区","上海市黄浦区建国中路155弄",121.474450414922,31.2147902799509,2022-04-29
"黄浦区","上海市黄浦区江西中路24弄",121.495056285693,31.2383518922436,2022-04-29
"黄浦区","上海市黄浦区江西中路261号",121.493232994999,31.2430678868832,2022-04-29
"黄浦区","上海市黄浦区江西中路304号",121.493110016975,31.2440498348388,2022-04-29
"黄浦区","上海市黄浦区江西中路38号",121.494728404182,31.2383869361917,2022-04-29
"黄浦区","上海市黄浦区江西中路412弄",121.492185570774,31.2467273311509,2022-04-29
"黄浦区","上海市黄浦区江西中路42号",121.494795417773,31.238426071158,2022-04-29
"黄浦区","上海市黄浦区江西中路451号",121.491606253551,31.2473839196508,2022-04-29
"黄浦区","上海市黄浦区江西中路452号",121.491936021504,31.2475258570077,2022-04-29
"黄浦区","上海市黄浦区江西中路473号",121.491468183994,31.2478163686858,2022-04-29
"黄浦区","上海市黄浦区江西中路481号",121.491411051764,31.2481271781348,2022-04-29
"黄浦区","上海市黄浦区江阴路120号",121.474823121878,31.2356090064632,2022-04-29
"黄浦区","上海市黄浦区江阴路88弄",121.475551737477,31.2358600331803,2022-04-29
"黄浦区","上海市黄浦区金陵东路511号",121.488424275774,31.233394430697,2022-04-29
"黄浦区","上海市黄浦区金陵东路57号",121.497950536215,31.2370931574096,2022-04-29
"黄浦区","上海市黄浦区金陵东路63号",121.497718773394,31.2370229141499,2022-04-29
"黄浦区","上海市黄浦区金陵东路67号",121.497575763157,31.2369573022663,2022-04-29
"黄浦区","上海市黄浦区金坛路15号",121.504809098784,31.2247310754563,2022-04-29
"黄浦区","上海市黄浦区金坛路35弄",121.504583354609,31.2247265978234,2022-04-29
"黄浦区","上海市黄浦区进贤路138弄",121.466170463544,31.2278474560023,2022-04-29
"黄浦区","上海市黄浦区进贤路154号",121.465814914224,31.2278022179664,2022-04-29
"黄浦区","上海市黄浦区进贤路156弄",121.465757781993,31.2279512100499,2022-04-29
"黄浦区","上海市黄浦区进贤路174弄",121.465491614071,31.2277653944978,2022-04-29
"黄浦区","上海市黄浦区静修路104弄",121.493245481446,31.2257681049094,2022-04-29
"黄浦区","上海市黄浦区静修路107号",121.493392444227,31.2254067323682,2022-04-29
"黄浦区","上海市黄浦区静修路10弄",121.495086289097,31.2253866603638,2022-04-29
"黄浦区","上海市黄浦区静修路114弄",121.493029798293,31.2257417798045,2022-04-29
"黄浦区","上海市黄浦区静修路126弄",121.486533342675,31.2255124191199,2022-04-29
"黄浦区","上海市黄浦区静修路36弄",121.494629590575,31.2258165863148,2022-04-29
"黄浦区","上海市黄浦区静修路37弄",121.494724990621,31.2259248201899,2022-04-29
"黄浦区","上海市黄浦区静修路50弄",121.494566978681,31.225231874186,2022-04-29
"黄浦区","上海市黄浦区静修路64弄",121.494219723715,31.2256019452523,2022-04-29
"黄浦区","上海市黄浦区静修路69号",121.494014880115,31.2256122385647,2022-04-29
"黄浦区","上海市黄浦区静修路76号",121.49401892249,31.2255481626765,2022-04-29
"黄浦区","上海市黄浦区静修路79弄",121.493854846988,31.2256074907745,2022-04-29
"黄浦区","上海市黄浦区静修路89号",121.493588993473,31.2255120331203,2022-04-29
"黄浦区","上海市黄浦区静修路95号",121.493553600236,31.2254937367371,2022-04-29
"黄浦区","上海市黄浦区九江路210号",121.492644964212,31.2428068453759,2022-04-29
"黄浦区","上海市黄浦区九江路595号",121.48584937286,31.2405418050197,2022-04-29
"黄浦区","上海市黄浦区九江路619号",121.485146628459,31.2401623504,2022-04-29
"黄浦区","上海市黄浦区九江路700号",121.483544859905,31.2403321634795,2022-04-29
"黄浦区","上海市黄浦区局门后路5号",121.487081219206,31.2152536858102,2022-04-29
"黄浦区","上海市黄浦区局门后路77号",121.487152544663,31.2143576782424,2022-04-29
"黄浦区","上海市黄浦区局门后路85号",121.487218659949,31.2142250328777,2022-04-29
"黄浦区","上海市黄浦区局门后路95弄",121.487407393936,31.2140128616707,2022-04-29
"黄浦区","上海市黄浦区局门后路9号",121.487192968411,31.2150331784097,2022-04-29
"黄浦区","上海市黄浦区局门路241弄",121.487610410982,31.2120270919029,2022-04-29
"黄浦区","上海市黄浦区局门路295弄",121.489189093085,31.2109224269886,2022-04-29
"黄浦区","上海市黄浦区局门路599弄",121.4896578289,31.2063988553875,2022-04-29
"黄浦区","上海市黄浦区局门路699号",121.489916017011,31.2058603446385,2022-04-29
"黄浦区","上海市黄浦区巨鹿路310弄",121.468393051037,31.2230778107397,2022-04-29
"黄浦区","上海市黄浦区巨鹿路318号",121.465494129326,31.2289545458972,2022-04-29
"黄浦区","上海市黄浦区巨鹿路367号",121.466125009286,31.2289298428278,2022-04-29
"黄浦区","上海市黄浦区巨鹿路383弄",121.46518663935,31.2286273068965,2022-04-29
"黄浦区","上海市黄浦区巨鹿路395弄",121.464895498534,31.2285669385482,2022-04-29
"黄浦区","上海市黄浦区聚奎新村",121.502708501179,31.2294960046602,2022-04-29
"黄浦区","上海市黄浦区老道前街16弄",121.493712330819,31.2239868976447,2022-04-29
"黄浦区","上海市黄浦区老道前街55号",121.494250146328,31.2232748298563,2022-04-29
"黄浦区","上海市黄浦区丽园路17号",121.496554749114,31.2168387604866,2022-04-29
"黄浦区","上海市黄浦区丽园路41号",121.496154374348,31.2167038024215,2022-04-29
"黄浦区","上海市黄浦区丽园路574弄",121.487358256625,31.2129483695405,2022-04-29
"黄浦区","上海市黄浦区丽园路710弄",121.486006396663,31.2123440426996,2022-04-29
"黄浦区","上海市黄浦区丽园路842弄",121.483621395534,31.2113782080457,2022-04-29
"黄浦区","上海市黄浦区丽园路866弄",121.482159493147,31.2122576437947,2022-04-29
"黄浦区","上海市黄浦区丽园路881号",121.48205403208,31.2125598465868,2022-04-29
"黄浦区","上海市黄浦区丽园路891号",121.481299635113,31.2125244069128,2022-04-29
"黄浦区","上海市黄浦区龙华东路72号",121.493112483232,31.201493916502,2022-04-29
"黄浦区","上海市黄浦区龙华东路888弄",121.477730128338,31.1990606070333,2022-04-29
"黄浦区","上海市黄浦区鲁班路168弄",121.480692470419,31.2107777316744,2022-04-29
"黄浦区","上海市黄浦区陆家浜路1034弄",121.496036516665,31.2171361616686,2022-04-29
"黄浦区","上海市黄浦区陆家浜路1060弄",121.494868000858,31.2173551199827,2022-04-29
"黄浦区","上海市黄浦区陆家浜路1088号",121.494590244794,31.2176036478577,2022-04-29
"黄浦区","上海市黄浦区陆家浜路1300号",121.49057401069,31.2171658862935,2022-04-29
"黄浦区","上海市黄浦区陆家浜路305弄",121.507385528817,31.2171620259531,2022-04-29
"黄浦区","上海市黄浦区陆家浜路413弄",121.505863709453,31.2173034687199,2022-04-29
"黄浦区","上海市黄浦区陆家浜路468弄",121.504498105416,31.2161071433814,2022-04-29
"黄浦区","上海市黄浦区陆家浜路688弄",121.501678953234,31.2180530654927,2022-04-29
"黄浦区","上海市黄浦区陆家浜路976号",121.496603796595,31.2177531966214,2022-04-29
"黄浦区","上海市黄浦区陆家宅路91弄",121.502350619858,31.2301080052278,2022-04-29
"黄浦区","上海市黄浦区马当路222弄",121.480812304374,31.2254941999367,2022-04-29
"黄浦区","上海市黄浦区马当路278弄",121.480389561801,31.2236803698593,2022-04-29
"黄浦区","上海市黄浦区马当路306弄",121.480125639642,31.2230886190092,2022-04-29
"黄浦区","上海市黄浦区马当路312号",121.481132999441,31.2230918614898,2022-04-29
"黄浦区","上海市黄浦区马当路328弄",121.481281040189,31.2228701373191,2022-04-29
"黄浦区","上海市黄浦区马当路436号",121.481861165887,31.2191398118808,2022-04-29
"黄浦区","上海市黄浦区毛家园路88弄",121.507601750953,31.2598748941387,2022-04-29
"黄浦区","上海市黄浦区茂名南路12号",121.466783467224,31.2290071170949,2022-04-29
"黄浦区","上海市黄浦区茂名南路58号",121.466138034715,31.2256648888399,2022-04-29
"黄浦区","上海市黄浦区蒙自路345弄",121.485623179532,31.21018620811,2022-04-29
"黄浦区","上海市黄浦区蒙自路490弄",121.485480618448,31.2072328582784,2022-04-29
"黄浦区","上海市黄浦区蒙自路601弄",121.487528126197,31.2051225486478,2022-04-29
"黄浦区","上海市黄浦区蒙自西路14号",121.483121308857,31.2134690742459,2022-04-29
"黄浦区","上海市黄浦区蒙自西路76号",121.481230016436,31.2131929713998,2022-04-29
"黄浦区","上海市黄浦区梦花街113号",121.494196786981,31.2245916511308,2022-04-29
"黄浦区","上海市黄浦区梦花街13弄",121.492488659054,31.2236649295716,2022-04-29
"黄浦区","上海市黄浦区梦花街151号",121.493618907046,31.2243223747692,2022-04-29
"黄浦区","上海市黄浦区梦花街163弄",121.493390198463,31.2243261576133,2022-04-29
"黄浦区","上海市黄浦区梦花街17号",121.495783643664,31.2253594859511,2022-04-29
"黄浦区","上海市黄浦区梦花街181号",121.493079115265,31.2241479005662,2022-04-29
"黄浦区","上海市黄浦区梦花街31号",121.495494928273,31.2253925275655,2022-04-29
"黄浦区","上海市黄浦区梦花街3弄",121.491585592524,31.2372471520636,2022-04-29
"黄浦区","上海市黄浦区梦花街57弄",121.495054893319,31.2250398772096,2022-04-29
"黄浦区","上海市黄浦区梦花街71号",121.494924144952,31.2249995786386,2022-04-29
"黄浦区","上海市黄浦区梦花街73弄",121.494698310947,31.224742037936,2022-04-29
"黄浦区","上海市黄浦区梦花街79号",121.494692382131,31.2248291201234,2022-04-29
"黄浦区","上海市黄浦区面筋弄11号",121.504791132674,31.2258243834812,2022-04-29
"黄浦区","上海市黄浦区面筋弄12弄",121.504795534371,31.2263274151385,2022-04-29
"黄浦区","上海市黄浦区面筋弄24号",121.504795534371,31.2263274151385,2022-04-29
"黄浦区","上海市黄浦区面筋弄29号",121.504795534371,31.2263274151385,2022-04-29
"黄浦区","上海市黄浦区面筋弄35号",121.504795534371,31.2263274151385,2022-04-29
"黄浦区","上海市黄浦区南昌路136弄",121.474628099751,31.2251238711102,2022-04-29
"黄浦区","上海市黄浦区南昌路152号",121.473944668919,31.224768208921,2022-04-29
"黄浦区","上海市黄浦区南昌路230号",121.471522927095,31.22394594241,2022-04-29
"黄浦区","上海市黄浦区南昌路280号",121.469465448155,31.2232416330906,2022-04-29
"黄浦区","上海市黄浦区南昌路282号",121.469274737895,31.2234240607528,2022-04-29
"黄浦区","上海市黄浦区南昌路302号",121.468673681679,31.2229444829126,2022-04-29
"黄浦区","上海市黄浦区南昌路312号",121.468504800243,31.2227574221841,2022-04-29
"黄浦区","上海市黄浦区南昌路69弄",121.472100986691,31.2239818409673,2022-04-29
"黄浦区","上海市黄浦区南昌路74弄",121.477767497848,31.2253373295349,2022-04-29
"黄浦区","上海市黄浦区南车站路192弄",121.4977067361,31.2149374397409,2022-04-29
"黄浦区","上海市黄浦区南车站路30弄",121.496219681159,31.2172356812197,2022-04-29
"黄浦区","上海市黄浦区南车站路438号",121.499896535442,31.2110261997977,2022-04-29
"黄浦区","上海市黄浦区南车站路450弄",121.50015381014,31.2106206821849,2022-04-29
"黄浦区","上海市黄浦区南车站路90号",121.496743393271,31.2166219627679,2022-04-29
"黄浦区","上海市黄浦区南京东路120号",121.49405000386,31.244275831148,2022-04-29
"黄浦区","上海市黄浦区南京西路455弄",121.474520572582,31.2368317132736,2022-04-29
"黄浦区","上海市黄浦区南京西路457号",121.474810725262,31.2368551020171,2022-04-29
"黄浦区","上海市黄浦区南塘浜路93弄",121.48067306702,31.2097893347034,2022-04-29
"黄浦区","上海市黄浦区宁安路99弄",121.492627986238,31.222318835494,2022-04-29
"黄浦区","上海市黄浦区宁波路120弄",121.491211897432,31.2454927130886,2022-04-29
"黄浦区","上海市黄浦区宁波路219号",121.489700767903,31.2447031232236,2022-04-29
"黄浦区","上海市黄浦区宁波路51号",121.492500786178,31.2452096038235,2022-04-29
"黄浦区","上海市黄浦区宁波路587弄",121.48300129524,31.2423587044126,2022-04-29
"黄浦区","上海市黄浦区牌楼路41弄",121.493170203444,31.2194087943331,2022-04-29
"黄浦区","上海市黄浦区蓬莱路252弄",121.496682577988,31.223207201084,2022-04-29
"黄浦区","上海市黄浦区蓬莱路257号",121.496475967721,31.2233218457205,2022-04-29
"黄浦区","上海市黄浦区蓬莱路303弄",121.495558797795,31.2232214834201,2022-04-29
"黄浦区","上海市黄浦区蓬莱路362弄",121.494954597509,31.2222597755204,2022-04-29
"黄浦区","上海市黄浦区蓬莱路391弄",121.494309703983,31.2222519780571,2022-04-29
"黄浦区","上海市黄浦区蓬莱路401号",121.494229395471,31.2221228952031,2022-04-29
"黄浦区","上海市黄浦区蓬莱路405弄",121.493879146152,31.2220148113367,2022-04-29
"黄浦区","上海市黄浦区平望街6弄",121.491585592524,31.2372471520636,2022-04-29
"黄浦区","上海市黄浦区普育东路101弄",121.502876214818,31.2152174750717,2022-04-29
"黄浦区","上海市黄浦区普育东路200弄",121.502308755228,31.2136236482467,2022-04-29
"黄浦区","上海市黄浦区普育东路26号",121.502612651982,31.2167004053053,2022-04-29
"黄浦区","上海市黄浦区普育东路71弄",121.503539343946,31.2153491925307,2022-04-29
"黄浦区","上海市黄浦区普育西支路71号",121.499323326696,31.2178305573232,2022-04-29
"黄浦区","上海市黄浦区瞿溪路1003弄",121.483856931239,31.2057716302849,2022-04-29
"黄浦区","上海市黄浦区瞿溪路1072弄",121.481430608056,31.2047559228658,2022-04-29
"黄浦区","上海市黄浦区瞿溪路114号",121.501800763462,31.2126111916244,2022-04-29
"黄浦区","上海市黄浦区瞿溪路115号",121.501601788791,31.2127052340414,2022-04-29
"黄浦区","上海市黄浦区瞿溪路1162号",121.479723019112,31.2044218813608,2022-04-29
"黄浦区","上海市黄浦区瞿溪路116号",121.50155103453,31.212322886943,2022-04-29
"黄浦区","上海市黄浦区瞿溪路117号",121.501438117527,31.2125793808676,2022-04-29
"黄浦区","上海市黄浦区瞿溪路118号",121.501412875142,31.2123154747059,2022-04-29
"黄浦区","上海市黄浦区瞿溪路1200弄",121.477917514868,31.2023023965439,2022-04-29
"黄浦区","上海市黄浦区瞿溪路120弄",121.50172216173,31.2120859266995,2022-04-29
"黄浦区","上海市黄浦区瞿溪路121号",121.501095863128,31.2123133128033,2022-04-29
"黄浦区","上海市黄浦区瞿溪路122号",121.50094297153,31.2119094994099,2022-04-29
"黄浦区","上海市黄浦区瞿溪路124号",121.500928149489,31.2119289566153,2022-04-29
"黄浦区","上海市黄浦区瞿溪路1254弄",121.476834158423,31.2024935135258,2022-04-29
"黄浦区","上海市黄浦区瞿溪路128号",121.500242023741,31.2113521877401,2022-04-29
"黄浦区","上海市黄浦区瞿溪路129号",121.500388267878,31.2118219419358,2022-04-29
"黄浦区","上海市黄浦区瞿溪路131号",121.500236544077,31.211707051581,2022-04-29
"黄浦区","上海市黄浦区瞿溪路132号",121.500242023741,31.2113521877401,2022-04-29
"黄浦区","上海市黄浦区瞿溪路501弄",121.494421093867,31.2090077825832,2022-04-29
"黄浦区","上海市黄浦区瞿溪路639号",121.491079038047,31.2079848521103,2022-04-29
"黄浦区","上海市黄浦区瞿溪路883弄",121.485768974517,31.2063427195683,2022-04-29
"黄浦区","上海市黄浦区瞿溪路904弄",121.485646894798,31.2058076130278,2022-04-29
"黄浦区","上海市黄浦区瞿溪路913号",121.485075123341,31.2058909292399,2022-04-29
"黄浦区","上海市黄浦区瞿溪路937弄",121.484684090952,31.2063509816511,2022-04-29
"黄浦区","上海市黄浦区汝南街51号",121.490659978527,31.2086638728755,2022-04-29
"黄浦区","上海市黄浦区瑞金二路129弄",121.473344421178,31.219376754271,2022-04-29
"黄浦区","上海市黄浦区瑞金二路149号",121.471934710341,31.2195174216428,2022-04-29
"黄浦区","上海市黄浦区瑞金二路40弄",121.470828986089,31.2228431937821,2022-04-29
"黄浦区","上海市黄浦区瑞金二路410弄",121.473398499169,31.2133016831321,2022-04-29
"黄浦区","上海市黄浦区瑞金二路456弄",121.473417183924,31.2114474668059,2022-04-29
"黄浦区","上海市黄浦区瑞金二路52弄",121.470646001256,31.2218631849024,2022-04-29
"黄浦区","上海市黄浦区瑞金二路70弄",121.470872104753,31.2213571183194,2022-04-29
"黄浦区","上海市黄浦区瑞金南路1号",121.474173108011,31.2107613627134,2022-04-29
"黄浦区","上海市黄浦区瑞金南路345弄",121.476182976759,31.2034068542674,2022-04-29
"黄浦区","上海市黄浦区桑园街38弄",121.504158366273,31.2190515663212,2022-04-29
"黄浦区","上海市黄浦区山西南路200号",121.489030003179,31.2432878651158,2022-04-29
"黄浦区","上海市黄浦区山西南路9弄",121.491585592524,31.2372471520636,2022-04-29
"黄浦区","上海市黄浦区陕西南路271弄",121.469344985386,31.2142398570488,2022-04-29
"黄浦区","上海市黄浦区陕西南路287弄",121.468602895204,31.2136275859427,2022-04-29
"黄浦区","上海市黄浦区陕西南路307弄",121.469131009014,31.2115988784769,2022-04-29
"黄浦区","上海市黄浦区陕西南路39弄",121.464726257776,31.2253950751662,2022-04-29
"黄浦区","上海市黄浦区陕西南路5号",121.463831545488,31.228898346405,2022-04-29
"黄浦区","上海市黄浦区尚文路133弄",121.497992576913,31.2215084367606,2022-04-29
"黄浦区","上海市黄浦区尚文路149弄",121.497904932239,31.2213494751875,2022-04-29
"黄浦区","上海市黄浦区尚文路161号",121.497653915736,31.2215633282368,2022-04-29
"黄浦区","上海市黄浦区绍兴路102弄",121.468610171479,31.2149898643951,2022-04-29
"黄浦区","上海市黄浦区绍兴路18弄",121.471915666264,31.2163747448135,2022-04-29
"黄浦区","上海市黄浦区绍兴路92号",121.469214012443,31.2151123171549,2022-04-29
"黄浦区","上海市黄浦区顺昌路491弄",121.486070086524,31.2188854976803,2022-04-29
"黄浦区","上海市黄浦区顺昌路497号",121.486016727176,31.2188377847388,2022-04-29
"黄浦区","上海市黄浦区顺昌路520弄",121.485772208417,31.2176814719214,2022-04-29
"黄浦区","上海市黄浦区顺昌路526号",121.485946030533,31.2182763451922,2022-04-29
"黄浦区","上海市黄浦区思南路78号",121.476633746464,31.2158613910173,2022-04-29
"黄浦区","上海市黄浦区思南路82弄",121.476642639688,31.2154736522338,2022-04-29
"黄浦区","上海市黄浦区四川中路126弄",121.496402396499,31.2402469482272,2022-04-29
"黄浦区","上海市黄浦区四川中路146号",121.495874103029,31.2405142490708,2022-04-29
"黄浦区","上海市黄浦区四川中路629号",121.492675416769,31.2481168358455,2022-04-29
"黄浦区","上海市黄浦区四牌楼路81弄",121.502118583951,31.2297261275455,2022-04-29
"黄浦区","上海市黄浦区四牌楼路95弄",121.502076049185,31.2295805349371,2022-04-29
"黄浦区","上海市黄浦区泗泾路30号",121.493115406808,31.2391713305556,2022-04-29
"黄浦区","上海市黄浦区天津路179弄",121.489620998374,31.2433134906166,2022-04-29
"黄浦区","上海市黄浦区天津路268号",121.487513663478,31.243361885745,2022-04-29
"黄浦区","上海市黄浦区天津路305弄",121.48715532941,31.2430176391512,2022-04-29
"黄浦区","上海市黄浦区天津路478弄",121.483546836177,31.2423470493228,2022-04-29
"黄浦区","上海市黄浦区天津路480号",121.483844624453,31.2421933718099,2022-04-29
"黄浦区","上海市黄浦区天柱山路17弄",121.500176986422,31.2168069511661,2022-04-29
"黄浦区","上海市黄浦区铁道路140号",121.493438437469,31.2058592706323,2022-04-29
"黄浦区","上海市黄浦区文庙路107号",121.4962753761,31.2241373240222,2022-04-29
"黄浦区","上海市黄浦区文庙路163号",121.495405726536,31.2237242202627,2022-04-29
"黄浦区","上海市黄浦区文庙路91号",121.496427998206,31.2242489566818,2022-04-29
"黄浦区","上海市黄浦区吾园街86号",121.498002188782,31.2224195075722,2022-04-29
"黄浦区","上海市黄浦区五里桥路256号",121.486539271492,31.2092637450955,2022-04-29
"黄浦区","上海市黄浦区五里桥路269弄",121.48593902375,31.2095841026205,2022-04-29
"黄浦区","上海市黄浦区西仓桥街112弄",121.496291276108,31.2259735331128,2022-04-29
"黄浦区","上海市黄浦区西仓桥街129号",121.496106674326,31.2260856267788,2022-04-29
"黄浦区","上海市黄浦区西仓桥街138弄",121.517276860618,31.2603853054475,2022-04-29
"黄浦区","上海市黄浦区西仓桥街162弄",121.495642430038,31.2256990111432,2022-04-29
"黄浦区","上海市黄浦区西仓桥街93号",121.49670252037,31.2263716502976,2022-04-29
"黄浦区","上海市黄浦区西仓桥街98号",121.496665240692,31.2260059569143,2022-04-29
"黄浦区","上海市黄浦区西藏南路1090弄",121.492658798117,31.2169561151676,2022-04-29
"黄浦区","上海市黄浦区西藏南路1277弄",121.494160585269,31.2139548773889,2022-04-29
"黄浦区","上海市黄浦区西藏南路1341弄",121.494635788883,31.2116118499907,2022-04-29
"黄浦区","上海市黄浦区西藏南路1374弄",121.493515512082,31.2116939256578,2022-04-29
"黄浦区","上海市黄浦区西藏南路1407号",121.495159950149,31.2109548560038,2022-04-29
"黄浦区","上海市黄浦区西藏南路1501弄",121.495667852084,31.2087940552798,2022-04-29
"黄浦区","上海市黄浦区西藏南路1717弄",121.49862291789,31.2053518048576,2022-04-29
"黄浦区","上海市黄浦区西藏南路1739弄",121.498159482077,31.2045029595054,2022-04-29
"黄浦区","上海市黄浦区西藏南路381号",121.488391757114,31.2281262175465,2022-04-29
"黄浦区","上海市黄浦区西凌家宅路111弄",121.493016593202,31.2103186275591,2022-04-29
"黄浦区","上海市黄浦区西凌家宅路27弄",121.493752125753,31.2105657842924,2022-04-29
"黄浦区","上海市黄浦区西姚家弄11号",121.503737959294,31.2281638900481,2022-04-29
"黄浦区","上海市黄浦区西姚家弄29号",121.503160887834,31.2281532367603,2022-04-29
"黄浦区","上海市黄浦区西姚家弄31号",121.503061265753,31.228153313958,2022-04-29
"黄浦区","上海市黄浦区西姚家弄52号",121.502382775602,31.2284657327004,2022-04-29
"黄浦区","上海市黄浦区先棉祠街105弄",121.496945152689,31.2229698823801,2022-04-29
"黄浦区","上海市黄浦区先棉祠街31号",121.498083934584,31.223261010739,2022-04-29
"黄浦区","上海市黄浦区先棉祠街32弄",121.497948290452,31.2227690025125,2022-04-29
"黄浦区","上海市黄浦区先棉祠街38号",121.497841032774,31.2228828756649,2022-04-29
"黄浦区","上海市黄浦区县左街20弄",121.501370385292,31.229773603347,2022-04-29
"黄浦区","上海市黄浦区县左街32号",121.501298610682,31.230074128472,2022-04-29
"黄浦区","上海市黄浦区香港路55号",121.493879864797,31.2483021478866,2022-04-29
"黄浦区","上海市黄浦区香山路36号",121.47164276105,31.2218820224157,2022-04-29
"黄浦区","上海市黄浦区小桃园街50弄",121.496133264169,31.2267181969201,2022-04-29
"黄浦区","上海市黄浦区斜土东路158弄",121.495445790962,31.2135645055772,2022-04-29
"黄浦区","上海市黄浦区斜土东路23弄",121.496886942491,31.2144777383494,2022-04-29
"黄浦区","上海市黄浦区斜土路118弄",121.489370999951,31.2115998822251,2022-04-29
"黄浦区","上海市黄浦区斜土路195弄",121.488632592821,31.2120941882756,2022-04-29
"黄浦区","上海市黄浦区斜土路22号",121.490573112384,31.2122516213479,2022-04-29
"黄浦区","上海市黄浦区斜土路251弄",121.487102598877,31.2113163615509,2022-04-29
"黄浦区","上海市黄浦区斜土路262弄",121.487484738041,31.2107963397823,2022-04-29
"黄浦区","上海市黄浦区斜土路298弄",121.486648505442,31.2107846035487,2022-04-29
"黄浦区","上海市黄浦区斜土路486弄",121.483998234695,31.2084093757901,2022-04-29
"黄浦区","上海市黄浦区斜土路520号",121.483011356262,31.209060442198,2022-04-29
"黄浦区","上海市黄浦区斜土路530号",121.482802230739,31.2089081770726,2022-04-29
"黄浦区","上海市黄浦区斜土路540号",121.482678534071,31.2089838463849,2022-04-29
"黄浦区","上海市黄浦区斜土路550弄",121.483031388475,31.2088232420574,2022-04-29
"黄浦区","上海市黄浦区斜土路645号",121.480752207735,31.2089162072882,2022-04-29
"黄浦区","上海市黄浦区斜土路80弄",121.490479149628,31.2107099394492,2022-04-29
"黄浦区","上海市黄浦区斜土路85弄",121.489755025556,31.2122803437828,2022-04-29
"黄浦区","上海市黄浦区斜土支路5号",121.49068333447,31.211769901564,2022-04-29
"黄浦区","上海市黄浦区新昌路328弄",121.474649209931,31.2424730168396,2022-04-29
"黄浦区","上海市黄浦区新闸路274号",121.474435997118,31.245219811363,2022-04-29
"黄浦区","上海市黄浦区兴安路163弄",121.476799034677,31.2268428731032,2022-04-29
"黄浦区","上海市黄浦区徐家汇路135弄",121.484746613016,31.2153483432394,2022-04-29
"黄浦区","上海市黄浦区徐家汇路177号",121.483817765118,31.2150377337149,2022-04-29
"黄浦区","上海市黄浦区徐家汇路1弄",121.488376665582,31.2165762560622,2022-04-29
"黄浦区","上海市黄浦区徐家汇路528号",121.477310978988,31.2131464137088,2022-04-29
"黄浦区","上海市黄浦区徐家汇路536弄",121.477049841576,31.2132213847057,2022-04-29
"黄浦区","上海市黄浦区徐家汇路7号",121.487695929666,31.2165669139794,2022-04-29
"黄浦区","上海市黄浦区薛家浜路159弄",121.509806911319,31.2174097822746,2022-04-29
"黄浦区","上海市黄浦区薛家浜路218号",121.508706397239,31.2168375251734,2022-04-29
"黄浦区","上海市黄浦区薛家浜路236号",121.508702624356,31.2165631308217,2022-04-29
"黄浦区","上海市黄浦区薛家浜路242弄",121.508629322626,31.2162139987478,2022-04-29
"黄浦区","上海市黄浦区学前街111弄",121.496114489583,31.2219156056781,2022-04-29
"黄浦区","上海市黄浦区学前街156号",121.496594723709,31.2205836919761,2022-04-29
"黄浦区","上海市黄浦区学前街159号",121.496611072869,31.2210736271935,2022-04-29
"黄浦区","上海市黄浦区学西街19号",121.493664540966,31.2233881619815,2022-04-29
"黄浦区","上海市黄浦区学西街1号",121.493912113965,31.2234769438639,2022-04-29
"黄浦区","上海市黄浦区学西街20弄",121.493627141513,31.223373596598,2022-04-29
"黄浦区","上海市黄浦区学西街33号",121.493457930699,31.2233078722067,2022-04-29
"黄浦区","上海市黄浦区学西街39弄",121.493347304375,31.2232647164243,2022-04-29
"黄浦区","上海市黄浦区学西街9弄",121.491585592524,31.2372471520636,2022-04-29
"黄浦区","上海市黄浦区学院路228号",121.499588955635,31.2286995635896,2022-04-29
"黄浦区","上海市黄浦区学院路32弄",121.503531618518,31.2286071583856,2022-04-29
"黄浦区","上海市黄浦区学院路72号",121.50245104682,31.228808102919,2022-04-29
"黄浦区","上海市黄浦区巡道街15号",121.504161600172,31.2264183558094,2022-04-29
"黄浦区","上海市黄浦区巡道街23号",121.504152527287,31.2262536898268,2022-04-29
"黄浦区","上海市黄浦区巡道街37弄",121.504213881553,31.2259766210944,2022-04-29
"黄浦区","上海市黄浦区巡道街51号",121.504127734055,31.2257647853218,2022-04-29
"黄浦区","上海市黄浦区巡道街53弄",121.504287812097,31.2257333650333,2022-04-29
"黄浦区","上海市黄浦区巡道街60号",121.504023530616,31.2255510190725,2022-04-29
"黄浦区","上海市黄浦区巡道街62号",121.504025417057,31.225523381508,2022-04-29
"黄浦区","上海市黄浦区巡道街70号",121.50394277295,31.225333932732,2022-04-29
"黄浦区","上海市黄浦区延安东路1256弄",121.478339808288,31.231823222667,2022-04-29
"黄浦区","上海市黄浦区延安东路1292弄",121.478033306448,31.2317579931103,2022-04-29
"黄浦区","上海市黄浦区延安中路545弄",121.465342675017,31.2296719356254,2022-04-29
"黄浦区","上海市黄浦区雁荡路51弄",121.476776127887,31.2261871439983,2022-04-29
"黄浦区","上海市黄浦区仪凤弄61弄",121.492471052266,31.2239735804403,2022-04-29
"黄浦区","上海市黄浦区迎勋北路8弄",121.491585592524,31.2372471520636,2022-04-29
"黄浦区","上海市黄浦区永年路140号",121.48540264553,31.2179607269827,2022-04-29
"黄浦区","上海市黄浦区永年路178弄",121.484835904584,31.2179101216466,2022-04-29
"黄浦区","上海市黄浦区永年路74号",121.486809571619,31.2182165106085,2022-04-29
"黄浦区","上海市黄浦区永胜路67号",121.496484142301,31.2356056872248,2022-04-29
"黄浦区","上海市黄浦区永泰街26号",121.503824106792,31.2217579572478,2022-04-29
"黄浦区","上海市黄浦区永泰街27号",121.50411713405,31.2215121425153,2022-04-29
"黄浦区","上海市黄浦区永泰街28号",121.503907110221,31.2216027018496,2022-04-29
"黄浦区","上海市黄浦区肇嘉浜路168弄",121.47033518755,31.2099309430341,2022-04-29
"黄浦区","上海市黄浦区肇周路130号",121.48796551115,31.2225088307902,2022-04-29
"黄浦区","上海市黄浦区浙江中路109弄",121.486689647834,31.2376295517271,2022-04-29
"黄浦区","上海市黄浦区浙江中路118弄",121.486697642753,31.2378334100933,2022-04-29
"黄浦区","上海市黄浦区浙江中路128弄",121.486610237627,31.237968878016,2022-04-29
"黄浦区","上海市黄浦区浙江中路168弄",121.486015020396,31.2390990819501,2022-04-29
"黄浦区","上海市黄浦区制造局路365弄",121.491094399072,31.2109848914388,2022-04-29
"黄浦区","上海市黄浦区制造局路370弄",121.490967743528,31.2121753784511,2022-04-29
"黄浦区","上海市黄浦区制造局路455弄",121.491010407506,31.210925129407,2022-04-29
"黄浦区","上海市黄浦区制造局路529号",121.491455697548,31.2096017071961,2022-04-29
"黄浦区","上海市黄浦区制造局路567弄",121.491828673995,31.2093086060248,2022-04-29
"黄浦区","上海市黄浦区制造局路859弄",121.493007789808,31.2045940758128,2022-04-29
"黄浦区","上海市黄浦区中华路1022号",121.497282107085,31.2202435305927,2022-04-29
"黄浦区","上海市黄浦区中华路1141弄",121.495266399351,31.2208021790035,2022-04-29
"黄浦区","上海市黄浦区中华路1299弄",121.497128807935,31.2185663181058,2022-04-29
"黄浦区","上海市黄浦区中华路1349弄",121.522976339587,31.1878111189923,2022-04-29
"黄浦区","上海市黄浦区中华路313号",121.505386439735,31.2259730699155,2022-04-29
"黄浦区","上海市黄浦区中华路319号",121.505378265155,31.2258604357173,2022-04-29
"黄浦区","上海市黄浦区中华路333号",121.505256275267,31.2255354246935,2022-04-29
"黄浦区","上海市黄浦区中华路367号",121.505105719263,31.2251215551029,2022-04-29
"黄浦区","上海市黄浦区中华路989号",121.497596514014,31.2203453629658,2022-04-29
"黄浦区","上海市黄浦区中华路999号",121.497145654478,31.2205095761196,2022-04-29
"黄浦区","上海市黄浦区中山南路1358弄",121.506243782514,31.2161680602201,2022-04-29
"黄浦区","上海市黄浦区中山南路1726弄",121.49944953862,31.2099897019351,2022-04-29
"黄浦区","上海市黄浦区中山南路1748号",121.499606382762,31.209627496349,2022-04-29
"黄浦区","上海市黄浦区中山南路1887弄",121.499093540146,31.2077535947672,2022-04-29
"黄浦区","上海市黄浦区中山南路1891号",121.497734044587,31.2074378638698,2022-04-29
"黄浦区","上海市黄浦区中山南路36号",121.506283038465,31.2296211403215,2022-04-29
"黄浦区","上海市黄浦区中山南路398弄",121.510184109803,31.2265577002144,2022-04-29
"黄浦区","上海市黄浦区中山南路891号",121.513223795988,31.218398870859,2022-04-29
"黄浦区","上海市黄浦区中山南一路101弄",121.494638393969,31.2071387331504,2022-04-29
"黄浦区","上海市黄浦区中山南一路161弄",121.494403037926,31.2067948165787,2022-04-29
"黄浦区","上海市黄浦区中山南一路247弄",121.492960718599,31.2063049610685,2022-04-29
"黄浦区","上海市黄浦区中山南一路254号",121.493356332346,31.205938262699,2022-04-29
"黄浦区","上海市黄浦区中山南一路256弄",121.493082259335,31.2058115510524,2022-04-29
"黄浦区","上海市黄浦区中山南一路270号",121.493142355973,31.2058641352483,2022-04-29
"黄浦区","上海市黄浦区中山南一路500弄",121.492106430059,31.205224783551,2022-04-29
"黄浦区","上海市黄浦区昼锦路180弄",121.497240695201,31.2287029602704,2022-04-29
"黄浦区","上海市黄浦区昼锦路99号",121.497857202273,31.2299774788325,2022-04-29
"黄浦区","上海市黄浦区庄家街34号",121.494785446581,31.226400291201,2022-04-29
"黄浦区","上海市黄浦区庄家街35号",121.495108297582,31.226386781342,2022-04-29
"黄浦区","上海市黄浦区庄家街45弄",121.49519562571,31.2262336510896,2022-04-29
"黄浦区","上海市黄浦区庄家街51弄",121.495125095895,31.2258304822545,2022-04-29
"黄浦区","上海市黄浦区庄家街58号",121.494978222944,31.2261391259812,2022-04-29
"黄浦区","上海市黄浦区庄家街70号",121.495064909426,31.2256851151841,2022-04-29
"黄浦区","上海市黄浦区庄家街79弄",121.50150872434,31.2233857687296,2022-04-29
"黄浦区","上海市黄浦区庄家街84号",121.495269184099,31.2255068607254,2022-04-29
"静安区","上海市静安区安远路515弄",121.446483918632,31.2438676789462,2022-04-29
"静安区","上海市静安区安远路5弄",121.453431772769,31.2338449304017,2022-04-29
"静安区","上海市静安区安远路693号",121.442492657421,31.2418495068469,2022-04-29
"静安区","上海市静安区安远路703号",121.442439926887,31.2418090611431,2022-04-29
"静安区","上海市静安区宝昌路600弄",121.478398018485,31.26623677822,2022-04-29
"静安区","上海市静安区宝昌路610弄",121.478543094825,31.2668629035372,2022-04-29
"静安区","上海市静安区宝昌路632弄",121.477998542025,31.2676679707548,2022-04-29
"静安区","上海市静安区宝昌路731弄",121.477102302618,31.270603131672,2022-04-29
"静安区","上海市静安区宝昌路738弄",121.477255014554,31.2695260884872,2022-04-29
"静安区","上海市静安区宝山路499弄",121.484717238426,31.2636615487347,2022-04-29
"静安区","上海市静安区宝山路611号",121.48519235221,31.2654594787762,2022-04-29
"静安区","上海市静安区宝通路239弄",121.484591206163,31.2625356545031,2022-04-29
"静安区","上海市静安区宝通路425弄",121.482698386623,31.2652133930519,2022-04-29
"静安区","上海市静安区宝源路209弄",121.486628203737,31.2623012908521,2022-04-29
"静安区","上海市静安区保德路1238弄",121.451566441377,31.3253617830307,2022-04-29
"静安区","上海市静安区保德路241弄",121.469495810881,31.3235062419465,2022-04-29
"静安区","上海市静安区北宝兴路42弄",121.472788280236,31.2772799358607,2022-04-29
"静安区","上海市静安区北京西路1065号",121.461476188441,31.2363051948318,2022-04-29
"静安区","上海市静安区北京西路1094弄",121.460446730326,31.236363628413,2022-04-29
"静安区","上海市静安区北京西路1110弄",121.46034135909,31.2363319801107,2022-04-29
"静安区","上海市静安区北京西路1630号",121.451308358204,31.23276329518,2022-04-29
"静安区","上海市静安区北京西路1701号",121.45051704088,31.2318008361971,2022-04-29
"静安区","上海市静安区北京西路1729弄",121.449984705035,31.2314056755234,2022-04-29
"静安区","上海市静安区北京西路605弄",121.469330792159,31.2393378263284,2022-04-29
"静安区","上海市静安区昌化路320号",121.458519236194,31.2436809687881,2022-04-29
"静安区","上海市静安区昌化路430弄",121.456994542252,31.2451614412024,2022-04-29
"静安区","上海市静安区昌化路443弄",121.456569553915,31.2449816029908,2022-04-29
"静安区","上海市静安区昌化路453弄",121.456616625124,31.2451581223029,2022-04-29
"静安区","上海市静安区昌平路1005号",121.442753705002,31.2382906810868,2022-04-29
"静安区","上海市静安区昌平路1009号",121.442395011612,31.2380581863911,2022-04-29
"静安区","上海市静安区昌平路1018弄",121.441418823014,31.2379496577928,2022-04-29
"静安区","上海市静安区昌平路317号",121.455656426364,31.2430896531735,2022-04-29
"静安区","上海市静安区昌平路418弄",121.460704544008,31.2135391035576,2022-04-29
"静安区","上海市静安区昌平路868号",121.446687025508,31.2403469063278,2022-04-29
"静安区","上海市静安区昌平路88弄",121.458702310857,31.2451041708738,2022-04-29
"静安区","上海市静安区昌平路923弄",121.445470809678,31.2393536499724,2022-04-29
"静安区","上海市静安区昌平路999弄",121.443925364879,31.2386810269573,2022-04-29
"静安区","上海市静安区常德路519弄",121.452539396075,31.2361806856393,2022-04-29
"静安区","上海市静安区常德路545弄",121.452313112917,31.2365490409351,2022-04-29
"静安区","上海市静安区常德路617弄",121.451314646343,31.2375653296885,2022-04-29
"静安区","上海市静安区常德路619号",121.451313658207,31.2374852836485,2022-04-29
"静安区","上海市静安区常德路695号",121.450257430588,31.2382818814973,2022-04-29
"静安区","上海市静安区常熟路113弄",121.454649605548,31.2229457181452,2022-04-29
"静安区","上海市静安区长安路1001号",121.458639968454,31.2513428800156,2022-04-29
"静安区","上海市静安区长安路1028号",121.456291348698,31.2510236687601,2022-04-29
"静安区","上海市静安区长安路550弄",121.460865430525,31.2481368257918,2022-04-29
"静安区","上海市静安区长乐路682弄",121.45939146217,31.2247195476741,2022-04-29
"静安区","上海市静安区长乐路764弄",121.457610151018,31.2236014699621,2022-04-29
"静安区","上海市静安区长乐路774弄",121.456224245277,31.2231022065462,2022-04-29
"静安区","上海市静安区长临路380弄",121.443140605185,31.3245933817358,2022-04-29
"静安区","上海市静安区长寿路999弄",121.435947244153,31.2389305016534,2022-04-29
"静安区","上海市静安区场中路1011弄",121.471962198489,31.3147642425747,2022-04-29
"静安区","上海市静安区场中路1129弄",121.4713656338,31.3124778083093,2022-04-29
"静安区","上海市静安区场中路1177弄",121.470670255505,31.3124983243796,2022-04-29
"静安区","上海市静安区场中路2601弄",121.446657650918,31.3116716620059,2022-04-29
"静安区","上海市静安区场中路3332弄",121.437450378763,31.309717044519,2022-04-29
"静安区","上海市静安区成都北路527弄",121.472863468408,31.2385837686962,2022-04-29
"静安区","上海市静安区大沽路368弄",121.471945040854,31.2317828498225,2022-04-29
"静安区","上海市静安区大宁路660弄",121.455414063537,31.2788371863469,2022-04-29
"静安区","上海市静安区大统路1033弄",121.466110007584,31.2627958692347,2022-04-29
"静安区","上海市静安区大统路933弄",121.466221397467,31.2615230326281,2022-04-29
"静安区","上海市静安区大统路938弄",121.465017937575,31.2604427207575,2022-04-29
"静安区","上海市静安区汾西路260弄",121.470033267068,31.3234635951461,2022-04-29
"静安区","上海市静安区汾西路261弄",121.468333673043,31.3194685136896,2022-04-29
"静安区","上海市静安区汾西路815弄",121.457240049148,31.3195925262824,2022-04-29
"静安区","上海市静安区汾西路885弄",121.45590040614,31.3192083797733,2022-04-29
"静安区","上海市静安区汾西路88弄",121.47417957581,31.3199211434313,2022-04-29
"静安区","上海市静安区奉贤路68弄",121.464333788099,31.2421417342564,2022-04-29
"静安区","上海市静安区富民路255弄",121.458703658315,31.2244242799054,2022-04-29
"静安区","上海市静安区高平路811号",121.433946088968,31.2975763963068,2022-04-29
"静安区","上海市静安区共和新路1207号",121.468106671241,31.2687055272643,2022-04-29
"静安区","上海市静安区共和新路1700弄",121.462315026126,31.274841119709,2022-04-29
"静安区","上海市静安区共和新路1725弄",121.464347532173,31.2772026243291,2022-04-29
"静安区","上海市静安区共和新路2999弄",121.461149564557,31.2944510772998,2022-04-29
"静安区","上海市静安区共和新路3550号",121.454743388644,31.3079860685787,2022-04-29
"静安区","上海市静安区共和新路4699弄",121.455022312504,31.3235762659455,2022-04-29
"静安区","上海市静安区共和新路555弄",121.470609979205,31.2589239041575,2022-04-29
"静安区","上海市静安区共和新路619弄",121.471503433865,31.2604662579375,2022-04-29
"静安区","上海市静安区共和新路688弄",121.469175654797,31.2605111714909,2022-04-29
"静安区","上海市静安区共和新路710弄",121.468637300305,31.2615052834805,2022-04-29
"静安区","上海市静安区共和新路736弄",121.46920377176,31.262594071693,2022-04-29
"静安区","上海市静安区共和新路802弄",121.469784975425,31.2630487521927,2022-04-29
"静安区","上海市静安区共和新路966号",121.468580078244,31.2652664840375,2022-04-29
"静安区","上海市静安区共和新路970弄",121.468642061325,31.2657220775345,2022-04-29
"静安区","上海市静安区公兴路220弄",121.480226968503,31.2610461967472,2022-04-29
"静安区","上海市静安区广中路809号",121.463103019719,31.286288837182,2022-04-29
"静安区","上海市静安区广中西路818弄",121.44098610925,31.2801663415546,2022-04-29
"静安区","上海市静安区海防路100弄",121.456160375755,31.2473811411033,2022-04-29
"静安区","上海市静安区海防路223弄",121.455221107514,31.2455437313246,2022-04-29
"静安区","上海市静安区海防路338弄",121.453221030296,31.2450848749331,2022-04-29
"静安区","上海市静安区海防路403弄",121.452235948474,31.2441513325657,2022-04-29
"静安区","上海市静安区海防路410弄",121.451814014376,31.2447568433319,2022-04-29
"静安区","上海市静安区海防路440号",121.451303956507,31.2442328394058,2022-04-29
"静安区","上海市静安区海防路58弄",121.456469931834,31.247360765086,2022-04-29
"静安区","上海市静安区海宁路1388号",121.475167262719,31.2508099602288,2022-04-29
"静安区","上海市静安区汉中路18号",121.466608387481,31.2497506718354,2022-04-29
"静安区","上海市静安区汉中路28弄",121.453431772769,31.2338449304017,2022-04-29
"静安区","上海市静安区汉中路48号",121.466014068555,31.2495362657734,2022-04-29
"静安区","上海市静安区汉中路68号",121.465859470177,31.2494198009353,2022-04-29
"静安区","上海市静安区汉中路78弄",121.465700020949,31.2493749592327,2022-04-29
"静安区","上海市静安区和田路118弄",121.470252363782,31.2708539872752,2022-04-29
"静安区","上海市静安区和田路441弄",121.466141088954,31.2740180588967,2022-04-29
"静安区","上海市静安区和田路448号",121.466359871261,31.2741773939128,2022-04-29
"静安区","上海市静安区和田路451弄",121.458169885181,31.2772186730355,2022-04-29
"静安区","上海市静安区恒丰北路100号",121.458020137652,31.2616913406822,2022-04-29
"静安区","上海市静安区沪太路1051弄",121.435839716983,31.2849668670001,2022-04-29
"静安区","上海市静安区沪太路1170弄",121.433927224553,31.2833302520144,2022-04-29
"静安区","上海市静安区沪太路1188弄",121.431954635483,31.2840140493383,2022-04-29
"静安区","上海市静安区沪太路365号",121.458436951409,31.2620893058383,2022-04-29
"静安区","上海市静安区沪太路549号",121.457410906856,31.2632729276941,2022-04-29
"静安区","上海市静安区沪太路617号",121.455075671852,31.2663874067299,2022-04-29
"静安区","上海市静安区沪太路631弄",121.456626326823,31.2673061427831,2022-04-29
"静安区","上海市静安区沪太路651弄",121.455284797375,31.2674438057978,2022-04-29
"静安区","上海市静安区沪太路655弄",121.470448014722,31.261024897661,2022-04-29
"静安区","上海市静安区沪太路935弄",121.439192103316,31.279907255375,2022-04-29
"静安区","上海市静安区华山路251弄",121.452721931755,31.225976852693,2022-04-29
"静安区","上海市静安区华山路343号",121.452579640162,31.2242968212669,2022-04-29
"静安区","上海市静安区淮安路687弄",121.458216686898,31.2455075323067,2022-04-29
"静安区","上海市静安区淮安路703号",121.457901561325,31.2461239170827,2022-04-29
"静安区","上海市静安区淮安路801号",121.456320004644,31.2453183555482,2022-04-29
"静安区","上海市静安区淮安路811号",121.456114382513,31.2452598503778,2022-04-29
"静安区","上海市静安区淮安路826弄",121.455801233212,31.2453515444809,2022-04-29
"静安区","上海市静安区黄山路250号",121.474942237188,31.27223873512,2022-04-29
"静安区","上海市静安区黄山路280弄",121.474549498019,31.272077159114,2022-04-29
"静安区","上海市静安区江场西路1200号",121.435163382765,31.3033313564608,2022-04-29
"静安区","上海市静安区江宁路495号",121.458199529263,31.2413687884564,2022-04-29
"静安区","上海市静安区江宁路81号",121.461647764793,31.2355478707032,2022-04-29
"静安区","上海市静安区江宁路906弄",121.454120683264,31.246327525386,2022-04-29
"静安区","上海市静安区江杨南路466弄",121.474431550506,31.3227213988794,2022-04-29
"静安区","上海市静安区交城路229弄",121.436722391977,31.3001965879157,2022-04-29
"静安区","上海市静安区交通路97号",121.480955673933,31.2569182505383,2022-04-29
"静安区","上海市静安区胶州路120弄",121.451227331047,31.2328086852051,2022-04-29
"静安区","上海市静安区胶州路274弄",121.450371605218,31.2347273971483,2022-04-29
"静安区","上海市静安区胶州路565弄",121.447087130782,31.2392638025142,2022-04-29
"静安区","上海市静安区胶州路718弄",121.446148042202,31.2416719006773,2022-04-29
"静安区","上海市静安区景凤路403弄",121.465456041172,31.325365021963,2022-04-29
"静安区","上海市静安区景凤路480弄",121.465525390358,31.3264141987332,2022-04-29
"静安区","上海市静安区巨鹿路845弄",121.456158399483,31.2252791978675,2022-04-29
"静安区","上海市静安区康定路367弄",121.455781111169,31.240800305668,2022-04-29
"静安区","上海市静安区康定路418弄",121.454561302117,31.2416075270411,2022-04-29
"静安区","上海市静安区康定路445弄",121.454444252909,31.240236373503,2022-04-29
"静安区","上海市静安区康定路460弄",121.454234318911,31.2403894367304,2022-04-29
"静安区","上海市静安区康定路733弄",121.450437630673,31.2382341012555,2022-04-29
"静安区","上海市静安区康定路950弄",121.444599992317,31.23824151144,2022-04-29
"静安区","上海市静安区康定路980弄",121.444872987361,31.2376968613163,2022-04-29
"静安区","上海市静安区康定路988号",121.444436141392,31.237507051238,2022-04-29
"静安区","上海市静安区康乐路256弄",121.483306629283,31.2553266003691,2022-04-29
"静安区","上海市静安区老沪太路199弄",121.460297611612,31.2747340998374,2022-04-29
"静安区","上海市静安区老沪太路228号",121.458421770046,31.2739361150684,2022-04-29
"静安区","上海市静安区老沪太路255弄",121.458134222452,31.2736461475354,2022-04-29
"静安区","上海市静安区临汾路1051弄",121.452881830135,31.3152737368688,2022-04-29
"静安区","上海市静安区临汾路1231弄",121.449387960685,31.316857347062,2022-04-29
"静安区","上海市静安区临汾路135弄",121.471250111712,31.3162716619959,2022-04-29
"静安区","上海市静安区临汾路1564弄",121.443148061121,31.3182639325409,2022-04-29
"静安区","上海市静安区临汾路1565弄",121.443824036017,31.315901461479,2022-04-29
"静安区","上海市静安区临汾路299弄",121.468261089958,31.3158047463518,2022-04-29
"静安区","上海市静安区临汾路300弄",121.468559956201,31.3181868863255,2022-04-29
"静安区","上海市静安区临汾路375弄",121.465937532926,31.3155807740933,2022-04-29
"静安区","上海市静安区临汾路385号",121.465062134206,31.3168289652526,2022-04-29
"静安区","上海市静安区临汾路80弄",121.456851352353,31.3175236229798,2022-04-29
"静安区","上海市静安区临汾路850弄",121.456961394778,31.3174878374745,2022-04-29
"静安区","上海市静安区临汾路951号",121.454473178346,31.3168814098936,2022-04-29
"静安区","上海市静安区临汾路971弄",121.45414439853,31.3168023572985,2022-04-29
"静安区","上海市静安区临山路203弄",121.479793715756,31.261272923676,2022-04-29
"静安区","上海市静安区临山路204号",121.479982270083,31.2605725996148,2022-04-29
"静安区","上海市静安区临山路20号",121.482783276493,31.261997859661,2022-04-29
"静安区","上海市静安区灵石路1123弄",121.43409628565,31.2800337123583,2022-04-29
"静安区","上海市静安区灵石路1201弄",121.43196227108,31.2796444650255,2022-04-29
"静安区","上海市静安区灵石路735弄",121.445295280781,31.2925987012998,2022-04-29
"静安区","上海市静安区灵石路963弄",121.437216639669,31.2835039214244,2022-04-29
"静安区","上海市静安区岭南路700弄",121.462358324452,31.3123862572189,2022-04-29
"静安区","上海市静安区柳营路1025弄",121.456559762385,31.2682738693517,2022-04-29
"静安区","上海市静安区柳营路1079号",121.45568831621,31.2669342046999,2022-04-29
"静安区","上海市静安区柳营路1081号",121.455634238218,31.2669149132652,2022-04-29
"静安区","上海市静安区柳营路309弄",121.470841113213,31.2743156640793,2022-04-29
"静安区","上海市静安区柳营路319弄",121.469876782248,31.273721070047,2022-04-29
"静安区","上海市静安区柳营路328弄",121.470558865622,31.2736562555193,2022-04-29
"静安区","上海市静安区柳营路463号",121.468689132533,31.2729742342095,2022-04-29
"静安区","上海市静安区柳营路669弄",121.463705064072,31.2710040682045,2022-04-29
"静安区","上海市静安区陆丰路116号",121.480947499353,31.2635353782603,2022-04-29
"静安区","上海市静安区陆丰路146号",121.48069103313,31.2631956817387,2022-04-29
"静安区","上海市静安区陆丰路4号",121.482030676137,31.2648706159331,2022-04-29
"静安区","上海市静安区洛川东路230号",121.470357914679,31.2772845652917,2022-04-29
"静安区","上海市静安区洛川东路260号",121.469772399148,31.2769541776566,2022-04-29
"静安区","上海市静安区洛川东路321号",121.467900330465,31.2763063614232,2022-04-29
"静安区","上海市静安区洛川东路400弄",121.467110630091,31.2749563183235,2022-04-29
"静安区","上海市静安区洛川中路1100弄",121.456053477399,31.2707076099104,2022-04-29
"静安区","上海市静安区洛川中路600弄",121.478529530412,31.2662378585483,2022-04-29
"静安区","上海市静安区洛川中路777弄",121.458020137652,31.2719900437589,2022-04-29
"静安区","上海市静安区洛川中路901弄",121.457121203329,31.2716851007954,2022-04-29
"静安区","上海市静安区洛川中路952弄",121.457110693154,31.270589473873,2022-04-29
"静安区","上海市静安区洛川中路960号",121.456697652281,31.2710814620291,2022-04-29
"静安区","上海市静安区毛家弄26号",121.459304355209,31.2626624436814,2022-04-29
"静安区","上海市静安区茂名北路121弄",121.466459717919,31.2319950579442,2022-04-29
"静安区","上海市静安区茂名北路141弄",121.462588739815,31.2323926863444,2022-04-29
"静安区","上海市静安区茂名北路149号",121.466453070458,31.2325232217214,2022-04-29
"静安区","上海市静安区茂名北路75弄",121.466611980703,31.2312858687148,2022-04-29
"静安区","上海市静安区茂名北路95号",121.466794336721,31.231619582788,2022-04-29
"静安区","上海市静安区茂名北路97号",121.466785353666,31.2316427412499,2022-04-29
"静安区","上海市静安区民和路218号",121.470844077621,31.2728298663494,2022-04-29
"静安区","上海市静安区南汇路10弄",121.464172182937,31.2356614967304,2022-04-29
"静安区","上海市静安区南汇路34弄",121.464219613468,31.235913758368,2022-04-29
"静安区","上海市静安区南京西路1025弄",121.464349957598,31.233589884228,2022-04-29
"静安区","上海市静安区南山路151号",121.471052484499,31.2631763895321,2022-04-29
"静安区","上海市静安区南山路71弄",121.472567925895,31.2628968835957,2022-04-29
"静安区","上海市静安区南苏州路1539弄",121.466373750081,31.2448289331989,2022-04-29
"静安区","上海市静安区南星路70号",121.471939830682,31.2493367550112,2022-04-29
"静安区","上海市静安区彭浦新村207号",121.459091456804,31.3127506099724,2022-04-29
"静安区","上海市静安区彭浦新村398号",121.451632556663,31.3193289222031,2022-04-29
"静安区","上海市静安区彭浦新村411号",121.461420134177,31.3165641193652,2022-04-29
"静安区","上海市静安区彭浦新村419号",121.46189991915,31.3154694047672,2022-04-29
"静安区","上海市静安区彭越浦路908号",121.44103659402,31.2941560048739,2022-04-29
"静安区","上海市静安区平陆路272弄",121.453518549081,31.2907929618906,2022-04-29
"静安区","上海市静安区平陆路312弄",121.453361255786,31.2912022206262,2022-04-29
"静安区","上海市静安区平陆路372号",121.452970762381,31.2921679252672,2022-04-29
"静安区","上海市静安区平顺路180弄",121.459391221352,31.3190394812892,2022-04-29
"静安区","上海市静安区平型关路121弄",121.458320620845,31.2660382291011,2022-04-29
"静安区","上海市静安区平型关路1899弄",121.467200191151,31.3022747462751,2022-04-29
"静安区","上海市静安区平型关路245弄",121.472757558188,31.2756488958805,2022-04-29
"静安区","上海市静安区平型关路255弄",121.472348380028,31.2759064507074,2022-04-29
"静安区","上海市静安区平型关路265弄",121.472734421377,31.2765016111474,2022-04-29
"静安区","上海市静安区平型关路300弄",121.47035315366,31.2768807237311,2022-04-29
"静安区","上海市静安区平型关路305弄",121.471647342408,31.2763879945405,2022-04-29
"静安区","上海市静安区平型关路377弄",121.469338068434,31.2785705351804,2022-04-29
"静安区","上海市静安区平型关路68弄",121.473901550255,31.2719551667295,2022-04-29
"静安区","上海市静安区平型关路801弄",121.465598512426,31.2848164999036,2022-04-29
"静安区","上海市静安区普善路1029弄",121.457004872765,31.2748514590413,2022-04-29
"静安区","上海市静安区普善路128弄",121.462973753557,31.2617262215432,2022-04-29
"静安区","上海市静安区普善路28号",121.464607232296,31.2605260654995,2022-04-29
"静安区","上海市静安区普善路958弄",121.457300864431,31.2736681381861,2022-04-29
"静安区","上海市静安区普善路铁路新村19号",121.459744524909,31.2627410791231,2022-04-29
"静安区","上海市静安区普善路铁路新村3号",121.459744524909,31.2627410791231,2022-04-29
"静安区","上海市静安区普善路铁路新村61号",121.459744524909,31.2627410791231,2022-04-29
"静安区","上海市静安区普善路铁路新村83号",121.459723055408,31.2632792555318,2022-04-29
"静安区","上海市静安区普善路铁路新村92号",121.459744524909,31.2627410791231,2022-04-29
"静安区","上海市静安区普善路铁路新村94号",121.459744524909,31.2627410791231,2022-04-29
"静安区","上海市静安区青云路605弄",121.473623973852,31.267470427826,2022-04-29
"静安区","上海市静安区青云路650弄",121.473574028066,31.2671281219807,2022-04-29
"静安区","上海市静安区虬江路1150号",121.4778249894,31.2548528970782,2022-04-29
"静安区","上海市静安区虬江路1258弄",121.475599168008,31.2560116059654,2022-04-29
"静安区","上海市静安区虬江路1488弄",121.471377311772,31.2558347212696,2022-04-29
"静安区","上海市静安区虬江路909弄",121.481537955565,31.2591871386589,2022-04-29
"静安区","上海市静安区曲沃路430弄",121.453104609902,31.3185247631998,2022-04-29
"静安区","上海市静安区三泉路415弄",121.446926783249,31.3146376012662,2022-04-29
"静安区","上海市静安区三泉路517弄",121.44732967327,31.3166272844836,2022-04-29
"静安区","上海市静安区三泉路524号",121.447731305663,31.316444113235,2022-04-29
"静安区","上海市静安区三泉路821弄",121.444705363553,31.3222946950465,2022-04-29
"静安区","上海市静安区三泉路895弄",121.446538355946,31.3246607829057,2022-04-29
"静安区","上海市静安区三泉路900弄",121.447248825774,31.3236159821771,2022-04-29
"静安区","上海市静安区山西北路222弄",121.487524263483,31.2498269255647,2022-04-29
"静安区","上海市静安区山西北路388弄",121.486922039469,31.2522479491359,2022-04-29
"静安区","上海市静安区陕西北路119弄",121.462656921203,31.2320156688929,2022-04-29
"静安区","上海市静安区陕西北路414号",121.459772552041,31.2363160787645,2022-04-29
"静安区","上海市静安区陕西北路470弄",121.460319170944,31.2372568780333,2022-04-29
"静安区","上海市静安区陕西北路513号",121.458845949908,31.2376671432123,2022-04-29
"静安区","上海市静安区陕西北路640弄",121.457804454499,31.2397935462044,2022-04-29
"静安区","上海市静安区陕西北路729弄",121.456495892863,31.240587731583,2022-04-29
"静安区","上海市静安区陕西北路73号",121.462802087374,31.2312099858436,2022-04-29
"静安区","上海市静安区陕西北路798号",121.455731614535,31.2416294480445,2022-04-29
"静安区","上海市静安区陕西北路816号",121.455408943196,31.2420755084734,2022-04-29
"静安区","上海市静安区陕西北路832弄",121.45534273808,31.2422190747967,2022-04-29
"静安区","上海市静安区陕西北路835弄",121.454580885177,31.2418672597267,2022-04-29
"静安区","上海市静安区陕西北路860弄",121.454884422609,31.2425558373021,2022-04-29
"静安区","上海市静安区陕西北路868弄",121.454819115798,31.2427791357231,2022-04-29
"静安区","上海市静安区少年村路531号",121.436043362842,31.3073386990806,2022-04-29
"静安区","上海市静安区升平街41弄",121.467690037145,31.2324648629355,2022-04-29
"静安区","上海市静安区石门二路199弄",121.467101377544,31.2400665602496,2022-04-29
"静安区","上海市静安区石门二路503号",121.46538561402,31.2434704852484,2022-04-29
"静安区","上海市静安区石门一路366号",121.468395656123,31.2364606574098,2022-04-29
"静安区","上海市静安区石门一路40号",121.46982333307,31.2308951832041,2022-04-29
"静安区","上海市静安区石门一路61号",121.469487905793,31.2313866855369,2022-04-29
"静安区","上海市静安区太阳山路78弄",121.468501207021,31.2555701653496,2022-04-29
"静安区","上海市静安区泰兴路445弄",121.463383380869,31.2402080455862,2022-04-29
"静安区","上海市静安区泰兴路598号",121.46291230946,31.2426328687568,2022-04-29
"静安区","上海市静安区泰兴路624弄",121.462717646656,31.2430671922143,2022-04-29
"静安区","上海市静安区泰兴路625弄",121.462385273617,31.2428838766239,2022-04-29
"静安区","上海市静安区谈家桥路163弄",121.456271855469,31.2669146046022,2022-04-29
"静安区","上海市静安区塘沽路766弄",121.48782528566,31.2527245211935,2022-04-29
"静安区","上海市静安区天目西路285号",121.460884025449,31.25271487401,2022-04-29
"静安区","上海市静安区天目中路260号",121.475796974881,31.2514356486528,2022-04-29
"静安区","上海市静安区天目中路480号",121.472372095294,31.2499947144222,2022-04-29
"静安区","上海市静安区天目中路538号",121.471765110261,31.2501976196806,2022-04-29
"静安区","上海市静安区天目中路749弄",121.46822066621,31.252132799701,2022-04-29
"静安区","上海市静安区天目中路780号",121.467074248718,31.2514554835325,2022-04-29
"静安区","上海市静安区通阁路190弄",121.477764263948,31.2667929141396,2022-04-29
"静安区","上海市静安区通阁路195弄",121.476366859897,31.266520441134,2022-04-29
"静安区","上海市静安区万春街100弄",121.444450244788,31.2353413056426,2022-04-29
"静安区","上海市静安区万航渡路238弄",121.446556142395,31.2316469869673,2022-04-29
"静安区","上海市静安区万航渡路269弄",121.445596392788,31.2325154251132,2022-04-29
"静安区","上海市静安区万航渡路308号",121.445239316348,31.2317003286005,2022-04-29
"静安区","上海市静安区万航渡路388弄",121.443379195129,31.2313953313849,2022-04-29
"静安区","上海市静安区万航渡路623弄",121.440392958122,31.2327279403492,2022-04-29
"静安区","上海市静安区万航渡路660弄",121.439163986354,31.2325789558718,2022-04-29
"静安区","上海市静安区万航渡路661弄",121.4386351539,31.2334591187592,2022-04-29
"静安区","上海市静安区万航渡路725号",121.438192109622,31.2336206843325,2022-04-29
"静安区","上海市静安区万荣路166弄",121.454634963169,31.2775333968702,2022-04-29
"静安区","上海市静安区万荣路28号",121.455730626399,31.2760133920775,2022-04-29
"静安区","上海市静安区万荣路948号",121.448443572102,31.2931571488599,2022-04-29
"静安区","上海市静安区万荣路959号",121.448759685811,31.2943335884431,2022-04-29
"静安区","上海市静安区威海路333弄",121.471466962662,31.233307896835,2022-04-29
