"district","address","lng","lat","date"
"浦东新区","上海市浦东新区瑞意路399弄",121.59268628445034,31.102791860761887,"2022-03-29"
"浦东新区","上海市浦东新区崂山路645弄",121.53134881643189,31.227805460283697,"2022-03-29"
"浦东新区","上海市浦东新区浦电路221号",121.53004456666196,31.22498830738765,"2022-03-29"
"浦东新区","上海市浦东新区五星村家务队顾家宅",121.57836549801027,31.179988450201478,"2022-03-29"
"浦东新区","上海市浦东新区康沈公路389弄",121.58284930013278,31.127973842443726,"2022-03-29"
"浦东新区","上海市浦东新区下南路320弄",121.547891741212,31.175548813657176,"2022-03-29"
"浦东新区","上海市浦东新区高青路960号",121.51371777418754,31.160866601516588,"2022-03-29"
"浦东新区","上海市浦东新区鹤东村",121.60297826050872,31.06114895730399,"2022-03-29"
"浦东新区","上海市浦东新区朝农新村",121.84247962472928,31.10294290675475,"2022-03-29"
"浦东新区","上海市浦东新区镇南村",121.5858938371672,31.345267831413143,"2022-03-29"
"浦东新区","上海市浦东新区荷泽路58弄",121.5968908033898,31.278780862523867,"2022-03-29"
"浦东新区","上海市浦东新区罗山路108弄",121.55887945488784,31.254641589752865,"2022-03-29"
"浦东新区","上海市浦东新区昌里东路650弄",121.52139900494227,31.18353589919409,"2022-03-29"
"浦东新区","上海市浦东新区坦南村",121.65884962932951,31.072493887859476,"2022-03-29"
"浦东新区","上海市浦东新区瑞阳路81弄",121.59474385322095,31.10537166826629,"2022-03-29"
"浦东新区","上海市浦东新区新吉村",121.72502842506343,31.11674713037451,"2022-03-29"
"浦东新区","上海市浦东新区五莲路108弄",121.58877362497108,31.277157873113886,"2022-03-29"
"浦东新区","上海市浦东新区凌兆路530弄",121.50924389922127,31.147344676856857,"2022-03-29"
"浦东新区","上海市浦东新区张杨路1269弄",121.53869048770383,31.238534367635964,"2022-03-29"
"浦东新区","上海市浦东新区东书房路560弄",121.54307367960921,31.167733309908424,"2022-03-29"
"浦东新区","上海市浦东新区新德路681弄",121.69773844265362,31.20239668097036,"2022-03-29"
"浦东新区","上海市浦东新区南桥路983弄",121.69942851464009,31.193460242298354,"2022-03-29"
"浦东新区","上海市浦东新区庆星村储家宅",121.7380027413746,31.246462286361815,"2022-03-29"
"浦东新区","上海市浦东新区妙境路623弄",121.69850487691473,31.196120883951295,"2022-03-29"
"浦东新区","上海市浦东新区下南路370弄",121.53688426481492,31.18970225553777,"2022-03-29"
"浦东新区","上海市浦东新区南泉路1320弄",121.52656039891095,31.215734152342247,"2022-03-29"
"浦东新区","上海市浦东新区浦电路138弄",121.52846471676155,31.22488215684141,"2022-03-29"
"浦东新区","上海市浦东新区东泰林路799弄",121.55031141693367,31.14966815921915,"2022-03-29"
"浦东新区","上海市浦东新区昌里东路71弄",121.51070692360975,31.18266438072873,"2022-03-29"
"浦东新区","上海市浦东新区大道站路94弄",121.5456103147083,31.165459346349106,"2022-03-29"
"浦东新区","上海市浦东新区天花庵村东瞿队大瞿家宅",121.53261120516505,31.1270776188598,"2022-03-29"
"浦东新区","上海市浦东新区莲园路100弄",121.55499069033515,31.18933340697378,"2022-03-29"
"浦东新区","上海市浦东新区卫行村张浜队顾家宅",121.58797143815067,31.170225746093237,"2022-03-29"
"浦东新区","上海市浦东新区康安路567弄",121.53688426481492,31.18970225553777,"2022-03-29"
"浦东新区","上海市浦东新区康桥路1200号",121.58004784456935,31.155866023127945,"2022-03-29"
"浦东新区","上海市浦东新区南码头路617号",121.51918001067152,31.195356825027876,"2022-03-29"
"浦东新区","上海市浦东新区春晖路368弄",121.59019618157669,31.34452056588041,"2022-03-29"
"浦东新区","上海市浦东新区严桥路58弄",121.53246496102804,31.19679983627834,"2022-03-29"
"浦东新区","上海市浦东新区红三村",121.80061481508116,31.09108977429165,"2022-03-29"
"浦东新区","上海市浦东新区康士路15弄",121.56951673958423,31.15566839870212,"2022-03-29"
"浦东新区","上海市浦东新区瑞浦路8弄",121.55045460683195,31.227348292436346,"2022-03-29"
"浦东新区","上海市浦东新区周南村",121.58997088655478,31.111919735760996,"2022-03-29"
"浦东新区","上海市浦东新区暮一村奚家宅",121.69557577213834,31.223068700911586,"2022-03-29"
"浦东新区","上海市浦东新区莲安西路125弄",121.55974578072166,31.18532718248633,"2022-03-29"
"浦东新区","上海市浦东新区莱阳路880弄",121.59082230051713,31.28833690890775,"2022-03-29"
"浦东新区","上海市浦东新区营房村",121.572398952813,31.14248533811398,"2022-03-29"
"浦东新区","上海市浦东新区海阳路1050号",121.5126810397985,31.163622800703823,"2022-03-29"
"浦东新区","上海市浦东新区新雅东路125弄",121.69506903800016,31.243875860532047,"2022-03-29"
"浦东新区","上海市浦东新区东风村",121.705700034558,31.232450813592735,"2022-03-29"
"浦东新区","上海市浦东新区金高路2216弄",121.61206686650591,31.267856639294973,"2022-03-29"
"浦东新区","上海市浦东新区五星村陈家队陈家宅",121.57857947438275,31.194413133383005,"2022-03-29"
"浦东新区","上海市浦东新区海松路421弄",121.68724659361928,31.286058313469407,"2022-03-29"
"浦东新区","上海市浦东新区东绣路1155弄",121.54128120079461,31.204941938527192,"2022-03-29"
"浦东新区","上海市浦东新区灵山路1799弄",121.5777726163737,31.24837161086446,"2022-03-29"
"浦东新区","上海市浦东新区莲中路318弄",121.5644852405923,31.186504438505555,"2022-03-29"
"浦东新区","上海市浦东新区川周公路3010弄",121.61762315557678,31.147196115555047,"2022-03-29"
"浦东新区","上海市浦东新区杭湾路196号",121.85617294477063,30.86231493633959,"2022-03-29"
"浦东新区","上海市浦东新区周市路66号",121.58929985233884,31.11634893399854,"2022-03-29"
"浦东新区","上海市浦东新区康沈路250弄",121.58485970786411,31.120077939878794,"2022-03-29"
"浦东新区","上海市浦东新区卫东村",121.76222833419824,31.18234339049649,"2022-03-29"
"浦东新区","上海市浦东新区龙居路30弄",121.58962611690005,31.28158489894264,"2022-03-29"
"浦东新区","上海市浦东新区新德路506弄",121.6995379282512,31.20325612431559,"2022-03-29"
"浦东新区","上海市浦东新区妙境路162弄",121.69502043967206,31.20233359303947,"2022-03-29"
"浦东新区","上海市浦东新区联勤村李家队北李家宅",121.74759772218778,31.129579790039198,"2022-03-29"
"浦东新区","上海市浦东新区联勤村张家队张家宅",121.69194760601408,31.236233793114234,"2022-03-29"
"浦东新区","上海市浦东新区周东路782弄",121.59005002727021,31.131798210671896,"2022-03-29"
"浦东新区","上海市浦东新区杨高中路2168弄",121.55818928676452,31.235569021210537,"2022-03-29"
"浦东新区","上海市浦东新区东陆路1268弄",121.60156055475287,31.272878863483545,"2022-03-29"
"浦东新区","上海市浦东新区花墙村",121.55274169266035,31.156328175262196,"2022-03-29"
"浦东新区","上海市浦东新区东陆路1221号",121.60429939842224,31.276973852805344,"2022-03-29"
"浦东新区","上海市浦东新区浦电路218弄",121.53039158208045,31.226031741548418,"2022-03-29"
"浦东新区","上海市浦东新区高科西路3030弄",121.56984875330073,31.195892840738562,"2022-03-29"
"浦东新区","上海市浦东新区上南路3500弄",121.52553031198265,31.139159418419815,"2022-03-29"
"浦东新区","上海市浦东新区城西路195弄",121.75524535631642,31.053523708156526,"2022-03-29"
"浦东新区","上海市浦东新区白莲泾路与浦东南路交界口工地生活区",121.4938258766357,31.262494523223257,"2022-03-29"
"浦东新区","上海市浦东新区义泓村",121.84381262027553,31.081963820725456,"2022-03-29"
"浦东新区","上海市浦东新区迎春街75弄",121.6774932415447,31.17219525374015,"2022-03-29"
"浦东新区","上海市浦东新区青四村3队北邬家宅",121.74369593220518,31.234053814552556,"2022-03-29"
"浦东新区","上海市浦东新区妙境路1367弄",121.70383057096117,31.185250258334914,"2022-03-29"
"浦东新区","上海市浦东新区浦东大道2920弄",121.58360261913344,31.280936343289373,"2022-03-29"
"浦东新区","上海市浦东新区进贤路138弄",121.6991595619704,31.19808830313825,"2022-03-29"
"浦东新区","上海市浦东新区年家浜路461弄",121.57688931256573,31.120015183003662,"2022-03-29"
"浦东新区","上海市浦东新区浦电路29弄",121.52179830174146,31.22198277216662,"2022-03-29"
"浦东新区","上海市浦东新区康沈路1758弄",121.58452158567016,31.119686481592485,"2022-03-29"
"浦东新区","上海市浦东新区崂山路551弄",121.52875567791624,31.232572857538436,"2022-03-29"
"浦东新区","上海市浦东新区潍坊路154弄",121.53230434400284,31.231346466894244,"2022-03-29"
"浦东新区","上海市浦东新区浦三路12弄",121.51782779138736,31.202722003983574,"2022-03-29"
"浦东新区","上海市浦东新区海科路777号",121.60997731805917,31.186947749607842,"2022-03-29"
"浦东新区","上海市浦东新区韵浦路259号",121.58775297025065,31.11779385631881,"2022-03-29"
"浦东新区","上海市浦东新区新金桥路159号",121.60357356757017,31.25312291041603,"2022-03-29"
"浦东新区","上海市浦东新区瑞福路52弄",121.60760264744353,31.101758418286778,"2022-03-29"
"浦东新区","上海市浦东新区海容路99弄",121.68083502787236,31.286961889101804,"2022-03-29"
"浦东新区","上海市浦东新区川沙路5245弄",121.70579342838752,31.19488127358503,"2022-03-29"
"浦东新区","上海市浦东新区一心村顾家宅",121.68884881132688,31.250038784030753,"2022-03-29"
"浦东新区","上海市浦东新区三林路200弄",121.53688426481492,31.18970225553777,"2022-03-29"
"浦东新区","上海市浦东新区三旋路506弄",121.52553031198265,31.139159418419815,"2022-03-29"
"浦东新区","上海市浦东新区下南路551弄",121.54679904238965,31.179016875274282,"2022-03-29"
"浦东新区","上海市浦东新区昌里路167弄",121.50454544611682,31.181091626219736,"2022-03-29"
"浦东新区","上海市浦东新区思浦路11弄",121.50041692382352,31.164431614459954,"2022-03-29"
"浦东新区","上海市浦东新区沪东路67号",121.58681675624815,31.277393434011163,"2022-03-29"
"浦东新区","上海市浦东新区南泉北路101弄",121.52204021541529,31.24412385486496,"2022-03-29"
"浦东新区","上海市浦东新区杨高中路266弄",121.60275036040082,31.25833114148833,"2022-03-29"
"浦东新区","上海市浦东新区寿光路75弄",121.58957799109862,31.279647069122593,"2022-03-29"
"浦东新区","上海市浦东新区祝家港路南八灶",121.58590533547772,31.11808886661264,"2022-03-29"
"浦东新区","上海市浦东新区沪南路2518弄",121.53688426481492,31.18970225553777,"2022-03-29"
"浦东新区","上海市浦东新区鹤永路599弄",121.60966982808309,31.080345152465775,"2022-03-29"
"浦东新区","上海市浦东新区周东路558号",121.59188724169921,31.127229475919336,"2022-03-29"
"浦东新区","上海市浦东新区金杨路220弄",121.58118716544766,31.253056383701526,"2022-03-29"
"浦东新区","上海市浦东新区千汇路750弄",121.77091009762997,31.122895232134738,"2022-03-29"
"浦东新区","上海市浦东新区海春路150弄",121.59261513865395,31.354915900397863,"2022-03-29"
"浦东新区","上海市浦东新区海鹏路301弄",121.68073091426376,31.295363983048894,"2022-03-29"
"浦东新区","上海市浦东新区浦电路62弄",121.52494353882354,31.224365530063924,"2022-03-29"
"浦东新区","上海市浦东新区羽山路1446弄",121.56858295100662,31.245994404064763,"2022-03-29"
"浦东新区","上海市浦东新区果园村",121.73744013263371,30.983664773262714,"2022-03-29"
"浦东新区","上海市浦东新区杨南路1899弄",121.5254800068741,31.16142174137021,"2022-03-29"
"浦东新区","上海市浦东新区浦电路489号工地生活区",121.54141801272378,31.228541386204874,"2022-03-29"
"浦东新区","上海市浦东新区浦东大道501弄",121.5251071202569,31.248512929274547,"2022-03-29"
"浦东新区","上海市浦东新区博华路930弄",121.55674921320147,31.18032002999115,"2022-03-29"
"浦东新区","上海市浦东新区苗圃路466弄",121.55942023480485,31.24425082338653,"2022-03-29"
"浦东新区","上海市浦东新区沈家弄路936号",121.55367107954098,31.2460098406675,"2022-03-29"
"浦东新区","上海市浦东新区昌里路340弄",121.50096839357609,31.178239082858738,"2022-03-29"
"浦东新区","上海市浦东新区光辉村",121.71870938478405,31.06985788920638,"2022-03-29"
"浦东新区","上海市浦东新区凌河路188弄",121.60216197029179,31.281903851498075,"2022-03-29"
"浦东新区","上海市浦东新区五莲路959弄",121.59865768049737,31.27732391544589,"2022-03-29"
"浦东新区","上海市浦东新区牟平路154弄",121.58962611690005,31.28158489894264,"2022-03-29"
"浦东新区","上海市浦东新区永宁路33弄",121.62099198090031,31.278981853544852,"2022-03-29"
"浦东新区","上海市浦东新区金葵路945弄",121.60213861434853,31.244250205910852,"2022-03-29"
"浦东新区","上海市浦东新区周秀路516弄",121.61369199100402,31.096239833397437,"2022-03-29"
"浦东新区","上海市浦东新区龚华路479弄",121.69382398656333,31.26551897447492,"2022-03-29"
"浦东新区","上海市浦东新区共新村蔡家宅",121.65795249161668,31.25930127616748,"2022-03-29"
"浦东新区","上海市浦东新区东园三村",121.5202451315147,31.23624027716434,"2022-03-29"
"浦东新区","上海市浦东新区东陆路1018弄",121.59902095524562,31.277911928226455,"2022-03-29"
"浦东新区","上海市浦东新区东陆路1301号",121.6051650954422,31.276235144571746,"2022-03-29"
"浦东新区","上海市浦东新区东陆路1350弄",121.58962611690005,31.28158489894264,"2022-03-29"
"浦东新区","上海市浦东新区博兴路1383弄",121.60541087182975,31.275169971640373,"2022-03-29"
"浦东新区","上海市浦东新区临江村筠西队庞家宅",121.482806722267,31.124007039641032,"2022-03-29"
"浦东新区","上海市浦东新区临江村王家渡队王家宅",121.48402985504939,31.126877924520862,"2022-03-29"
"浦东新区","上海市浦东新区临江村庞家队庞家宅",121.482806722267,31.124007039641032,"2022-03-29"
"浦东新区","上海市浦东新区临江村泰保队泰保堂",121.48492124360695,31.12396584750807,"2022-03-29"
"浦东新区","上海市浦东新区仁义村",121.64729337809639,31.064314697494762,"2022-03-29"
"浦东新区","上海市浦东新区瑞和路900弄",121.60939719236082,31.093720075982464,"2022-03-29"
"浦东新区","上海市浦东新区新川路899弄",121.6954506381808,31.195835154135207,"2022-03-29"
"浦东新区","上海市浦东新区江绣路300弄",121.7420841124283,31.17716111032305,"2022-03-29"
"浦东新区","上海市浦东新区民义村",121.70506789697062,31.13432390227659,"2022-03-29"
"浦东新区","上海市浦东新区海霞路685弄",121.75143645112357,31.175468482870308,"2022-03-29"
"浦东新区","上海市浦东新区建港村",121.84800016124085,31.036517804975315,"2022-03-29"
"浦东新区","上海市浦东新区祝潘公路301弄",121.76684274994189,31.114088797527916,"2022-03-29"
"浦东新区","上海市浦东新区沿北村",121.60867899710559,31.145196644713096,"2022-03-29"
"浦东新区","上海市浦东新区御北路235号工地生活区",121.56552717232037,31.16483088712021,"2022-03-29"
"浦东新区","上海市浦东新区张杨路1000弄",121.5362208661958,31.235578129821725,"2022-03-29"
"浦东新区","上海市浦东新区金桥路226弄",121.62178482534341,31.26066381567406,"2022-03-29"
"浦东新区","上海市浦东新区沪一小区",121.59052954275143,31.27583955442008,"2022-03-29"
"浦东新区","上海市浦东新区长岛路85弄",121.58469343151421,31.274539040952714,"2022-03-29"
"浦东新区","上海市浦东新区东波路585弄",121.59286001673597,31.289979530718124,"2022-03-29"
"浦东新区","上海市浦东新区金桥路1490弄",121.59547094170073,31.256168039053936,"2022-03-29"
"浦东新区","上海市浦东新区博山东路440弄",121.57526571518699,31.25858318762898,"2022-03-29"
"浦东新区","上海市浦东新区灵山路1840弄",121.578033843616,31.248054473360007,"2022-03-29"
"浦东新区","上海市浦东新区栖山路1855号",121.57779749943631,31.26719232371363,"2022-03-29"
"浦东新区","上海市浦东新区德平路25弄",121.56473182545479,31.260091745972705,"2022-03-29"
"浦东新区","上海市浦东新区银山路72弄",121.5849090248366,31.24824734927878,"2022-03-29"
"浦东新区","上海市浦东新区栖山路1088弄",121.56609437525233,31.26014005524514,"2022-03-29"
"浦东新区","上海市浦东新区博山东路20弄",121.5660388599718,31.253391023400393,"2022-03-29"
"浦东新区","上海市浦东新区新民村唐家宅",121.8237509429823,31.039870792860633,"2022-03-29"
"浦东新区","上海市浦东新区中界村黄家队黄家宅",121.73619418289135,31.260788678121866,"2022-03-29"
"浦东新区","上海市浦东新区中界村苏家队苏家宅",121.57702962788638,31.19161049851133,"2022-03-29"
"浦东新区","上海市浦东新区五星村三联队黄家宅",121.57836549801027,31.179988450201478,"2022-03-29"
"浦东新区","上海市浦东新区勤昌村杨家宅",121.74440496474422,31.209984837533348,"2022-03-29"
"浦东新区","上海市浦东新区乔港路11弄",121.71223314237878,31.202107978065168,"2022-03-29"
"浦东新区","上海市浦东新区药师新村",121.68918414877375,31.2090166621391,"2022-03-29"
"浦东新区","上海市浦东新区新德路502弄",121.7002081539922,31.203218673444667,"2022-03-29"
"浦东新区","上海市浦东新区勤益村东朱家宅",121.52256446651091,31.166204800272343,"2022-03-29"
"浦东新区","上海市浦东新区新星村东新港",121.71559180922354,31.259718872637045,"2022-03-29"
"浦东新区","上海市浦东新区华夏东路2079号",121.69815822081843,31.206451284822364,"2022-03-29"
"浦东新区","上海市浦东新区芳华路630弄",121.55655904192501,31.200205103357757,"2022-03-29"
"浦东新区","上海市浦东新区康安路御北路交界口工地生活区",121.56378599958333,31.16393929723239,"2022-03-29"
"浦东新区","上海市浦东新区上南路6620弄",121.58485970786411,31.120077939878794,"2022-03-29"
"浦东新区","上海市浦东新区祝西村",121.7577816320933,31.111643333887514,"2022-03-29"
"浦东新区","上海市浦东新区广益路15弄",121.77126519779807,31.115235567359992,"2022-03-29"
"浦东新区","上海市浦东新区秋亭路88弄",121.76766398083912,31.102882843970885,"2022-03-29"
"浦东新区","上海市浦东新区张杨路1589号",121.54563124522667,31.241023685467717,"2022-03-29"
"浦东新区","上海市浦东新区迅建村曹家宅",121.69922513827262,31.284090892321522,"2022-03-29"
"浦东新区","上海市浦东新区民丰村龚家宅",121.64474219044806,31.207675762451128,"2022-03-29"
"浦东新区","上海市浦东新区东窑新村",121.61740369954069,31.031492818488015,"2022-03-29"
"浦东新区","上海市浦东新区中界村沈家队沈家宅",121.57417373500905,31.19544617406339,"2022-03-29"
"浦东新区","上海市浦东新区中界村沈家队姚家宅",121.57417373500905,31.19544617406339,"2022-03-29"
"浦东新区","上海市浦东新区长清路977弄",121.4987043941993,31.158775720357866,"2022-03-29"
"浦东新区","上海市浦东新区西营南路68弄",121.52553031198265,31.139159418419815,"2022-03-29"
"浦东新区","上海市浦东新区立新村",121.76391813669305,31.177471711327076,"2022-03-29"
"浦东新区","上海市浦东新区新光村",121.66633332270258,31.266371356162526,"2022-03-29"
"浦东新区","上海市浦东新区卫民村",121.74780819516877,31.10401135310868,"2022-03-29"
"浦东新区","上海市浦东新区博兴路799弄",121.59697731021042,31.27188533546996,"2022-03-29"
"浦东新区","上海市浦东新区新虹村东包家宅",121.65488720372498,31.245149014624616,"2022-03-29"
"浦东新区","上海市浦东新区鹤鸣村",121.60056208817852,31.050200132685855,"2022-03-29"
"浦东新区","上海市浦东新区宁阳路12弄",121.52325463463423,31.217948760028733,"2022-03-29"
"浦东新区","上海市浦东新区博华路999弄",121.55711392523853,31.17680629046571,"2022-03-29"
"浦东新区","上海市浦东新区上南路5588号",121.53410068553116,31.12914416758575,"2022-03-29"
"浦东新区","上海市浦东新区浦东大道1608号",121.54814650065461,31.25060211682964,"2022-03-29"
"浦东新区","上海市浦东新区北洋泾路601号",121.55725531852579,31.24957562761426,"2022-03-29"
"浦东新区","上海市浦东新区临沂路81弄",121.52588604096461,31.20134163205489,"2022-03-29"
"浦东新区","上海市浦东新区浦东南路2351弄",121.51946171927945,31.20559866583432,"2022-03-29"
"浦东新区","上海市浦东新区浦三路288弄",121.51958191255669,31.198441132237164,"2022-03-29"
"浦东新区","上海市浦东新区南码头路451弄",121.51651428907066,31.200820319373893,"2022-03-29"
"浦东新区","上海市浦东新区兰陵路23弄",121.52327224142223,31.20101506872557,"2022-03-29"
"浦东新区","上海市浦东新区杨高南路4501弄",121.53193936247415,31.16362156468892,"2022-03-29"
"浦东新区","上海市浦东新区联勤村冯桥队张家宅",121.55744791522713,31.171212397581485,"2022-03-29"
"浦东新区","上海市浦东新区沪南公路3150弄",121.57177489997522,31.127929792678614,"2022-03-29"
"浦东新区","上海市浦东新区上南路6868弄",121.58485970786411,31.120077939878794,"2022-03-29"
"浦东新区","上海市浦东新区博兴路462弄",121.58940908628885,31.27201836204534,"2022-03-29"
"浦东新区","上海市浦东新区张杨北路555弄",121.59349026788176,31.27206427314543,"2022-03-29"
"浦东新区","上海市浦东新区五莲路30弄",121.58450074498232,31.281555271944608,"2022-03-29"
"浦东新区","上海市浦东新区梓康路580弄",121.5673160707459,31.12887508064723,"2022-03-29"
"浦东新区","上海市浦东新区浦东大道3036弄",121.58404099222233,31.28568683580724,"2022-03-29"
"浦东新区","上海市浦东新区莱阳路881弄",121.58956036093673,31.289971893195336,"2022-03-29"
"浦东新区","上海市浦东新区东波路195弄",121.5862415712301,31.29079458195699,"2022-03-29"
"浦东新区","上海市浦东新区沪二小区",121.58904347594628,31.274819978085866,"2022-03-29"
"浦东新区","上海市浦东新区金桥路825弄",121.62710396175963,31.259315707336796,"2022-03-29"
"浦东新区","上海市浦东新区长岛路625弄",121.59057454785749,31.266999409719872,"2022-03-29"
"浦东新区","上海市浦东新区五莲路100弄",121.58579735915542,31.281678100479343,"2022-03-29"
"浦东新区","上海市浦东新区莱阳路17号",121.58350515298562,31.278056442544635,"2022-03-29"
"浦东新区","上海市浦东新区叠桥村",121.62282874617655,31.13384997321586,"2022-03-29"
"浦东新区","上海市浦东新区巨峰路915弄",121.61275128547396,31.286264843609246,"2022-03-29"
"浦东新区","上海市浦东新区金星村",121.77908746251785,31.11921989828282,"2022-03-29"
"浦东新区","上海市浦东新区先进村",121.8100085754601,31.103827765483793,"2022-03-29"
"浦东新区","上海市浦东新区新陈路150弄",121.53688426481492,31.18970225553777,"2022-03-29"
"浦东新区","上海市浦东新区春晖路276弄",121.59182516878847,31.3464065285783,"2022-03-29"
"浦东新区","上海市浦东新区南六公路699弄",121.71737279601575,31.089091892615375,"2022-03-29"
"浦东新区","上海市浦东新区光明村季家宅",121.66490052541417,31.29664029270497,"2022-03-29"
"浦东新区","上海市浦东新区栖山路1460弄",121.5723494561794,31.261677295730113,"2022-03-29"
"浦东新区","上海市浦东新区德平路24弄",121.56223983613957,31.2599824712324,"2022-03-29"
"浦东新区","上海市浦东新区德平路1189弄",121.57681313625848,31.2458715286161,"2022-03-29"
"浦东新区","上海市浦东新区川周公路8682号",121.71611894118493,31.190439793852903,"2022-03-29"
"浦东新区","上海市浦东新区城丰路288弄",121.69127351755941,31.196028214917238,"2022-03-29"
"浦东新区","上海市浦东新区川沙路5122弄",121.70266385176483,31.196532410579437,"2022-03-29"
"浦东新区","上海市浦东新区吴店村乔家宅",121.72420764331898,31.15734008116495,"2022-03-29"
"浦东新区","上海市浦东新区明星村",121.57128011330032,31.24099265623926,"2022-03-29"
"浦东新区","上海市浦东新区航亭环路399弄",121.76848242698925,31.105525647466997,"2022-03-29"
"浦东新区","上海市浦东新区竞新村",121.820231022672,31.097804887739034,"2022-03-29"
"浦东新区","上海市浦东新区五莲路1168号",121.60292939268898,31.278456344054472,"2022-03-29"
"浦东新区","上海市浦东新区小湾村",121.69607693678236,31.23979022711445,"2022-03-29"
"浦东新区","上海市浦东新区诚礼路298弄",121.67496729628118,31.232023002375403,"2022-03-29"
"浦东新区","上海市浦东新区川沙路3639号",121.69664601332293,31.2225668869761,"2022-03-29"
"浦东新区","上海市浦东新区上丰路1483弄",121.67740368048534,31.248448791890432,"2022-03-29"
"浦东新区","上海市浦东新区杨高南路1218弄",121.53687276650439,31.21100851827807,"2022-03-29"
"浦东新区","上海市浦东新区浦建路207弄",121.53078000938297,31.21458559929172,"2022-03-29"
"浦东新区","上海市浦东新区蓝村路55弄",121.53788605511966,31.21787626341649,"2022-03-29"
"浦东新区","上海市浦东新区东方路1800弄",121.5284736099861,31.209089242825165,"2022-03-29"
"浦东新区","上海市浦东新区蓝村路501弄",121.53196923411473,31.21884539582701,"2022-03-29"
"浦东新区","上海市浦东新区临沂北路100弄",121.52618984788808,31.212369290621975,"2022-03-29"
"浦东新区","上海市浦东新区微山二村",121.51989685846848,31.214418673428547,"2022-03-29"
"浦东新区","上海市浦东新区浦东南路224弄",121.52152230001558,31.23753903968691,"2022-03-29"
"浦东新区","上海市浦东新区浦东南路2178弄",121.52048210450825,31.213021101599512,"2022-03-29"
"浦东新区","上海市浦东新区微山新村",121.52188759330915,31.215230523292508,"2022-03-29"
"浦东新区","上海市浦东新区海鹏路380弄",121.67648363598202,31.293987138169218,"2022-03-29"
"浦东新区","上海市浦东新区曹路民建村北邵家宅",121.65451647304103,31.28037867132429,"2022-03-29"
"浦东新区","上海市浦东新区龚路支路473弄",121.69548118056815,31.26946975904926,"2022-03-29"
"浦东新区","上海市浦东新区新星村王家圈",121.6954765093795,31.005253148742646,"2022-03-29"
"浦东新区","上海市浦东新区南桥路1100弄",121.6965710946434,31.19320724843495,"2022-03-29"
"浦东新区","上海市浦东新区妙境路404弄",121.69668131672947,31.198907553432047,"2022-03-29"
"浦东新区","上海市浦东新区界龙村孙家宅",121.69261199276927,31.176436773231853,"2022-03-29"
"浦东新区","上海市浦东新区妙境路172号",121.69568554507167,31.202630654198636,"2022-03-29"
"浦东新区","上海市浦东新区新德西路207弄",121.68014000889929,31.197583884180386,"2022-03-29"
"浦东新区","上海市浦东新区浦东南路1550弄",121.52482810656551,31.226487912239136,"2022-03-29"
"浦东新区","上海市浦东新区板泉路1567弄",121.51878987658854,31.168573913931308,"2022-03-29"
"浦东新区","上海市浦东新区永泰路136弄",121.51114125432383,31.140667892100943,"2022-03-29"
"浦东新区","上海市浦东新区浦东南路1341弄",121.52482891504046,31.230199108968073,"2022-03-29"
"浦东新区","上海市浦东新区川周公路4293弄",121.5884997316211,31.12640218041496,"2022-03-29"
"浦东新区","上海市浦东新区沈西村",121.57207196960738,31.096648242037833,"2022-03-29"
"浦东新区","上海市浦东新区关岳路186弄",121.59428904114124,31.12582241232991,"2022-03-29"
"浦东新区","上海市浦东新区金桥路351弄",121.57962303589369,31.273050854795017,"2022-03-29"
"浦东新区","上海市浦东新区川周公路4318弄",121.58742940060596,31.12689477181507,"2022-03-29"
"浦东新区","上海市浦东新区韵涛路36弄",121.58485970786411,31.120077939878794,"2022-03-29"
"浦东新区","上海市浦东新区长岛路99号",121.58323161895783,31.273668138186082,"2022-03-29"
"浦东新区","上海市浦东新区瑞安路211弄",121.59732225952624,31.09677571959406,"2022-03-29"
"浦东新区","上海市浦东新区坦西村",121.65331067755497,31.091888312065223,"2022-03-29"
"浦东新区","上海市浦东新区浦电路307号",121.53236327284431,31.225631306922903,"2022-03-29"
"浦东新区","上海市浦东新区福山路307号",121.535684847298,31.235608774888448,"2022-03-29"
"浦东新区","上海市浦东新区严楼村",121.75404881337712,31.02288184548314,"2022-03-29"
"浦东新区","上海市浦东新区浦东大道2746弄",121.57975652409247,31.27446558512791,"2022-03-29"
"浦东新区","上海市浦东新区云桥路796号",121.62262015963714,31.254722624393548,"2022-03-29"
"浦东新区","上海市浦东新区长岛路1398弄",121.60597842125094,31.269798784217294,"2022-03-29"
"浦东新区","上海市浦东新区凌河路38弄",121.60075360691324,31.282569682663706,"2022-03-29"
"浦东新区","上海市浦东新区台儿庄路663弄",121.60033796095378,31.264978881782035,"2022-03-29"
"浦东新区","上海市浦东新区潍坊路252弄",121.53874618264545,31.233281419464312,"2022-03-29"
"浦东新区","上海市浦东新区银山路370弄",121.59075744285933,31.25208155352624,"2022-03-29"
"浦东新区","上海市浦东新区栖山路1861弄",121.57710095334389,31.267784875846075,"2022-03-29"
"浦东新区","上海市浦东新区南桥路459弄",121.70791184238466,31.195454514332024,"2022-03-29"
"浦东新区","上海市浦东新区川周路8828弄",121.71626186159158,31.193206090036565,"2022-03-29"
"浦东新区","上海市浦东新区庆星村三队储家宅",121.7380027413746,31.246462286361815,"2022-03-29"
"浦东新区","上海市浦东新区和龙路371弄",121.57735930600855,31.35036930823437,"2022-03-29"
"浦东新区","上海市浦东新区周埠村",121.77560266595299,31.002876824216518,"2022-03-29"
"浦东新区","上海市浦东新区龙阳路1880弄",121.55929249576131,31.206698915055398,"2022-03-29"
"浦东新区","上海市浦东新区灵岩南路1333号",121.50852170562618,31.143886666114497,"2022-03-29"
"浦东新区","上海市浦东新区锦和路99弄",121.53812401624923,31.212289840714956,"2022-03-29"
"浦东新区","上海市浦东新区华夏二路1500弄",121.6970799847148,31.178171884998676,"2022-03-29"
"浦东新区","上海市浦东新区华夏一路55弄",121.69299574888313,31.203054970492868,"2022-03-29"
"浦东新区","上海市浦东新区牌楼村",121.56557758009242,31.05914827465531,"2022-03-29"
"浦东新区","上海市浦东新区新春村南王家宅",121.48402985504939,31.126877924520862,"2022-03-29"
"浦东新区","上海市浦东新区潍坊路375弄",121.54147209071549,31.234748161879693,"2022-03-29"
"浦东新区","上海市浦东新区潍坊路270号",121.54024105284462,31.23410576534251,"2022-03-29"
"浦东新区","上海市浦东新区潍坊路268号",121.54011960193965,31.234022474240376,"2022-03-29"
"浦东新区","上海市浦东新区浦红西路74号",121.76482425746097,31.092927042702986,"2022-03-29"
"浦东新区","上海市浦东新区周市路148号",121.5910256768846,31.11830457829532,"2022-03-29"
"浦东新区","上海市浦东新区周市路1321号",121.58970166439343,31.119318594332626,"2022-03-29"
"浦东新区","上海市浦东新区周秀路336弄",121.61356110789121,31.100484088999426,"2022-03-29"
"浦东新区","上海市浦东新区瑞阳路331号",121.59612625557025,31.102075664458425,"2022-03-29"
"浦东新区","上海市浦东新区周星路500弄",121.58569980317705,31.10805931117418,"2022-03-29"
"浦东新区","上海市浦东新区其成村",121.69209061625129,31.120092933510254,"2022-03-29"
"浦东新区","上海市浦东新区福山路100弄",121.53377469046157,31.238417889095363,"2022-03-29"
"浦东新区","上海市浦东新区浦明路233弄",121.5171928690529,31.23258212082952,"2022-03-29"
"浦东新区","上海市浦东新区莲园路8弄",121.55045460683195,31.227348292436346,"2022-03-29"
"浦东新区","上海市浦东新区幸福村",121.78086269386668,31.032127628658696,"2022-03-29"
"浦东新区","上海市浦东新区赵桥村",121.6538308862758,31.297234123668435,"2022-03-29"
"浦东新区","上海市浦东新区御青路311号",121.57879587618011,31.163698970090422,"2022-03-29"
"浦东新区","上海市浦东新区太平村",121.76681903467642,31.224990700598582,"2022-03-29"
"浦东新区","上海市浦东新区一六村北赵家宅",121.59511611102428,31.17798882851489,"2022-03-29"
"浦东新区","上海市浦东新区兰谷路2777弄",121.60213897367075,31.316277446367362,"2022-03-29"
"浦东新区","上海市浦东新区东靖路669弄",121.58962611690005,31.28158489894264,"2022-03-29"
"浦东新区","上海市浦东新区新跃路64弄",121.63847282646337,31.326179609847465,"2022-03-29"
"浦东新区","上海市浦东新区四灶村姚家宅",121.65826429345921,31.19680555082436,"2022-03-29"
"浦东新区","上海市浦东新区孙桥曹家宅",121.65798824417598,31.17533578243895,"2022-03-29"
"浦东新区","上海市浦东新区环东中心村",121.66544723414754,31.190730482752222,"2022-03-29"
"浦东新区","上海市浦东新区长元村曹家宅",121.65798824417598,31.17533578243895,"2022-03-29"
"浦东新区","上海市浦东新区周祝公路35号",121.59240601313122,31.10579418287934,"2022-03-29"
"浦东新区","上海市浦东新区康沈路1620弄",121.58089557547913,31.12344000863689,"2022-03-29"
"浦东新区","上海市浦东新区康沈路1646弄",121.58343670210574,31.121875458295566,"2022-03-29"
"浦东新区","上海市浦东新区一六村王家队西王家宅",121.79315025561546,31.143344171689513,"2022-03-29"
"浦东新区","上海市浦东新区严桥路141弄",121.53576120326635,31.196409470181045,"2022-03-29"
"浦东新区","上海市浦东新区康桥路90弄",121.58485970786411,31.120077939878794,"2022-03-29"
"浦东新区","上海市浦东新区莲安东路243弄",121.56697498414376,31.187509840356512,"2022-03-29"
"浦东新区","上海市浦东新区龚丰路576号",121.69971210968959,31.26432959347796,"2022-03-29"
"浦东新区","上海市浦东新区国展路1776号工地生活区",121.49656676797295,31.188922647488646,"2022-03-29"
"浦东新区","上海市浦东新区崮山路717号",121.56675642641318,31.2457458744099,"2022-03-29"
"浦东新区","上海市浦东新区龙梢宅",121.65845033253032,31.307521425419296,"2022-03-29"
"浦东新区","上海市浦东新区张杨北路5848弄",121.57990160043234,31.354634741889846,"2022-03-29"
"浦东新区","上海市浦东新区五莲路759弄",121.59770287157082,31.276387222961237,"2022-03-29"
"浦东新区","上海市浦东新区成山路24弄",121.49230899795155,31.17414687706441,"2022-03-29"
"浦东新区","上海市浦东新区北油车弄",121.58411878547949,31.12209680309921,"2022-03-29"
"浦东新区","上海市浦东新区关岳西路141弄",121.58436995170007,31.124577776810373,"2022-03-29"
"浦东新区","上海市浦东新区樱花路802弄",121.567473903024,31.213807021168357,"2022-03-29"
"浦东新区","上海市浦东新区德州路220弄",121.53688426481492,31.18970225553777,"2022-03-29"
"浦东新区","上海市浦东新区永安新村",121.55708014895134,31.254939565357265,"2022-03-29"
"浦东新区","上海市浦东新区城丰路15弄",121.69708187115637,31.197356076198027,"2022-03-29"
"浦东新区","上海市浦东新区川周公路8288弄",121.71119496936254,31.18350886710539,"2022-03-29"
"浦东新区","上海市浦东新区崮山路17号",121.55665875383662,31.254049880394966,"2022-03-29"
"浦东新区","上海市浦东新区耀华路579弄",121.48605966617973,31.178810494440008,"2022-03-29"
"浦东新区","上海市浦东新区车站新村",121.64973856569456,31.032398926315587,"2022-03-29"
"浦东新区","上海市浦东新区红桥村",121.6399521559772,31.108110249652228,"2022-03-29"
"浦东新区","上海市浦东新区绿科路与环业西路交界工地生活区",121.58200336583404,31.182980426822898,"2022-03-29"
"浦东新区","上海市浦东新区五星路88弄",121.53688426481492,31.18970225553777,"2022-03-29"
"浦东新区","上海市浦东新区小南码头路4弄",121.55045460683195,31.227348292436346,"2022-03-29"
"浦东新区","上海市浦东新区卫行村朱家队朱家宅",121.58720141066752,31.166665202015878,"2022-03-29"
"浦东新区","上海市浦东新区沪南路1168弄",121.53688426481492,31.18970225553777,"2022-03-29"
"浦东新区","上海市浦东新区成山路2388弄",121.55237302807906,31.185659824651268,"2022-03-29"
"浦东新区","上海市浦东新区莲溪路430弄",121.5666639907762,31.188726533627015,"2022-03-29"
"浦东新区","上海市浦东新区永泰路1129弄",121.52972387159488,31.14879972560635,"2022-03-29"
"浦东新区","上海市浦东新区秀康路958弄",121.58485970786411,31.120077939878794,"2022-03-29"
"浦东新区","上海市浦东新区东康名苑",121.63093855849009,31.148392161687806,"2022-03-29"
"浦东新区","上海市浦东新区严杨路166弄",121.53619499499712,31.20036688077375,"2022-03-29"
"浦东新区","上海市浦东新区广厦路149号",121.70077040341089,31.203356353583096,"2022-03-29"
"浦东新区","上海市浦东新区合庆镇金家宅",121.59324952200511,31.131094754366096,"2022-03-29"
"浦东新区","上海市浦东新区向东村顾家宅",121.7500085046849,31.241907087914267,"2022-03-29"
"浦东新区","上海市浦东新区新德路558弄",121.69840094296723,31.203004624055815,"2022-03-29"
"浦东新区","上海市浦东新区浦东大道2250弄",121.55930570085232,31.257870032659223,"2022-03-29"
"浦东新区","上海市浦东新区界龙村朱高家宅",121.6907189935681,31.18101670674418,"2022-03-29"
"浦东新区","上海市浦东新区长丰村陆家宅",121.66622561587194,31.197467509120983,"2022-03-29"
"浦东新区","上海市浦东新区永宁东路531弄",121.75354549279989,30.973361742698845,"2022-03-29"
"浦东新区","上海市浦东新区大众村",121.60951972123236,31.206682082088673,"2022-03-29"
"浦东新区","上海市浦东新区创新西路75弄",121.66373147062347,31.209726792242737,"2022-03-29"
"浦东新区","上海市浦东新区花山路609弄",121.581581431736,31.354342018515883,"2022-03-29"
"浦东新区","上海市浦东新区施镇路385弄",121.76379129595504,31.15034837509582,"2022-03-29"
"浦东新区","上海市浦东新区星火村",121.70831760698351,31.261823069883153,"2022-03-29"
"浦东新区","上海市浦东新区杨张村",121.7016981733416,31.27716960102064,"2022-03-29"
"浦东新区","上海市浦东新区秦家港路北万家宅",121.6779436519274,31.270010751740664,"2022-03-29"
"浦东新区","上海市浦东新区浙桥路277号",121.60792001878019,31.258345881498737,"2022-03-29"
"浦东新区","上海市浦东新区靖海路567弄",121.77615063231408,31.03901155563398,"2022-03-29"
"浦东新区","上海市浦东新区新川路640弄",121.70007250986019,31.199402853132074,"2022-03-29"
"浦东新区","上海市浦东新区川沙路5015弄",121.65277879086253,31.290487771739045,"2022-03-29"
"浦东新区","上海市浦东新区御山路360弄",121.57468244541937,31.162035666910167,"2022-03-29"
"浦东新区","上海市浦东新区会龙村",121.72001938370924,31.100736018736946,"2022-03-29"
"浦东新区","上海市浦东新区浦东南路1862弄",121.5241351536951,31.221747612042826,"2022-03-29"
"浦东新区","上海市浦东新区东陆路898弄",121.59898160946427,31.280897766199242,"2022-03-29"
"浦东新区","上海市浦东新区五莲路1047弄",121.60139041568928,31.277745809783077,"2022-03-29"
"浦东新区","上海市浦东新区凌河路618弄",121.60815285956838,31.276965751274,"2022-03-29"
"浦东新区","上海市浦东新区妙栏路353弄",121.6960583418583,31.192565030175434,"2022-03-29"
"浦东新区","上海市浦东新区黄楼村华家宅",121.67026745168353,31.168147433085426,"2022-03-29"
"浦东新区","上海市浦东新区妙栏路265弄",121.69484221585888,31.1919764806927,"2022-03-29"
"浦东新区","上海市浦东新区妙栏路401弄",121.69819163778341,31.19302522526027,"2022-03-29"
"浦东新区","上海市浦东新区浦东大道2970弄",121.58527436568751,31.2829352319847,"2022-03-29"
"浦东新区","上海市浦东新区莱阳路201弄",121.58640533232457,31.27945497158419,"2022-03-29"
"浦东新区","上海市浦东新区莱阳路350弄",121.58832150780792,31.280456057381212,"2022-03-29"
"浦东新区","上海市浦东新区莱阳路451弄",121.5892918574198,31.282158997327386,"2022-03-29"
"浦东新区","上海市浦东新区博兴路465弄",121.58987225260978,31.272066665151705,"2022-03-29"
"浦东新区","上海市浦东新区博兴路616弄",121.59050564782487,31.26885013299071,"2022-03-29"
"浦东新区","上海市浦东新区柳埠路135弄",121.58893424199627,31.268891029980523,"2022-03-29"
"浦东新区","上海市浦东新区王桥路463号",121.69728920006807,31.21493466022967,"2022-03-29"
"浦东新区","上海市浦东新区浦东南路1475弄",121.52575174429087,31.228549414736456,"2022-03-29"
"浦东新区","上海市浦东新区张杨路1338号",121.53919246082282,31.23813383213902,"2022-03-29"
"浦东新区","上海市浦东新区浦东南路1399号",121.52445117757352,31.230066872032918,"2022-03-29"
"浦东新区","上海市浦东新区源深路600弄",121.54036717493821,31.237760542935803,"2022-03-29"
"浦东新区","上海市浦东新区罗山路1505号",121.57685921933114,31.23429457881754,"2022-03-29"
"浦东新区","上海市浦东新区张杨北路2899弄",121.59411198512524,31.310569871178334,"2022-03-29"
"浦东新区","上海市浦东新区申江路881弄",121.63172484530297,31.294346857054126,"2022-03-29"
"浦东新区","上海市浦东新区草高支路938弄",121.573303456631,31.35722403549053,"2022-03-29"
"浦东新区","上海市浦东新区德平路778号",121.5724924664166,31.25027132612224,"2022-03-29"
"浦东新区","上海市浦东新区龙居路179号",121.56974095663954,31.25818806294194,"2022-03-29"
"浦东新区","上海市浦东新区张杨路2078号",121.55964570948784,31.24540781127244,"2022-03-29"
"浦东新区","上海市浦东新区崮山路968号",121.56813927791524,31.241428762610123,"2022-03-29"
"浦东新区","上海市浦东新区桃林路189号",121.54194855195796,31.24653699912155,"2022-03-29"
"浦东新区","上海市浦东新区浦东大道1139弄",121.54026872065431,31.249039301811695,"2022-03-29"
"浦东新区","上海市浦东新区崮山路73号",121.55715560661419,31.25365573984125,"2022-03-29"
"浦东新区","上海市浦东新区崮山路322弄",121.5592861177922,31.251792753021967,"2022-03-29"
"浦东新区","上海市浦东新区金浜村",121.56814071520405,31.26326582816838,"2022-03-29"
"浦东新区","上海市浦东新区大陆家宅",121.5531859945656,31.244897858469482,"2022-03-29"
"浦东新区","上海市浦东新区海防新村",121.55970769256804,31.25556460874112,"2022-03-29"
"浦东新区","上海市浦东新区张杨路1811弄",121.55591055517736,31.24500599308608,"2022-03-29"
"浦东新区","上海市浦东新区灵山路1396弄",121.56940948190635,31.24344377919883,"2022-03-29"
"浦东新区","上海市浦东新区巨野路236号",121.55183584138409,31.246946065859394,"2022-03-29"
"浦东新区","上海市浦东新区崮山路157弄",121.56297644665774,31.24999139569425,"2022-03-29"
"浦东新区","上海市浦东新区崮山路311号",121.56070795575339,31.25170831999622,"2022-03-29"
"浦东新区","上海市浦东新区齐爱路168弄",121.63626380338377,31.194416454082223,"2022-03-29"
"浦东新区","上海市浦东新区南曹路901弄",121.67039869411853,31.20845261563489,"2022-03-29"
"浦东新区","上海市浦东新区沙北村",121.59799095814788,31.05717724748277,"2022-03-29"
"浦东新区","上海市浦东新区下沙新街",121.60249649926371,31.056382823551992,"2022-03-29"
"浦东新区","上海市浦东新区华夏东路2026弄",121.6970084795962,31.205438982299057,"2022-03-29"
"浦东新区","上海市浦东新区翔川路458弄",121.70152318342825,31.18903143816163,"2022-03-29"
"浦东新区","上海市浦东新区妙川路1000弄",121.71007352476387,31.184302294282435,"2022-03-29"
"浦东新区","上海市浦东新区八灶村郭家宅",121.72414179752509,31.16212419793255,"2022-03-29"
"浦东新区","上海市浦东新区妙川路1111弄",121.7206909569085,31.18840857614465,"2022-03-29"
"浦东新区","上海市浦东新区城南路627弄",121.70162621907025,31.19559058416537,"2022-03-29"
"浦东新区","上海市浦东新区南桥路237弄",121.71515946106972,31.197580409147527,"2022-03-29"
"浦东新区","上海市浦东新区高桥村唐家宅",121.82634578827842,30.92227747900876,"2022-03-29"
"浦东新区","上海市浦东新区妙川路800弄",121.71007352476387,31.184302294282435,"2022-03-29"
"浦东新区","上海市浦东新区华路村周家宅",121.74277930126281,31.20013653127087,"2022-03-29"
"浦东新区","上海市浦东新区西泥路108弄",121.70906544632058,31.202915436666085,"2022-03-29"
"浦东新区","上海市浦东新区灵山路1671弄",121.57231100870358,31.245771344870743,"2022-03-29"
"浦东新区","上海市浦东新区张杨北路588弄",121.59521528395258,31.275260170384,"2022-03-29"
"浦东新区","上海市浦东新区施湾二路863弄",121.75567259041696,31.148849637577875,"2022-03-29"
"浦东新区","上海市浦东新区罗山路1700弄",121.57507257950235,31.231436321956892,"2022-03-29"
"浦东新区","上海市浦东新区德平路1134弄",121.57628601058522,31.24564090516471,"2022-03-29"
"浦东新区","上海市浦东新区长岛路800弄",121.59383476804486,31.265307536930138,"2022-03-29"
"浦东新区","上海市浦东新区新华村",121.66806741165904,31.270945424785232,"2022-03-29"
"浦东新区","上海市浦东新区新虹村瞿家宅",121.65503362752312,31.248713367963926,"2022-03-29"
"浦东新区","上海市浦东新区寿光路78弄",121.59210202654666,31.279390855434528,"2022-03-29"
"浦东新区","上海市浦东新区寿光路161弄",121.59052532071554,31.280396185422553,"2022-03-29"
"浦东新区","上海市浦东新区张杨路1647弄",121.5473199697549,31.24166765541493,"2022-03-29"
"浦东新区","上海市浦东新区羽山路383弄",121.55038328137447,31.239109425236762,"2022-03-29"
"浦东新区","上海市浦东新区浦东大道2742弄",121.57797931647153,31.272927088984172,"2022-03-29"
"浦东新区","上海市浦东新区浦建路1086弄",121.54495742626365,31.21291640447759,"2022-03-29"
"浦东新区","上海市浦东新区英雄村",121.75968460248563,31.034120375692826,"2022-03-29"
"浦东新区","上海市浦东新区宣黄公路2585弄",121.7492024551508,31.030215449268713,"2022-03-29"
"浦东新区","上海市浦东新区芳华路673弄",121.56950497178207,31.20367904785373,"2022-03-29"
"浦东新区","上海市浦东新区上南路6733弄",121.58485970786411,31.120077939878794,"2022-03-29"
"浦东新区","上海市浦东新区南码头路560号",121.51750017936786,31.197040233028133,"2022-03-29"
"浦东新区","上海市浦东新区东三里桥路160弄",121.5161398753341,31.20602821937022,"2022-03-29"
"浦东新区","上海市浦东新区浦三路775弄",121.52672901085516,31.1896008532192,"2022-03-29"
"浦东新区","上海市浦东新区港机新村",121.51473842890799,31.19681095647568,"2022-03-29"
"浦东新区","上海市浦东新区东方路1881弄",121.53235680504463,31.20094881383694,"2022-03-29"
"浦东新区","上海市浦东新区浦三路817弄",121.52567502900033,31.188961853906115,"2022-03-29"
"浦东新区","上海市浦东新区临沂路280弄",121.51602965324803,31.198943924920997,"2022-03-29"
"浦东新区","上海市浦东新区临沂路381弄",121.51787396429056,31.196684850271488,"2022-03-29"
"浦东新区","上海市浦东新区临沂路301弄",121.51651446873176,31.19676037501184,"2022-03-29"
"浦东新区","上海市浦东新区临沂路450弄",121.51958083459007,31.200750898313608,"2022-03-29"
"浦东新区","上海市浦东新区华丰路50弄",121.51450495930594,31.197495463859788,"2022-03-29"
"浦东新区","上海市浦东新区劳动村吴家宅",121.6390159419747,31.185271265739956,"2022-03-29"
"浦东新区","上海市浦东新区下南路526弄",121.54440200396682,31.17804189176027,"2022-03-29"
"浦东新区","上海市浦东新区下南路500弄",121.5437208188986,31.177967587760506,"2022-03-29"
"浦东新区","上海市浦东新区成山路1850弄",121.53894300138269,31.183033873417745,"2022-03-29"
"浦东新区","上海市浦东新区中界村庄家队蔡家宅",121.57857947438275,31.194413133383005,"2022-03-29"
"浦东新区","上海市浦东新区华夏西路5778号",121.58671902060865,31.17266288696628,"2022-03-29"
"浦东新区","上海市浦东新区南阜村九思队九思堂",121.52253769700673,31.134130250808454,"2022-03-29"
"浦东新区","上海市浦东新区芳华路371弄",121.56442550327588,31.203020685498792,"2022-03-29"
"浦东新区","上海市浦东新区新浦路350弄",121.54104081424015,31.177803917931705,"2022-03-29"
"浦东新区","上海市浦东新区中界村陈家队陈家宅",121.57857947438275,31.194413133383005,"2022-03-29"
"浦东新区","上海市浦东新区芳华路933弄",121.53688426481492,31.18970225553777,"2022-03-29"
"浦东新区","上海市浦东新区上南路3339弄",121.51310917220454,31.16583609100493,"2022-03-29"
"浦东新区","上海市浦东新区钱堂村长浜宅",121.61468776266183,31.163187258946337,"2022-03-29"
"浦东新区","上海市浦东新区新苗村",121.64390317310173,31.127716189665108,"2022-03-29"
"浦东新区","上海市浦东新区胡巷村马家宅",121.52500489308987,31.158715770519464,"2022-03-29"
"浦东新区","上海市浦东新区康弘路515弄",121.60653348422555,31.127466032407003,"2022-03-29"
"浦东新区","上海市浦东新区锦安东路280弄",121.55033746779345,31.20801179992383,"2022-03-29"
"浦东新区","上海市浦东新区新浦路543弄",121.536926664835,31.1758010055361,"2022-03-29"
"浦东新区","上海市浦东新区佳乐路255弄",121.62239890699003,31.274493516866418,"2022-03-29"
"浦东新区","上海市浦东新区永业路188弄",121.62271349357962,31.2730736171925,"2022-03-29"
"浦东新区","上海市浦东新区妙境路168号",121.69565670946479,31.202770420105665,"2022-03-29"
"浦东新区","上海市浦东新区妙栏路392弄",121.69737561705813,31.191923193652435,"2022-03-29"
"浦东新区","上海市浦东新区界龙大道266号",121.6911208056227,31.182690640708717,"2022-03-29"
"浦东新区","上海市浦东新区红旗村姜胡宅队江湖宅",121.50020627118141,31.126931789483034,"2022-03-29"
"浦东新区","上海市浦东新区川北公路2820号",121.6183400932043,31.209876971291003,"2022-03-29"
"浦东新区","上海市浦东新区联勤村麦家队麦家宅",121.55391344236757,31.16926349405447,"2022-03-29"
"浦东新区","上海市浦东新区北蔡镇杨莲路张家宅",121.52958652068241,31.167835971840162,"2022-03-29"
"浦东新区","上海市浦东新区北蔡麦家宅",121.55391344236757,31.16926349405447,"2022-03-29"
"浦东新区","上海市浦东新区少年路40弄",121.76370110608184,31.051868509214437,"2022-03-29"
"浦东新区","上海市浦东新区项埭村",121.71448007261252,31.053704919003106,"2022-03-29"
"浦东新区","上海市浦东新区城南路1111弄",121.63978695759393,30.90924540339421,"2022-03-29"
"浦东新区","上海市浦东新区花木路500弄",121.54909843500354,31.21781187340708,"2022-03-29"
"浦东新区","上海市浦东新区东三街102弄",121.51710618257118,31.20763978042601,"2022-03-29"
"浦东新区","上海市浦东新区北艾路1077弄",121.54054036824053,31.186306106309136,"2022-03-29"
"浦东新区","上海市浦东新区御青路918弄",121.581132278981,31.158767840355527,"2022-03-29"
"浦东新区","上海市浦东新区沪南路7311弄",121.53688426481492,31.18970225553777,"2022-03-29"
"浦东新区","上海市浦东新区众安村",121.65674471985852,31.003942768973364,"2022-03-29"
"浦东新区","上海市浦东新区东海村",121.67786990104503,31.30705492876369,"2022-03-29"
"浦东新区","上海市浦东新区民秋路567号",121.67040588056261,31.292290739840134,"2022-03-29"
"浦东新区","上海市浦东新区绿林路401号",121.55560171774303,31.175283799040667,"2022-03-29"
"浦东新区","上海市浦东新区北艾路1765弄",121.52839860147601,31.184265453706548,"2022-03-29"
"浦东新区","上海市浦东新区赵家厍",121.54343515774643,31.176791383130574,"2022-03-29"
"浦东新区","上海市浦东新区莲园路180弄",121.55797854429187,31.191144040989926,"2022-03-29"
"浦东新区","上海市浦东新区北蔡周家宅",121.61609774299029,31.172355534634484,"2022-03-29"
"浦东新区","上海市浦东新区北蔡镇北中路周家宅",121.56763721496571,31.19052327819073,"2022-03-29"
"浦东新区","上海市浦东新区联勤村冯桥队冯家宅",121.55744791522713,31.171212397581485,"2022-03-29"
"浦东新区","上海市浦东新区北艾路73弄",121.55045514581526,31.191186130381443,"2022-03-29"
"浦东新区","上海市浦东新区沪南公路9439弄",121.72754273830364,31.045002091053345,"2022-03-29"
"浦东新区","上海市浦东新区南芦公路29弄",121.72288201387789,31.038701290789376,"2022-03-29"
"浦东新区","上海市浦东新区金建村",121.67168902015307,31.03679094652499,"2022-03-29"
"浦东新区","上海市浦东新区南芦公路48弄",121.72120254189645,31.03577263738615,"2022-03-29"
"浦东新区","上海市浦东新区五星村吴家队吴家宅",121.5221809798887,31.125604863131734,"2022-03-29"
"浦东新区","上海市浦东新区康桥路1118弄",121.58485970786411,31.120077939878794,"2022-03-29"
"浦东新区","上海市浦东新区御衡路68弄",121.58833740781544,31.159592610343985,"2022-03-29"
"浦东新区","上海市浦东新区康花路599号",121.55548565667114,31.153707506114596,"2022-03-29"
"浦东新区","上海市浦东新区秀沿路883弄",121.58485970786411,31.120077939878794,"2022-03-29"
"浦东新区","上海市浦东新区康沈路3001弄",121.59000394419755,31.095345471807125,"2022-03-29"
"浦东新区","上海市浦东新区康沈路400弄",121.58485970786411,31.120077939878794,"2022-03-29"
"浦东新区","上海市浦东新区康弘路580弄",121.60607678570427,31.132845541712022,"2022-03-29"
"浦东新区","上海市浦东新区秀浦路788弄",121.58085533139229,31.13305774209223,"2022-03-29"
"浦东新区","上海市浦东新区浦三路4677弄",121.53688426481492,31.18970225553777,"2022-03-29"
"浦东新区","上海市浦东新区张桥村李家宅",121.55045460683195,31.227348292436346,"2022-03-29"
"浦东新区","上海市浦东新区五莲路758弄",121.59711537976729,31.275933456115435,"2022-03-29"
"浦东新区","上海市浦东新区浦电路331弄",121.53518233519571,31.225922581402024,"2022-03-29"
"浦东新区","上海市浦东新区莱阳路301弄",121.5859471965145,31.280357685263912,"2022-03-29"
"浦东新区","上海市浦东新区博兴路250弄",121.58638727638383,31.274900995229025,"2022-03-29"
"浦东新区","上海市浦东新区庆丰村",121.72371950410485,31.24705219137166,"2022-03-29"
"浦东新区","上海市浦东新区海塘村",121.76536467805578,31.218434771543873,"2022-03-29"
"浦东新区","上海市浦东新区益民村",121.71226503088602,31.223873990851512,"2022-03-29"
"浦东新区","上海市浦东新区城南路267弄",121.71270538024702,31.198741603508143,"2022-03-29"
"浦东新区","上海市浦东新区潍坊西路100弄",121.52290528362141,31.228227886947543,"2022-03-29"
"浦东新区","上海市浦东新区康沈路2262弄",121.58731262088966,31.107124171661162,"2022-03-29"
"浦东新区","上海市浦东新区繁荣东路150弄",121.59321448809021,31.11201697090244,"2022-03-29"
"浦东新区","上海市浦东新区周东南路599弄",121.59884596533226,31.10441485812352,"2022-03-29"
"浦东新区","上海市浦东新区周邓公路6600弄",121.60942890254532,31.121067591709107,"2022-03-29"
"浦东新区","上海市浦东新区芳华路916弄",121.57459800470143,31.202853893456744,"2022-03-29"
"浦东新区","上海市浦东新区芳华路310弄",121.56401821155765,31.201334527828102,"2022-03-29"
"浦东新区","上海市浦东新区芳华路478弄",121.53688426481492,31.18970225553777,"2022-03-29"
"浦东新区","上海市浦东新区川周公路3078号",121.61671335175627,31.145535533215952,"2022-03-29"
"浦东新区","上海市浦东新区秀沿路2875弄",121.61606648195854,31.14493023082232,"2022-03-29"
"浦东新区","上海市浦东新区板泉路2101弄",121.53960469322134,31.168815850763366,"2022-03-29"
"浦东新区","上海市浦东新区五星村秦家宅",121.57878347956407,31.18006375668571,"2022-03-29"
"浦东新区","上海市浦东新区银峰路549弄",121.69568788066599,31.272437116739326,"2022-03-29"
"浦东新区","上海市浦东新区民同路290弄",121.65855004444192,31.27564688975859,"2022-03-29"
"浦东新区","上海市浦东新区浦东大道844号",121.53472437904674,31.246535609835234,"2022-03-29"
"浦东新区","上海市浦东新区栖山路1700弄",121.57584134935779,31.26538331496652,"2022-03-29"
"浦东新区","上海市浦东新区清溪路400弄",121.57747563657209,31.347650837499692,"2022-03-29"
"浦东新区","上海市浦东新区瑞和路1120弄",121.61351906719335,31.09459597648473,"2022-03-29"
"浦东新区","上海市浦东新区德州路26号",121.51163990371242,31.17479818156384,"2022-03-29"
"浦东新区","上海市浦东新区建设路60弄",121.65120603757566,31.079289813706403,"2022-03-29"
"浦东新区","上海市浦东新区新四平公路468弄",121.74673400143993,30.89842615259855,"2022-03-29"
"浦东新区","上海市浦东新区严中路173弄",121.53796995685428,31.198821837128346,"2022-03-29"
"浦东新区","上海市浦东新区川黄路248弄",121.71167062213006,31.19636282692236,"2022-03-29"
"浦东新区","上海市浦东新区康沈路1938弄",121.58268131700241,31.11475775473791,"2022-03-29"
"浦东新区","上海市浦东新区新德西路99弄",121.6847062754676,31.197659253750228,"2022-03-29"
"浦东新区","上海市浦东新区上南路4185弄",121.51939174128022,31.151945982231677,"2022-03-29"
"浦东新区","上海市浦东新区上浦路510弄",121.50622294182614,31.152101739360106,"2022-03-29"
"浦东新区","上海市浦东新区苗桥路928弄",121.60251662130713,31.104273708865044,"2022-03-29"
"浦东新区","上海市浦东新区严杨路165弄",121.53577251722662,31.201033280595517,"2022-03-29"
"浦东新区","上海市浦东新区川环南路1049弄",121.70053001685642,31.19008909703861,"2022-03-29"
"浦东新区","上海市浦东新区进贤路250弄",121.69838809719843,31.200355992660487,"2022-03-29"
"浦东新区","上海市浦东新区张东路2281弄",121.64333032367801,31.207984388824055,"2022-03-29"
"浦东新区","上海市浦东新区沪南路4851弄",121.53688426481492,31.18970225553777,"2022-03-29"
"浦东新区","上海市浦东新区张家浜路37弄",121.52354361951679,31.220886331114706,"2022-03-29"
"浦东新区","上海市浦东新区杨高中路10弄",121.60637358584478,31.263420011224802,"2022-03-29"
"浦东新区","上海市浦东新区南桥路1060弄",121.69740876453146,31.193551137667953,"2022-03-29"
"浦东新区","上海市浦东新区永利村顾孙家宅",121.70779802707655,31.265033130410448,"2022-03-29"
"浦东新区","上海市浦东新区五四村",121.65806307302498,31.259351437976353,"2022-03-29"
"浦东新区","上海市浦东新区民区路265弄",121.66102813218295,31.281407571513213,"2022-03-29"
"浦东新区","上海市浦东新区金桥路277号",121.57826273185994,31.272412193672977,"2022-03-29"
"浦东新区","上海市浦东新区永业路225弄",121.62178320839348,31.273076472136875,"2022-03-29"
"浦东新区","上海市浦东新区北市街308弄",121.70894318694067,31.205572643922817,"2022-03-29"
"浦东新区","上海市浦东新区北蔡大街",121.55976940615656,31.193659563295135,"2022-03-29"
"浦东新区","上海市浦东新区御水路150弄",121.57886495587383,31.167441854466574,"2022-03-29"
"浦东新区","上海市浦东新区博兴路1768弄",121.58962611690005,31.28158489894264,"2022-03-29"
"浦东新区","上海市浦东新区浦电路53弄",121.52290115141605,31.22214582440724,"2022-03-29"
"浦东新区","上海市浦东新区浦电路56号",121.52421097068016,31.223451621735556,"2022-03-29"
"浦东新区","上海市浦东新区潍坊路333弄",121.52609220207916,31.229300465379932,"2022-03-29"
"浦东新区","上海市浦东新区新川路709弄",121.69890983303863,31.19714456178221,"2022-03-29"
"浦东新区","上海市浦东新区七灶村刘家宅",121.72086397054973,31.14402497426147,"2022-03-29"
"浦东新区","上海市浦东新区鹿溪村",121.70279338741936,31.124679790400943,"2022-03-29"
"浦东新区","上海市浦东新区灵山路600弄",121.55040475087615,31.234124986355546,"2022-03-29"
"浦东新区","上海市浦东新区灵山路1000弄",121.5642199709752,31.2410768673801,"2022-03-29"
"浦东新区","上海市浦东新区下南路161弄",121.54990421504598,31.172731479156155,"2022-03-29"
"浦东新区","上海市浦东新区芳华路580弄",121.5690579749603,31.202517837477373,"2022-03-29"
"浦东新区","上海市浦东新区樱花路801弄",121.56703597908788,31.214397826976995,"2022-03-29"
"浦东新区","上海市浦东新区罗山路1502弄",121.575171482939,31.234888265801676,"2022-03-29"
"浦东新区","上海市浦东新区花木路830弄",121.5586974581915,31.21682563528285,"2022-03-29"
"浦东新区","上海市浦东新区卫行村沈家队唐家宅",121.58020253277817,31.177860611524373,"2022-03-29"
"浦东新区","上海市浦东新区卫行村张家队张家宅",121.58495924011461,31.172225069869427,"2022-03-29"
"浦东新区","上海市浦东新区牡丹路258弄",121.5556305533499,31.213972712771053,"2022-03-29"
"浦东新区","上海市浦东新区下南路225弄",121.55278588929146,31.17539958371751,"2022-03-29"
"浦东新区","上海市浦东新区下南路309弄",121.52969618510942,31.207201251711854,"2022-03-29"
"浦东新区","上海市浦东新区成山路1728弄",121.53553420146397,31.181824984316307,"2022-03-29"
"浦东新区","上海市浦东新区金桥路715号",121.58433922965163,31.266823780473572,"2022-03-29"
"浦东新区","上海市浦东新区莲中路337弄",121.56475176783711,31.187770109319516,"2022-03-29"
"浦东新区","上海市浦东新区北艾路155弄",121.5498820268999,31.192539931368604,"2022-03-29"
"浦东新区","上海市浦东新区三林村金家队金家宅",121.50671332680406,31.140756597820538,"2022-03-29"
"浦东新区","上海市浦东新区板泉路1201弄",121.51162382404378,31.169377277763573,"2022-03-29"
"浦东新区","上海市浦东新区益江路396弄",121.63319438328674,31.20480233029449,"2022-03-29"
"浦东新区","上海市浦东新区孙桥路465号",121.63768429388671,31.182278203702925,"2022-03-29"
"浦东新区","上海市浦东新区同治村",121.80354122494103,31.0056043806681,"2022-03-29"
"浦东新区","上海市浦东新区林艺村",121.76983293949294,30.98851754961349,"2022-03-29"
"浦东新区","上海市浦东新区永春东路15号",121.75304810103901,30.976497919938904,"2022-03-29"
"浦东新区","上海市浦东新区瑞安路80弄",121.59296026763089,31.09521536386751,"2022-03-29"
"浦东新区","上海市浦东新区窑港路188号",121.67226797805424,31.111944856137065,"2022-03-29"
"浦东新区","上海市浦东新区康沈路1527弄",121.58264879834296,31.124953139907806,"2022-03-29"
"浦东新区","上海市浦东新区沈梅东路239号",121.59509580931976,31.099250868122866,"2022-03-29"
"浦东新区","上海市浦东新区崂山三村",121.52639681747759,31.238932508563483,"2022-03-29"
"浦东新区","上海市浦东新区青三村",121.72896578794422,31.232326067687385,"2022-03-29"
"浦东新区","上海市浦东新区庆利路425弄",121.73224478271673,31.237548888222076,"2022-03-29"
"浦东新区","上海市浦东新区南新村东钟家宅",121.54865494157326,31.173251634963325,"2022-03-29"
"浦东新区","上海市浦东新区惠东村",121.7830716271157,31.046320700815905,"2022-03-29"
"浦东新区","上海市浦东新区通济路365弄",121.75222103115598,31.0577992012623,"2022-03-29"
"浦东新区","上海市浦东新区惠北新村",121.76658098371628,31.056104170346735,"2022-03-29"
"浦东新区","上海市浦东新区拱极路4100弄",121.77485958763513,31.060910455271795,"2022-03-29"
"浦东新区","上海市浦东新区拱乐路699号",121.77724000740602,31.068898784642407,"2022-03-29"
"浦东新区","上海市浦东新区听潮路589号",121.74842515139302,31.060402824422276,"2022-03-29"
"浦东新区","上海市浦东新区陆楼村",121.77125998762611,31.080426105869773,"2022-03-29"
"浦东新区","上海市浦东新区西门路588弄",121.74391529841071,31.0522661277626,"2022-03-29"
"浦东新区","上海市浦东新区杨新路93弄",121.500194952532,31.169327994680454,"2022-03-29"
"浦东新区","上海市浦东新区新环西路58弄",121.65000958446691,31.021482350787366,"2022-03-29"
"浦东新区","上海市浦东新区王桥村",121.70182842764055,31.21255135341995,"2022-03-29"
"浦东新区","上海市浦东新区民区路260弄",121.66203439185404,31.279504351019632,"2022-03-29"
"浦东新区","上海市浦东新区民同路131号",121.65277879086253,31.290487771739045,"2022-03-29"
"浦东新区","上海市浦东新区金钻路398弄",121.67726893465885,31.293179906356418,"2022-03-29"
"浦东新区","上海市浦东新区陆万村",121.70305389601725,31.26979731811335,"2022-03-29"
"浦东新区","上海市浦东新区永利村龚家宅",121.70205902266495,31.270195403071813,"2022-03-29"
"浦东新区","上海市浦东新区海松路52弄",121.68181436053933,31.28191619603565,"2022-03-29"
"浦东新区","上海市浦东新区顾三村东蔡家宅",121.75183443079128,31.230186868212748,"2022-03-29"
"浦东新区","上海市浦东新区北蔡镇杨莲路李家宅",121.5830320154735,31.181499357037588,"2022-03-29"
"浦东新区","上海市浦东新区崂山路502号",121.52356526867958,31.242727884421647,"2022-03-29"
"浦东新区","上海市浦东新区杨思北街",121.49914393508531,31.1698540400458,"2022-03-29"
"浦东新区","上海市浦东新区耀华路414弄",121.4922269826585,31.1790527910542,"2022-03-29"
"浦东新区","上海市浦东新区跃进村",121.7168046177807,31.21527252465362,"2022-03-29"
"浦东新区","上海市浦东新区潍坊路355弄",121.53821797900558,31.23514539261892,"2022-03-29"
"浦东新区","上海市浦东新区张杨路1318号",121.53816515864159,31.237703345264983,"2022-03-29"
"浦东新区","上海市浦东新区金工路172弄",121.59656480832024,31.262466587897183,"2022-03-29"
"浦东新区","上海市浦东新区浦东大道604弄",121.5286538100714,31.24519470737441,"2022-03-29"
"浦东新区","上海市浦东新区南码头路1521弄",121.52539646446166,31.18286750920583,"2022-03-29"
"浦东新区","上海市浦东新区高宝路528弄",121.58962611690005,31.28158489894264,"2022-03-29"
"浦东新区","上海市浦东新区浦东大道2641弄",121.57542031356526,31.2714724426133,"2022-03-29"
"浦东新区","上海市浦东新区浦东大道2639弄",121.57382941450709,31.27009640284229,"2022-03-29"
"浦东新区","上海市浦东新区航梅路525弄",121.5806510567193,31.03066676980315,"2022-03-29"
"浦东新区","上海市浦东新区灵山路1415弄",121.57078020628401,31.244998737805226,"2022-03-29"
"浦东新区","上海市浦东新区德平路1125弄",121.57509494730955,31.249053580204333,"2022-03-29"
"浦东新区","上海市浦东新区莲振路298号",121.57499496590628,31.17339584753415,"2022-03-29"
"浦东新区","上海市浦东新区东波路325弄",121.58954131685991,31.290262195768317,"2022-03-29"
"浦东新区","上海市浦东新区浦东大道2567弄",121.56941370394225,31.267025105886827,"2022-03-29"
"浦东新区","上海市浦东新区莲园路560弄",121.53688426481492,31.18970225553777,"2022-03-29"
"浦东新区","上海市浦东新区懿德村吴家队",121.5221809798887,31.125604863131734,"2022-03-29"
"浦东新区","上海市浦东新区妙境北路323号",121.69346223893447,31.210985663557818,"2022-03-29"
"浦东新区","上海市浦东新区浦东南路2179弄",121.5226926547072,31.212014583713007,"2022-03-29"
"浦东新区","上海市浦东新区华夏二路1255弄",121.69800191565969,31.18281197716778,"2022-03-29"
"浦东新区","上海市浦东新区杨新路197弄",121.4985201517392,31.168845590720398,"2022-03-29"
"浦东新区","上海市浦东新区沈梅东路300弄",121.59944531476852,31.097618118483165,"2022-03-29"
"浦东新区","上海市浦东新区陈行公路158号",121.53193954213525,31.128535900177152,"2022-03-29"
"浦东新区","上海市浦东新区上南路5589号",121.58485970786411,31.120077939878794,"2022-03-29"
"浦东新区","上海市浦东新区顺凌路49弄",121.54356918492851,31.370893204906164,"2022-03-29"
"浦东新区","上海市浦东新区和龙路295弄",121.57754094338267,31.349205602767256,"2022-03-29"
"浦东新区","上海市浦东新区川银路81弄",121.69262097582437,31.19864607984954,"2022-03-29"
"浦东新区","上海市浦东新区康梧路189号工地生活区",121.55714895915341,31.14227717699841,"2022-03-29"
"浦东新区","上海市浦东新区龙东大道2895弄",121.64040094940998,31.230898116632318,"2022-03-29"
"浦东新区","上海市浦东新区莲溪路1298号",121.57341403803929,31.17284888909449,"2022-03-29"
"浦东新区","上海市浦东新区民耀路227号",121.65998320105255,31.278347553730324,"2022-03-29"
"浦东新区","上海市浦东新区华绣路255弄",121.53584932703689,31.19083713538742,"2022-03-29"
"浦东新区","上海市浦东新区御水路199弄",121.58063821095053,31.166554813951443,"2022-03-29"
"浦东新区","上海市浦东新区张杨路1515弄",121.54214959273111,31.240309161544037,"2022-03-29"
"浦东新区","上海市浦东新区高桥镇北街",121.55045460683195,31.227348292436346,"2022-03-29"
"浦东新区","上海市浦东新区华夏东路2110弄",121.69923501963324,31.205382845904523,"2022-03-29"
"浦东新区","上海市浦东新区浦东南路2129号",121.5229139073543,31.214629917209106,"2022-03-29"
"浦东新区","上海市浦东新区团林路38号",121.57635500044839,31.269923325805507,"2022-03-29"
"浦东新区","上海市浦东新区航头镇海桥村",121.61706297226075,31.016067923499705,"2022-03-29"
"浦东新区","上海市浦东新区永乐村",121.76223767657554,31.081001669420488,"2022-03-29"
"浦东新区","上海市浦东新区和佳路105弄",121.52030208408404,31.133297374938646,"2022-03-29"
"浦东新区","上海市浦东新区张杨北路512弄",121.59555906547125,31.27139929302512,"2022-03-29"
"浦东新区","上海市浦东新区东高路30弄",121.58962611690005,31.28158489894264,"2022-03-29"
"浦东新区","上海市浦东新区上南路3140弄",121.50427299005565,31.16527989577906,"2022-03-29"
"浦东新区","上海市浦东新区沪南公路2502号",121.57039797728953,31.157433870028,"2022-03-29"
"浦东新区","上海市浦东新区黄楼村姚家宅",121.67026745168353,31.168147433085426,"2022-03-29"
"浦东新区","上海市浦东新区南塘村顾家宅",121.5746809183,31.34539427690696,"2022-03-29"
"浦东新区","上海市浦东新区沈家弄路1081号",121.55516226668755,31.246480655826872,"2022-03-29"
"浦东新区","上海市浦东新区金穗路2089号工地生活区",121.64177176361821,31.25959314034575,"2022-03-29"
"浦东新区","上海市浦东新区韵浦路167弄",121.58300075444176,31.117705592645105,"2022-03-29"
"浦东新区","上海市浦东新区新卫村",121.64761515113007,31.044082628274037,"2022-03-29"
"浦东新区","上海市浦东新区三灶浜路138弄",121.7074514608108,31.202959142358594,"2022-03-29"
"浦东新区","上海市浦东新区长丰村南张家宅",121.68373170381983,31.189947613169206,"2022-03-29"
"浦东新区","上海市浦东新区光明村计家宅",121.66179670021609,31.29717464817324,"2022-03-29"
"浦东新区","上海市浦东新区华夏二路350弄",121.69105999033968,31.198575884956675,"2022-03-29"
"浦东新区","上海市浦东新区红旗村东桥队毛家塘",121.50789055617487,31.133660107274697,"2022-03-29"
"浦东新区","上海市浦东新区五星路239弄",121.56995448385925,31.181781423237346,"2022-03-29"
"浦东新区","上海市浦东新区清溪路260弄",121.58022328363546,31.348955343285247,"2022-03-29"
"浦东新区","上海市浦东新区陆凌村西凌家宅",121.58173863520024,31.35356684063773,"2022-03-29"
"浦东新区","上海市浦东新区五莲路719弄",121.59594282158513,31.27584279507177,"2022-03-29"
"浦东新区","上海市浦东新区博兴路1185弄",121.6008308611871,31.274160727405675,"2022-03-29"
"浦东新区","上海市浦东新区周东路418弄",121.59321448809021,31.122845151798387,"2022-03-29"
"浦东新区","上海市浦东新区凌空路55弄",121.72371240749132,31.208434161489265,"2022-03-29"
"浦东新区","上海市浦东新区周康路118弄",121.57859968625672,31.115966734997325,"2022-03-29"
"浦东新区","上海市浦东新区耀华路200弄",121.50079502061267,31.177528559599587,"2022-03-29"
"浦东新区","上海市浦东新区雪野二路977号工地生活区",121.48887389506795,31.18518646375986,"2022-03-29"
"浦东新区","上海市浦东新区博兴路986弄",121.59726297136258,31.27067103482398,"2022-03-29"
"浦东新区","上海市浦东新区千汇路581弄",121.77147603010125,31.117495908121153,"2022-03-29"
"浦东新区","上海市浦东新区秀沿路2弄",121.55045460683195,31.227348292436346,"2022-03-29"
"浦东新区","上海市浦东新区莲安西路123弄",121.55996820116593,31.184721596168878,"2022-03-29"
"浦东新区","上海市浦东新区银峰路676号",121.65277879086253,31.290487771739045,"2022-03-29"
"浦东新区","上海市浦东新区曹黄村",121.69701827112627,31.275532772216625,"2022-03-29"
"浦东新区","上海市浦东新区浦建路1569号",121.5532451928987,31.20717633688392,"2022-03-29"
"浦东新区","上海市浦东新区东绣路999弄",121.54362263410637,31.20800477341733,"2022-03-29"
"浦东新区","上海市浦东新区居家桥路979弄",121.57935516119062,31.25042198036463,"2022-03-29"
"浦东新区","上海市浦东新区浦东南路1533号",121.5276446536615,31.227372301137734,"2022-03-29"
"浦东新区","上海市浦东新区陈行村",121.71962493775982,31.172006469530608,"2022-03-29"
"浦东新区","上海市浦东新区上南路3349弄",121.50672985562544,31.163308388889607,"2022-03-29"
"浦东新区","上海市浦东新区城丰路599弄",121.68633607115436,31.19324732901012,"2022-03-29"
"浦东新区","上海市浦东新区三彩路52弄",121.52553031198265,31.139159418419815,"2022-03-29"
"浦东新区","上海市浦东新区海阳路1125弄",121.51526025457873,31.165597159209877,"2022-03-29"
"浦东新区","上海市浦东新区耀华路331弄",121.49318888819857,31.18096820214458,"2022-03-29"
"浦东新区","上海市浦东新区跃丰村费家宅",121.71504133389516,31.230562701679265,"2022-03-29"
"浦东新区","上海市浦东新区康新公路4499号",121.62536807619215,31.12310034483866,"2022-03-29"
"浦东新区","上海市浦东新区东陆路1182弄",121.60235600428196,31.275368269875603,"2022-03-29"
"浦东新区","上海市浦东新区东方路1365号",121.53593053385497,31.21775134366962,"2022-03-29"
"浦东新区","上海市浦东新区松林路357号",121.54178541967737,31.232408511163275,"2022-03-29"
"浦东新区","上海市浦东新区潍坊路606号",121.52801879790638,31.229204895697556,"2022-03-29"
"浦东新区","上海市浦东新区庆星村顾家宅",121.72570709487623,31.240436443995055,"2022-03-29"
"浦东新区","上海市浦东新区永红村胡家宅",121.71609181235851,31.24084075180815,"2022-03-29"
"浦东新区","上海市浦东新区北新村",121.54227912838564,31.35893158691889,"2022-03-29"
"浦东新区","上海市浦东新区康桥路1633弄",121.58485970786411,31.120077939878794,"2022-03-29"
"浦东新区","上海市浦东新区高科西路3060弄",121.57070196387411,31.195867897271857,"2022-03-29"
"浦东新区","上海市浦东新区康花路399号",121.55629502993563,31.153862255953015,"2022-03-29"
"浦东新区","上海市浦东新区杨莲路310弄",121.53688426481492,31.18970225553777,"2022-03-29"
"浦东新区","上海市浦东新区御桥村姚家宅",121.56411783363872,31.162329302205315,"2022-03-29"
"浦东新区","上海市浦东新区新营村",121.74522161428332,31.20176958350493,"2022-03-29"
"浦东新区","上海市浦东新区永泰路595弄",121.52107274038106,31.1462686284638,"2022-03-29"
"浦东新区","上海市浦东新区博山东路556弄",121.5679143398516,31.25462969654255,"2022-03-29"
"浦东新区","上海市浦东新区云汉路977弄",121.81344315674696,30.91701025934903,"2022-03-29"
"浦东新区","上海市浦东新区西泰林路901弄",121.54507097208011,31.149459936767588,"2022-03-29"
"浦东新区","上海市浦东新区瓦南村",121.65954446864147,31.10478087123219,"2022-03-29"
"浦东新区","上海市浦东新区兰城路115弄",121.58550415223696,31.27245247181405,"2022-03-29"
"浦东新区","上海市浦东新区栖山路1558弄",121.57216036286955,31.26303980059529,"2022-03-29"
"浦东新区","上海市浦东新区银山路115弄",121.58494540620977,31.251339175442446,"2022-03-29"
"浦东新区","上海市浦东新区枣庄路658弄",121.58524858431939,31.25743400297086,"2022-03-29"
"浦东新区","上海市浦东新区新星村",121.70827942899935,31.261838735382085,"2022-03-29"
"浦东新区","上海市浦东新区鸿音路3127号",121.82200840995405,30.91126916983765,"2022-03-29"
"浦东新区","上海市浦东新区中界村周家宅",121.57417373500905,31.19544617406339,"2022-03-29"
"浦东新区","上海市浦东新区钱堂村立达宅",121.59951870632868,31.16388174546565,"2022-03-29"
"浦东新区","上海市浦东新区已对相关居住地落实终末消毒措施",121.55045460683195,31.227348292436346,"2022-03-29"
"黄浦区","上海市黄浦区永年路149弄",121.48509928775901,31.217075940321728,"2022-03-29"
"黄浦区","上海市黄浦区静修路79弄",121.4938548469884,31.225607490774465,"2022-03-29"
"黄浦区","上海市黄浦区西仓桥街161弄",121.49530475699677,31.22575390016163,"2022-03-29"
"黄浦区","上海市黄浦区打浦路316弄",121.4771429060266,31.205298679857936,"2022-03-29"
"黄浦区","上海市黄浦区县左街20弄",121.50137038529179,31.22977360334704,"2022-03-29"
"黄浦区","上海市黄浦区大兴街115弄",121.49755806653802,31.21960883215968,"2022-03-29"
"黄浦区","上海市黄浦区复兴东路886号",121.49491327545552,31.22658618666273,"2022-03-29"
"黄浦区","上海市黄浦区静修路114弄",121.49302979829275,31.2257417798045,"2022-03-29"
"黄浦区","上海市黄浦区瞿溪路1072弄",121.48143060805627,31.20475592286575,"2022-03-29"
"黄浦区","上海市黄浦区庄家街49号",121.49523055696164,31.226172398918468,"2022-03-29"
"黄浦区","上海市黄浦区打浦路339弄",121.4785522575412,31.20529674944314,"2022-03-29"
"黄浦区","上海市黄浦区静修路85号",121.49363875959797,31.2255219919096,"2022-03-29"
"黄浦区","上海市黄浦区打浦路399号",121.47889208651563,31.20453585404698,"2022-03-29"
"黄浦区","上海市黄浦区瞿溪路937弄",121.48468409095231,31.206350981651095,"2022-03-29"
"黄浦区","上海市黄浦区中山南一路1065号",121.47900410521271,31.201882323907988,"2022-03-29"
"黄浦区","上海市黄浦区半淞园路585弄",121.50075091381213,31.20549511865994,"2022-03-29"
"黄浦区","上海市黄浦区普育东路101弄",121.50287621481819,31.21521747507171,"2022-03-29"
"黄浦区","上海市黄浦区静修路126弄",121.48653334267514,31.22551241911987,"2022-03-29"
"黄浦区","上海市黄浦区四牌楼路147号",121.5022120077241,31.228601831767058,"2022-03-29"
"黄浦区","上海市黄浦区西仓桥街129号",121.49610667432553,31.226085626778833,"2022-03-29"
"黄浦区","上海市黄浦区顺昌路550弄",121.48557997103741,31.21774184729144,"2022-03-29"
"黄浦区","上海市黄浦区大林路43弄",121.49331950181971,31.219241105018995,"2022-03-29"
"黄浦区","上海市黄浦区肇周路356号",121.48783768227564,31.218852453768715,"2022-03-29"
"黄浦区","上海市黄浦区瑞金二路410弄",121.47339849916935,31.213301683132133,"2022-03-29"
"黄浦区","上海市黄浦区制造局路455弄",121.49101040750632,31.210925129406952,"2022-03-29"
"黄浦区","上海市黄浦区国货路236号",121.50191969911116,31.214328570399072,"2022-03-29"
"黄浦区","上海市黄浦区中山南路1667号",121.50157097691218,31.210511890127517,"2022-03-29"
"黄浦区","上海市黄浦区梦花街13弄",121.49248865905355,31.22366492957156,"2022-03-29"
"黄浦区","上海市黄浦区蒙自西路10号",121.48320044957202,31.21345590996484,"2022-03-29"
"黄浦区","上海市黄浦区保屯路211弄",121.4983058160445,31.209535149529046,"2022-03-29"
"黄浦区","上海市黄浦区蒙自西路78号",121.48105116380886,31.213147185809976,"2022-03-29"
"黄浦区","上海市黄浦区中山南路1729弄",121.49996284009963,31.209336160729304,"2022-03-29"
"黄浦区","上海市黄浦区丽园路871号",121.48247138482013,31.21267844199958,"2022-03-29"
"黄浦区","上海市黄浦区中山南路1726弄",121.49944953861981,31.209989701935054,"2022-03-29"
"黄浦区","上海市黄浦区蒙自西路28弄3号",121.48257010859568,31.212915864005417,"2022-03-29"
"黄浦区","上海市黄浦区静修路37弄",121.49472499062064,31.22592482018991,"2022-03-29"
"黄浦区","上海市黄浦区巨鹿路4号",121.47611605299814,31.22986415468718,"2022-03-29"
"黄浦区","上海市黄浦区丽园路710弄",121.48600639666299,31.212344042699645,"2022-03-29"
"黄浦区","上海市黄浦区学前街58号",121.49550418081999,31.22243494806544,"2022-03-29"
"黄浦区","上海市黄浦区五里桥路256号",121.48653927149151,31.20926374509549,"2022-03-29"
"黄浦区","上海市黄浦区蓬莱路257号",121.49647596772068,31.22332184572052,"2022-03-29"
"黄浦区","上海市黄浦区龙华东路927号",121.47727531625877,31.199376134506007,"2022-03-29"
"黄浦区","上海市黄浦区斜土路251弄",121.48710259887683,31.211316361550864,"2022-03-29"
"黄浦区","上海市黄浦区瞿溪路1200弄",121.47791751486785,31.202302396543868,"2022-03-29"
"黄浦区","上海市黄浦区延安中路545弄",121.46534267501698,31.229671935625426,"2022-03-29"
"黄浦区","上海市黄浦区白渡路188弄",121.50860309210539,31.226094504714958,"2022-03-29"
"黄浦区","上海市黄浦区局门路434弄",121.48772763985068,31.208410534000432,"2022-03-29"
"黄浦区","上海市黄浦区新闸路200号",121.47636703955763,31.244675877237288,"2022-03-29"
"黄浦区","上海市黄浦区高家弄37弄",121.49158559252436,31.23724715206362,"2022-03-29"
"黄浦区","上海市黄浦区庄家街34号",121.49478544658146,31.226400291200992,"2022-03-29"
"黄浦区","上海市黄浦区梦花街64号",121.49512761115021,31.224836299768185,"2022-03-29"
"黄浦区","上海市黄浦区方浜中路523号",121.49424817005594,31.230240022868117,"2022-03-29"
"黄浦区","上海市黄浦区陆家浜路468弄",121.50449810541643,31.21610714338139,"2022-03-29"
"黄浦区","上海市黄浦区人民路777弄",121.49221755045063,31.232886728207117,"2022-03-29"
"黄浦区","上海市黄浦区大夫坊74弄",121.49158559252436,31.23724715206362,"2022-03-29"
"黄浦区","上海市黄浦区尚文路133弄",121.49799257691318,31.221508436760633,"2022-03-29"
"黄浦区","上海市黄浦区西仓桥街112弄",121.49629127610783,31.225973533112793,"2022-03-29"
"黄浦区","上海市黄浦区建国西路192号",121.4687176986485,31.21282135853765,"2022-03-29"
"黄浦区","上海市黄浦区文庙路60弄",121.49707226291821,31.224346924653062,"2022-03-29"
"黄浦区","上海市黄浦区庄家街18弄",121.49476460589362,31.22682851412093,"2022-03-29"
"黄浦区","上海市黄浦区静修路64弄",121.49421972371479,31.22560194525226,"2022-03-29"
"黄浦区","上海市黄浦区半淞园路178号",121.50494285647443,31.21057589909641,"2022-03-29"
"黄浦区","上海市黄浦区鲁班路738弄",121.4849409164976,31.19988803425617,"2022-03-29"
"黄浦区","上海市黄浦区海潮路256弄",121.50354920089032,31.212886788443296,"2022-03-29"
"黄浦区","上海市黄浦区复兴中路485号",121.47850671345185,31.221400660997958,"2022-03-29"
"黄浦区","上海市黄浦区傅家街92弄",121.49978802013597,31.22907605402455,"2022-03-29"
"黄浦区","上海市黄浦区泰康路316弄",121.47709924837882,31.20540045126984,"2022-03-29"
"黄浦区","上海市黄浦区中山南路1669弄",121.50198383812457,31.210730555085526,"2022-03-29"
"黄浦区","上海市黄浦区复兴中路565弄",121.47267913611697,31.22108273721575,"2022-03-29"
"黄浦区","上海市黄浦区高家横弄18弄",121.47198797985759,31.216227432867615,"2022-03-29"
"黄浦区","上海市黄浦区凤阳路358弄",121.47565019176066,31.240041088234957,"2022-03-29"
"黄浦区","上海市黄浦区黄家路88弄",121.50359063719026,31.22123451932127,"2022-03-29"
"黄浦区","上海市黄浦区抚安街27号",121.5034919134147,31.22649401096913,"2022-03-29"
"黄浦区","上海市黄浦区打浦路210弄",121.47737098579559,31.206885004073083,"2022-03-29"
"黄浦区","上海市黄浦区县左街24号",121.50137757173589,31.229682743133356,"2022-03-29"
"黄浦区","上海市黄浦区面筋弄60弄",121.5352036250363,31.216555718920326,"2022-03-29"
"黄浦区","上海市黄浦区河南南路612弄",121.49686358654824,31.22596704835115,"2022-03-29"
"黄浦区","上海市黄浦区大林路10弄",121.4943483311203,31.219386404893243,"2022-03-29"
"黄浦区","上海市黄浦区瑞金南路1号",121.4741731080106,31.210761362713356,"2022-03-29"
"黄浦区","上海市黄浦区曹市弄62号",121.49565482665402,31.22491172460565,"2022-03-29"
"黄浦区","上海市黄浦区北京东路360弄",121.48931153212585,31.246565093573604,"2022-03-29"
"黄浦区","上海市黄浦区方浜中路45弄",121.5026926910025,31.23117617433086,"2022-03-29"
"黄浦区","上海市黄浦区汉口路457号",121.48824659094377,31.24049155593043,"2022-03-29"
"黄浦区","上海市黄浦区曹市弄33弄",121.49158559252436,31.23724715206362,"2022-03-29"
"黄浦区","上海市黄浦区已对相关居住地落实终末消毒措施",121.49158559252436,31.23724715206362,"2022-03-29"
"静安区","上海市静安区洛川中路1100弄",121.4560534773994,31.27070760991036,"2022-03-29"
"静安区","上海市静安区原平路918弄",121.43797903155533,31.301289861880115,"2022-03-29"
"静安区","上海市静安区汾西路400弄",121.464971944333,31.32330303323762,"2022-03-29"
"静安区","上海市静安区临汾路380弄",121.46855995620095,31.31818688632554,"2022-03-29"
"静安区","上海市静安区武定西路1398弄",121.43633989349127,31.231854254937183,"2022-03-29"
"静安区","上海市静安区永兴路37弄",121.48307801053102,31.261397630969352,"2022-03-29"
"静安区","上海市静安区新闸路1910弄",121.44770660226179,31.232840257505554,"2022-03-29"
"静安区","上海市静安区华山路251弄",121.45272193175454,31.225976852692988,"2022-03-29"
"静安区","上海市静安区镇宁路404弄",121.44247621842995,31.2288010007761,"2022-03-29"
"静安区","上海市静安区南京西路1856号",121.44980845749402,31.228169062296146,"2022-03-29"
"静安区","上海市静安区华山路421弄",121.45150598541623,31.2235924373865,"2022-03-29"
"静安区","上海市静安区柳营路319弄",121.46987678224804,31.273721070046967,"2022-03-29"
"静安区","上海市静安区普善路661号",121.45955920448263,31.269057935811805,"2022-03-29"
"静安区","上海市静安区共和新路2399弄",121.45965442486668,31.28765862079562,"2022-03-29"
"静安区","上海市静安区交城路229弄",121.43672239197741,31.300196587915686,"2022-03-29"
"静安区","上海市静安区襄阳北路44弄",121.4611722916869,31.225732438636477,"2022-03-29"
"静安区","上海市静安区平顺路721弄",121.4578538613025,31.3236286296725,"2022-03-29"
"静安区","上海市静安区灵石路737弄",121.44532977571292,31.29044580415785,"2022-03-29"
"静安区","上海市静安区岭南路338弄",121.46218701759096,31.3178559493552,"2022-03-29"
"静安区","上海市静安区西藏北路225弄",121.47757561979076,31.250123604462367,"2022-03-29"
"静安区","上海市静安区场中路2600弄",121.44826202455859,31.310232736781717,"2022-03-29"
"静安区","上海市静安区海宁路1399号",121.4750864152226,31.250056689715176,"2022-03-29"
"静安区","上海市静安区新马路258弄",121.47445571492403,31.25425169638529,"2022-03-29"
"静安区","上海市静安区中华新路455弄",121.47442741830048,31.26149640890541,"2022-03-29"
"静安区","上海市静安区南山路35弄",121.47299111762058,31.26281099438663,"2022-03-29"
"静安区","上海市静安区西藏北路1071弄",121.4725430428322,31.26684623572514,"2022-03-29"
"静安区","上海市静安区康定路307号",121.45686365913885,31.241187090463608,"2022-03-29"
"静安区","上海市静安区康定路501弄",121.45435496134112,31.23951898759513,"2022-03-29"
"静安区","上海市静安区康定路775号",121.44868027560403,31.238012644533715,"2022-03-29"
"静安区","上海市静安区芷江西路521弄",121.4627572619287,31.263079311087917,"2022-03-29"
"静安区","上海市静安区保德路213号",121.46941900576014,31.32417894829971,"2022-03-29"
"静安区","上海市静安区光复路921号",121.463040497656,31.24502999725596,"2022-03-29"
"静安区","上海市静安区延安中路877弄",121.45991367583686,31.22919393374067,"2022-03-29"
"静安区","上海市静安区中山北路198号",121.477000973756,31.27059688149309,"2022-03-29"
"静安区","上海市静安区康定路389号",121.45532414315583,31.240706291480855,"2022-03-29"
"静安区","上海市静安区康定路716弄",121.44969688794968,31.238675778101303,"2022-03-29"
"静安区","上海市静安区武定路540弄",121.45647002166437,31.23982488458316,"2022-03-29"
"静安区","上海市静安区武定路600弄",121.45524024142121,31.239251066398463,"2022-03-29"
"静安区","上海市静安区新闸路1550弄",121.45368967628043,31.236338309771988,"2022-03-29"
"静安区","上海市静安区武定路458号",121.4578010409385,31.240824851228435,"2022-03-29"
"静安区","上海市静安区武定路650弄",121.45228796036267,31.236492846004683,"2022-03-29"
"静安区","上海市静安区康定路367弄",121.45578111116878,31.240800305668024,"2022-03-29"
"静安区","上海市静安区西康路520号",121.45413882903543,31.24044478025628,"2022-03-29"
"静安区","上海市静安区柳营路205弄",121.45745097128128,31.268626819677742,"2022-03-29"
"静安区","上海市静安区万航渡路174号",121.44767938360482,31.23145523473829,"2022-03-29"
"静安区","上海市静安区大统路757号",121.46558791242119,31.257971824075906,"2022-03-29"
"静安区","上海市静安区芷江西路429号",121.46421988296005,31.26325170628413,"2022-03-29"
"静安区","上海市静安区永兴路595弄",121.47292419386008,31.25727170679925,"2022-03-29"
"静安区","上海市静安区永兴小马路70号",121.4708687810227,31.25751356889404,"2022-03-29"
"静安区","上海市静安区中兴路1395弄",121.46658916374263,31.25856389447016,"2022-03-29"
"静安区","上海市静安区芷江西路393弄",121.46441768983335,31.26439171360241,"2022-03-29"
"静安区","上海市静安区普善路239弄",121.46395694893728,31.26329530663027,"2022-03-29"
"静安区","上海市静安区康定东路13弄",121.46392784383876,31.243331860700195,"2022-03-29"
"静安区","上海市静安区洛川东路37号",121.47211410195118,31.278638201072205,"2022-03-29"
"静安区","上海市静安区普善路390弄",121.46037306927467,31.26632436193742,"2022-03-29"
"静安区","上海市静安区武定路530号",121.45664249632229,31.23995355707733,"2022-03-29"
"静安区","上海市静安区新闸路1309弄",121.46285787214582,31.23944287983684,"2022-03-29"
"静安区","上海市静安区康定东路23号",121.46375923189453,31.243329390773198,"2022-03-29"
"静安区","上海市静安区康定东路25号",121.46372312001303,31.243321903806585,"2022-03-29"
"静安区","上海市静安区康定东路3弄",121.45343177276851,31.233844930401652,"2022-03-29"
"静安区","上海市静安区康定东路9号",121.46403725744987,31.24344617193769,"2022-03-29"
"静安区","上海市静安区康定东路31号",121.46362367759308,31.2432753611038,"2022-03-29"
"静安区","上海市静安区新闸路1051号",121.46253322453452,31.23895828963531,"2022-03-29"
"静安区","上海市静安区大田路158号",121.47130499817834,31.23912455422121,"2022-03-29"
"静安区","上海市静安区灵石路697号",121.45443302408994,31.28996286703124,"2022-03-29"
"静安区","上海市静安区康定路400号",121.4550635447274,31.24092148966151,"2022-03-29"
"静安区","上海市静安区武定路1128弄",121.44641061690253,31.23602113145969,"2022-03-29"
"静安区","上海市静安区洛川东路161号",121.47104206415557,31.277951432429614,"2022-03-29"
"静安区","上海市静安区康定东路27号",121.4636677843936,31.24328423740877,"2022-03-29"
"静安区","上海市静安区武定路44弄",121.46535255637758,31.243054765358266,"2022-03-29"
"静安区","上海市静安区宝山路499弄",121.48471723842562,31.26366154873471,"2022-03-29"
"静安区","上海市静安区延长路152弄",121.46654622473923,31.27911402130103,"2022-03-29"
"静安区","上海市静安区延平路85号",121.44713240537979,31.234012670741546,"2022-03-29"
"静安区","上海市静安区延平路260号",121.44617085916192,31.237302960589933,"2022-03-29"
"静安区","上海市静安区彭江路399弄",121.46831804252712,31.274531402166907,"2022-03-29"
"静安区","上海市静安区芷江中路660弄",121.47506988640122,31.264123477837586,"2022-03-29"
"静安区","上海市静安区银都二村15号",121.44637908637912,31.324017616437853,"2022-03-29"
"静安区","上海市静安区阳曲路190弄",121.46662725189624,31.315196302553556,"2022-03-29"
"静安区","上海市静安区临汾路809弄",121.45764680188243,31.316982674241856,"2022-03-29"
"静安区","上海市静安区中华新路940号",121.46108219164424,31.26057175073395,"2022-03-29"
"静安区","上海市静安区中华新路793弄",121.4642960592673,31.260247786376155,"2022-03-29"
"静安区","上海市静安区场中路2251弄",121.45322426419571,31.312649958052166,"2022-03-29"
"静安区","上海市静安区铜仁路278号",121.45622352663243,31.23345332925663,"2022-03-29"
"静安区","上海市静安区普善路128弄",121.46297375355661,31.2617262215432,"2022-03-29"
"静安区","上海市静安区淮安路687弄",121.45821668689796,31.24550753230674,"2022-03-29"
"静安区","上海市静安区沪太路631弄",121.45662632682311,31.26730614278311,"2022-03-29"
"静安区","上海市静安区北京西路1818号",121.44866742983525,31.23047045270689,"2022-03-29"
"静安区","上海市静安区通阁路188号",121.47709736193724,31.2661583000528,"2022-03-29"
"静安区","上海市静安区通阁路181号",121.47706655005824,31.265926491984274,"2022-03-29"
"静安区","上海市静安区大宁路667弄",121.45403148152698,31.279198429565824,"2022-03-29"
"静安区","上海市静安区已对相关居住地落实终末消毒措施",121.45343177276851,31.233844930401652,"2022-03-29"
"徐汇区","上海市徐汇区长桥二村",121.44747052757376,31.143062762578975,"2022-03-29"
"徐汇区","上海市徐汇区汇成二村",121.44147784168615,31.15253648271551,"2022-03-29"
"徐汇区","上海市徐汇区园南一村",121.44600018111502,31.147062988805903,"2022-03-29"
"徐汇区","上海市徐汇区罗秀三村",121.45301783358953,31.140542096738187,"2022-03-29"
"徐汇区","上海市徐汇区汇成一村",121.43851585892808,31.153289378964452,"2022-03-29"
"徐汇区","上海市徐汇区长桥四村",121.44602802858583,31.1399378439366,"2022-03-29"
"徐汇区","上海市徐汇区汇成五村",121.44189205035678,31.148419512952135,"2022-03-29"
"徐汇区","上海市徐汇区长桥五村",121.44122119580194,31.14322958373231,"2022-03-29"
"徐汇区","上海市徐汇区老沪闵路790弄",121.43815797401291,31.14615883452526,"2022-03-29"
"徐汇区","上海市徐汇区老沪闵路666弄",121.43540116423334,31.151796637480366,"2022-03-29"
"徐汇区","上海市徐汇区长桥六村",121.44288907964231,31.139004721613393,"2022-03-29"
"徐汇区","上海市徐汇区汇成三村",121.44034319199649,31.150342889503623,"2022-03-29"
"徐汇区","上海市徐汇区长桥新村",121.4470018815892,31.14420601081858,"2022-03-29"
"徐汇区","上海市徐汇区汇成四村",121.44302391529936,31.14928771829443,"2022-03-29"
"徐汇区","上海市徐汇区罗香路1135号",121.44432703770373,31.141386459634695,"2022-03-29"
"徐汇区","上海市徐汇区长桥三村",121.44829795677899,31.141013828479526,"2022-03-29"
"徐汇区","上海市徐汇区老沪闵路728弄",121.43633171891112,31.14885883188553,"2022-03-29"
"徐汇区","上海市徐汇区老沪闵路710弄",121.43554839650643,31.15015869703885,"2022-03-29"
"徐汇区","上海市徐汇区长桥一村",121.44421255315017,31.143956901953143,"2022-03-29"
"徐汇区","上海市徐汇区喜泰路247弄",121.4576697985035,31.14875815803086,"2022-03-29"
"徐汇区","上海市徐汇区罗城路799弄",121.44009346306473,31.15460834283128,"2022-03-29"
"徐汇区","上海市徐汇区喜泰支路15弄",121.45802570714655,31.1526030036022,"2022-03-29"
"徐汇区","上海市徐汇区龙瑞路77弄",121.46085761526675,31.14465060359651,"2022-03-29"
"徐汇区","上海市徐汇区龙川北路436弄",121.44328631033883,31.153522315882693,"2022-03-29"
"徐汇区","上海市徐汇区老沪闵路1060号",121.44279772197196,31.136680066187406,"2022-03-29"
"徐汇区","上海市徐汇区龙吴路1343弄",121.45733616783708,31.142578291870645,"2022-03-29"
"徐汇区","上海市徐汇区漕溪北路750号",121.44265713715964,31.190806630120385,"2022-03-29"
"徐汇区","上海市徐汇区宜山路408弄",121.43475330629956,31.19347228960815,"2022-03-29"
"徐汇区","上海市徐汇区宜山路187号",121.4367660496252,31.195843108247285,"2022-03-29"
"徐汇区","上海市徐汇区零陵路789弄",121.44630731176888,31.19217480088936,"2022-03-29"
"徐汇区","上海市徐汇区日晖二村",121.47254331232386,31.200582635040785,"2022-03-29"
"徐汇区","上海市徐汇区日晖七村",121.46617612286913,31.20370398924066,"2022-03-29"
"徐汇区","上海市徐汇区小木桥路323弄",121.46549556661478,31.20253660166425,"2022-03-29"
"徐汇区","上海市徐汇区茶陵路78弄",121.47344341444484,31.203495500662644,"2022-03-29"
"徐汇区","上海市徐汇区清真路73号",121.46536998350447,31.205339836292,"2022-03-29"
"徐汇区","上海市徐汇区斜土路1212弄",121.47247881398823,31.205697734351105,"2022-03-29"
"徐汇区","上海市徐汇区田林十一村",121.43199613719779,31.178479218266236,"2022-03-29"
"徐汇区","上海市徐汇区桂林路567弄",121.42139855760492,31.184568519145717,"2022-03-29"
"徐汇区","上海市徐汇区柳州路374弄",121.42892168658987,31.176008628846493,"2022-03-29"
"徐汇区","上海市徐汇区田林八村",121.42840210668291,31.178006439027598,"2022-03-29"
"徐汇区","上海市徐汇区田林十三村",121.43187881849818,31.17996419763881,"2022-03-29"
"徐汇区","上海市徐汇区钦州路920号",121.43146559796358,31.185239368465012,"2022-03-29"
"徐汇区","上海市徐汇区柳州路356号",121.43112226559766,31.175096565878437,"2022-03-29"
"徐汇区","上海市徐汇区钦州路780号",121.4347354300199,31.182281293125435,"2022-03-29"
"徐汇区","上海市徐汇区田林东路360弄",121.46239973633573,31.20121344701052,"2022-03-29"
"徐汇区","上海市徐汇区钦州北路540号",121.41986738959592,31.18628503447646,"2022-03-29"
"徐汇区","上海市徐汇区古井路380弄",121.42400418256716,31.197022548868066,"2022-03-29"
"徐汇区","上海市徐汇区建国西路355弄",121.4625420279285,31.210520383479338,"2022-03-29"
"徐汇区","上海市徐汇区天平路212弄",121.4439129682626,31.206129989989382,"2022-03-29"
"徐汇区","上海市徐汇区天钥桥南路1199弄",121.46292344844805,31.15883551564822,"2022-03-29"
"徐汇区","上海市徐汇区天钥桥南路1111弄",121.46178269028093,31.16230883042422,"2022-03-29"
"徐汇区","上海市徐汇区云锦路50弄",121.46236667869296,31.179907968743272,"2022-03-29"
"徐汇区","上海市徐汇区龙华西路31弄",121.4573191000324,31.17462732270924,"2022-03-29"
"徐汇区","上海市徐汇区龙南三村",121.46267803138272,31.16240585890181,"2022-03-29"
"徐汇区","上海市徐汇区丰谷路205弄",121.46272716869413,31.176347328833007,"2022-03-29"
"徐汇区","上海市徐汇区机场新村",121.45808804954895,31.17374220397558,"2022-03-29"
"徐汇区","上海市徐汇区龙华路2518弄",121.45886616178169,31.184828873509893,"2022-03-29"
"徐汇区","上海市徐汇区龙华西路81弄",121.45709973382685,31.17618141619887,"2022-03-29"
"徐汇区","上海市徐汇区龙华西路21弄",121.45479072934401,31.17506088030758,"2022-03-29"
"徐汇区","上海市徐汇区龙吴路988弄",121.45732853224025,31.155344071240474,"2022-03-29"
"徐汇区","上海市徐汇区丰谷路185弄",121.46296000948232,31.17631596920492,"2022-03-29"
"徐汇区","上海市徐汇区龙南六村",121.45937388405592,31.16235850345514,"2022-03-29"
"徐汇区","上海市徐汇区龙恒路31弄",121.45719080777572,31.173970864646034,"2022-03-29"
"徐汇区","上海市徐汇区龙南七村",121.45962316383493,31.164571437334498,"2022-03-29"
"徐汇区","上海市徐汇区龙华西路398弄",121.45058737820173,31.18250890604946,"2022-03-29"
"徐汇区","上海市徐汇区龙水北路960弄",121.45279631145077,31.177757883327143,"2022-03-29"
"徐汇区","上海市徐汇区龙南五村",121.46045301846506,31.161427921589443,"2022-03-29"
"徐汇区","上海市徐汇区龙南佳苑",121.46029249127042,31.15863326217409,"2022-03-29"
"徐汇区","上海市徐汇区云锦路201弄",121.46471682556817,31.1771205025532,"2022-03-29"
"徐汇区","上海市徐汇区龙华西路334弄",121.45169427025111,31.181190411704737,"2022-03-29"
"徐汇区","上海市徐汇区龙恒路290号",121.4551260667909,31.17271796155514,"2022-03-29"
"徐汇区","上海市徐汇区天钥桥南路1118弄",121.46101733398643,31.16203620767583,"2022-03-29"
"徐汇区","上海市徐汇区宛平南路1188弄",121.46050781510117,31.186706786341972,"2022-03-29"
"徐汇区","上海市徐汇区罗秀路930弄",121.43281889521437,31.13750557117837,"2022-03-29"
"徐汇区","上海市徐汇区梅陇九村",121.42915847992231,31.136743043749814,"2022-03-29"
"徐汇区","上海市徐汇区老沪闵路875弄",121.44119155172011,31.139805247788775,"2022-03-29"
"徐汇区","上海市徐汇区化工一村",121.42872702378587,31.14603381917358,"2022-03-29"
"徐汇区","上海市徐汇区老沪闵路1039弄",121.43369303630612,31.153863183060615,"2022-03-29"
"徐汇区","上海市徐汇区罗秀路850号",121.4391367676966,31.13775214717668,"2022-03-29"
"徐汇区","上海市徐汇区上中西路280号",121.43208003893241,31.140991343040003,"2022-03-29"
"徐汇区","上海市徐汇区罗秀路1135号",121.43208767452924,31.13529918558446,"2022-03-29"
"徐汇区","上海市徐汇区梅陇十一村",121.43363204136199,31.13872183133972,"2022-03-29"
"徐汇区","上海市徐汇区梅陇五村",121.42916593585804,31.14007801238812,"2022-03-29"
"徐汇区","上海市徐汇区罗秀路887号",121.43949141871192,31.13758160721806,"2022-03-29"
"徐汇区","上海市徐汇区化工二村",121.42406167411978,31.144407290917165,"2022-03-29"
"徐汇区","上海市徐汇区梅陇三村",121.42363237391658,31.14370192010982,"2022-03-29"
"徐汇区","上海市徐汇区桂林东街101弄",121.4322804508917,31.162343053059534,"2022-03-29"
"徐汇区","上海市徐汇区桂平路258弄",121.41475774429185,31.164039723049537,"2022-03-29"
"徐汇区","上海市徐汇区桂林路81号",121.4271328009973,31.167788928124654,"2022-03-29"
"徐汇区","上海市徐汇区桂林西街151弄",121.42737749941823,31.158754243487174,"2022-03-29"
"徐汇区","上海市徐汇区浦北路959弄",121.42047824360995,31.157926839438225,"2022-03-29"
"徐汇区","上海市徐汇区桂林西街30弄",121.42368438580559,31.161511895277982,"2022-03-29"
"徐汇区","上海市徐汇区桂平支路35弄",121.41912288025648,31.153321287107154,"2022-03-29"
"徐汇区","上海市徐汇区桂林西街15弄",121.42242325470015,31.16171985923182,"2022-03-29"
"徐汇区","上海市徐汇区桂林西街11弄",121.42264351921119,31.163232914447146,"2022-03-29"
"徐汇区","上海市徐汇区桂林西街47弄",121.42304398380753,31.160423398860715,"2022-03-29"
"徐汇区","上海市徐汇区桂江路77弄",121.43505962847846,31.17217887803817,"2022-03-29"
"徐汇区","上海市徐汇区钦州南路300弄",121.43044386527653,31.16689972794132,"2022-03-29"
"徐汇区","上海市徐汇区江安路58弄",121.4224288241943,31.153696844358976,"2022-03-29"
"徐汇区","上海市徐汇区桂林路70弄",121.42236576314751,31.16405965369893,"2022-03-29"
"徐汇区","上海市徐汇区桂林东街218弄",121.42785953015488,31.16298316081824,"2022-03-29"
"徐汇区","上海市徐汇区桂林西街85弄",121.42306644144529,31.15857315773449,"2022-03-29"
"徐汇区","上海市徐汇区康健路363弄",121.42569075116214,31.171144731217343,"2022-03-29"
"徐汇区","上海市徐汇区柳州路208号",121.4316252268527,31.168687543983474,"2022-03-29"
"徐汇区","上海市徐汇区冠生园路411弄",121.42920195790899,31.169188178896135,"2022-03-29"
"徐汇区","上海市徐汇区浦北路948弄",121.42065053860675,31.159596550310614,"2022-03-29"
"徐汇区","上海市徐汇区浦北路21弄",121.43380748042809,31.164215622471733,"2022-03-29"
"徐汇区","上海市徐汇区桂平路350弄",121.41357925729332,31.166860408583002,"2022-03-29"
"徐汇区","上海市徐汇区虹漕公寓",121.41974217207506,31.166412753822918,"2022-03-29"
"徐汇区","上海市徐汇区钦州南路381弄",121.43156441156968,31.166060422146053,"2022-03-29"
"徐汇区","上海市徐汇区钦州南路917弄",121.41918513282832,31.162288667646774,"2022-03-29"
"徐汇区","上海市徐汇区虹漕南路173号",121.41979175853922,31.166273397185446,"2022-03-29"
"徐汇区","上海市徐汇区龙吴路2888弄",121.46157679865804,31.11546419311615,"2022-03-29"
"徐汇区","上海市徐汇区华济路1号",121.46666004004734,31.122169837495786,"2022-03-29"
"徐汇区","上海市徐汇区龙吴路2418弄",121.46907800898856,31.125376030198847,"2022-03-29"
"徐汇区","上海市徐汇区龙吴路2588弄",121.46294896032454,31.12014463833439,"2022-03-29"
"徐汇区","上海市徐汇区华泾路1000弄",121.45244812823509,31.126200552597066,"2022-03-29"
"徐汇区","上海市徐汇区龙吴路2388弄",121.46634913651035,31.128955219485796,"2022-03-29"
"徐汇区","上海市徐汇区龙吟路455弄",121.4593040857178,31.119952580660346,"2022-03-29"
"徐汇区","上海市徐汇区华展路55弄",121.45953297396174,31.11809690460611,"2022-03-29"
"徐汇区","上海市徐汇区华泾路880弄",121.45447120207412,31.125287309951997,"2022-03-29"
"徐汇区","上海市徐汇区华济路2弄",121.44339635276381,31.194556772822725,"2022-03-29"
"徐汇区","上海市徐汇区华发小区",121.45883508041103,31.134424282509368,"2022-03-29"
"徐汇区","上海市徐汇区老沪闵路1111弄",121.44071186834869,31.13276553889456,"2022-03-29"
"徐汇区","上海市徐汇区华发路100弄",121.45933516708845,31.134639956688194,"2022-03-29"
"徐汇区","上海市徐汇区华发路99弄",121.4599290368611,31.13210484580459,"2022-03-29"
"徐汇区","上海市徐汇区华发路58弄",121.46111740522024,31.135493916479533,"2022-03-29"
"徐汇区","上海市徐汇区龙吟路500弄",121.45856001926389,31.11903842712354,"2022-03-29"
"徐汇区","上海市徐汇区复兴中路1462弄",121.45577563150516,31.216996108373998,"2022-03-29"
"徐汇区","上海市徐汇区乌鲁木齐中路162弄",121.45177484825537,31.22019527791319,"2022-03-29"
"徐汇区","上海市徐汇区古美路1068弄",121.40754417138562,31.16158312221155,"2022-03-29"
"徐汇区","上海市徐汇区古美路1107弄",121.407081544048,31.161096120493383,"2022-03-29"
"徐汇区","上海市徐汇区东兰路121弄",121.40580990276806,31.162512080249066,"2022-03-29"
"徐汇区","上海市徐汇区田林路360弄",121.46239973633573,31.20121344701052,"2022-03-29"
"徐汇区","上海市徐汇区桂平路470号",121.41074860680081,31.173160719907795,"2022-03-29"
"徐汇区","上海市徐汇区东安路230弄",121.45903800762575,31.19928385479955,"2022-03-29"
"徐汇区","上海市徐汇区天钥新村",121.45293015897174,31.192061894349106,"2022-03-29"
"徐汇区","上海市徐汇区东安二村",121.45997781485028,31.19283107711445,"2022-03-29"
"徐汇区","上海市徐汇区龙华路2381弄",121.45735934411924,31.1876758101734,"2022-03-29"
"徐汇区","上海市徐汇区零陵路289弄",121.46509519184897,31.198713880807226,"2022-03-29"
"徐汇区","上海市徐汇区医学院路110弄",121.46159135120729,31.205284085921058,"2022-03-29"
"徐汇区","上海市徐汇区斜土路2171弄",121.47546091878971,31.205033286057976,"2022-03-29"
"徐汇区","上海市徐汇区东安一村",121.4637655200331,31.195351033168695,"2022-03-29"
"徐汇区","上海市徐汇区中山南二路999弄",121.45251900453982,31.186983430654166,"2022-03-29"
"徐汇区","上海市徐汇区枫林路135号",121.46135105448337,31.204781250051003,"2022-03-29"
"徐汇区","上海市徐汇区东安五村",121.45909351613304,31.19072466528382,"2022-03-29"
"徐汇区","上海市徐汇区三江小区",121.44639804062538,31.171070885220864,"2022-03-29"
"徐汇区","上海市徐汇区石龙路79弄",121.4531148505846,31.162351164517542,"2022-03-29"
"徐汇区","上海市徐汇区钦州路381弄",121.43737357364161,31.21538625250924,"2022-03-29"
"徐汇区","上海市徐汇区冠生园路237弄",121.43309081229224,31.16787459556266,"2022-03-29"
"徐汇区","上海市徐汇区东泉路104弄",121.45199592124136,31.161180171731836,"2022-03-29"
"徐汇区","上海市徐汇区康健路100弄",121.43416132296848,31.171079922861633,"2022-03-29"
"徐汇区","上海市徐汇区东泉路50弄",121.4494277556189,31.161693052611344,"2022-03-29"
"徐汇区","上海市徐汇区冠生园路235弄",121.43266034429185,31.169467037795165,"2022-03-29"
"徐汇区","上海市徐汇区漕溪一村",121.44351097654688,31.17942685501509,"2022-03-29"
"徐汇区","上海市徐汇区漕溪路199号",121.44245268282558,31.178966284206115,"2022-03-29"
"徐汇区","上海市徐汇区三江路88弄",121.44472072457717,31.172924819259226,"2022-03-29"
"徐汇区","上海市徐汇区罗城路570弄",121.44368255289928,31.156875075524407,"2022-03-29"
"徐汇区","上海市徐汇区石龙路33弄",121.45384687974469,31.16281351646469,"2022-03-29"
"徐汇区","上海市徐汇区钦州路111弄",121.43819714013314,31.168806503917775,"2022-03-29"
"徐汇区","上海市徐汇区龙吴路515号",121.45542124998147,31.16404157706361,"2022-03-29"
"徐汇区","上海市徐汇区龙川北路800弄",121.44238701669279,31.158327872507932,"2022-03-29"
"徐汇区","上海市徐汇区宾南路19弄",121.44221903356242,31.166293172862797,"2022-03-29"
"徐汇区","上海市徐汇区龙吴路9弄",121.44339635276381,31.194556772822725,"2022-03-29"
"徐汇区","上海市徐汇区石龙路759号",121.43911008802294,31.156898329723987,"2022-03-29"
"徐汇区","上海市徐汇区罗秀二村",121.45430178165493,31.138436081162304,"2022-03-29"
"徐汇区","上海市徐汇区老沪闵路706弄",121.43686324628138,31.152117036921272,"2022-03-29"
"徐汇区","上海市徐汇区龙川北路162号",121.44508173759175,31.14775010864254,"2022-03-29"
"徐汇区","上海市徐汇区龙川北路426号",121.44431163624792,31.152830070478156,"2022-03-29"
"徐汇区","上海市徐汇区罗香路286号",121.44102509570911,31.140646179277024,"2022-03-29"
"徐汇区","上海市徐汇区长桥七村",121.44386203434019,31.13744831229077,"2022-03-29"
"徐汇区","上海市徐汇区龙川北路418弄",121.44413422090969,31.151260292394635,"2022-03-29"
"徐汇区","上海市徐汇区老沪闵路680弄",121.43556375753066,31.151161011817145,"2022-03-29"
"徐汇区","上海市徐汇区百色路238弄",121.45193312968624,31.14966120560113,"2022-03-29"
"徐汇区","上海市徐汇区老沪闵路864号",121.43966101879221,31.14180421530201,"2022-03-29"
"徐汇区","上海市徐汇区龙瑞路128弄",121.4610318865357,31.14775411778549,"2022-03-29"
"徐汇区","上海市徐汇区园南二村",121.44934187761214,31.148531004040407,"2022-03-29"
"徐汇区","上海市徐汇区罗秀路105号",121.4554589788129,31.140611871459598,"2022-03-29"
"徐汇区","上海市徐汇区龙吴路1323弄",121.45619199610904,31.14733588684881,"2022-03-29"
"徐汇区","上海市徐汇区上中路289弄",121.44915520972718,31.145240763645816,"2022-03-29"
"徐汇区","上海市徐汇区宜山路299号",121.43631779517573,31.195099975035518,"2022-03-29"
"徐汇区","上海市徐汇区裕德路66弄",121.44177113843516,31.19084493546677,"2022-03-29"
"徐汇区","上海市徐汇区南丹路333弄",121.43667990212681,31.196590482872317,"2022-03-29"
"徐汇区","上海市徐汇区宛平南路590弄",121.45432307149552,31.195610662557637,"2022-03-29"
"徐汇区","上海市徐汇区零陵路675号",121.45061594431695,31.19262905140916,"2022-03-29"
"徐汇区","上海市徐汇区天钥桥路64号",121.44753682252039,31.199424191990786,"2022-03-29"
"徐汇区","上海市徐汇区虹桥路693弄",121.4318312981367,31.201861397446176,"2022-03-29"
"徐汇区","上海市徐汇区宛平南路170弄",121.45196879241497,31.200223945228696,"2022-03-29"
"徐汇区","上海市徐汇区中漕路38弄",121.44074805828984,31.190319625702305,"2022-03-29"
"徐汇区","上海市徐汇区江南二村",121.46864502573276,31.198353871060394,"2022-03-29"
"徐汇区","上海市徐汇区瑞金南路458弄",121.47338053305916,31.206715439157403,"2022-03-29"
"徐汇区","上海市徐汇区中山南二路262号",121.4705673995241,31.19781045604459,"2022-03-29"
"徐汇区","上海市徐汇区肇嘉浜路9弄",121.44339635276381,31.194556772822725,"2022-03-29"
"徐汇区","上海市徐汇区宜山路701弄",121.42413569449381,31.179814665776235,"2022-03-29"
"徐汇区","上海市徐汇区田林九村",121.42833841682226,31.17900969211665,"2022-03-29"
"徐汇区","上海市徐汇区柳州路460号",121.42982717854393,31.17844206644702,"2022-03-29"
"徐汇区","上海市徐汇区田林路89弄",121.42538496796654,31.17695783536503,"2022-03-29"
"徐汇区","上海市徐汇区桂林路303弄",121.42490751858799,31.175201150784943,"2022-03-29"
"徐汇区","上海市徐汇区田林路65弄",121.4261296632343,31.176720167745586,"2022-03-29"
"徐汇区","上海市徐汇区金祥苑",121.4257454579677,31.185779612613345,"2022-03-29"
"徐汇区","上海市徐汇区天平路222弄",121.44420824128372,31.205579593395434,"2022-03-29"
"徐汇区","上海市徐汇区嘉善路69弄",121.46594328208094,31.218048973570685,"2022-03-29"
"徐汇区","上海市徐汇区嘉善路77号",121.46594004818111,31.217920656982297,"2022-03-29"
"徐汇区","上海市徐汇区襄阳南路360号",121.46427997959867,31.213824856578633,"2022-03-29"
"徐汇区","上海市徐汇区龙吴路338弄",121.45277897415441,31.172235729519564,"2022-03-29"
"徐汇区","上海市徐汇区龙水南路290号",121.463548669083,31.16038608538139,"2022-03-29"
"徐汇区","上海市徐汇区龙水南路336弄",121.45975305881169,31.159515742334637,"2022-03-29"
"徐汇区","上海市徐汇区龙水南路359号",121.46116609337888,31.15994604786797,"2022-03-29"
"徐汇区","上海市徐汇区龙南四村",121.45821327333704,31.16345439352407,"2022-03-29"
"徐汇区","上海市徐汇区黄石路169弄",121.46330325201767,31.163834004510193,"2022-03-29"
"徐汇区","上海市徐汇区龙吴路238弄",121.45220236981369,31.172737426899992,"2022-03-29"
"徐汇区","上海市徐汇区龙吴路410弄",121.45805876478931,31.16414347053081,"2022-03-29"
"徐汇区","上海市徐汇区上中西路135弄",121.4361675086639,31.141563058780545,"2022-03-29"
"徐汇区","上海市徐汇区老沪闵路777号",121.43630279347371,31.146524685045996,"2022-03-29"
"徐汇区","上海市徐汇区罗秀路717弄",121.44135432467853,31.13768762484543,"2022-03-29"
"徐汇区","上海市徐汇区上中西路55弄",121.43647158507903,31.14073418958918,"2022-03-29"
"徐汇区","上海市徐汇区桂平路67弄",121.41831422563641,31.156161222873155,"2022-03-29"
"徐汇区","上海市徐汇区桂平路264号",121.4143429966379,31.164412842643802,"2022-03-29"
"徐汇区","上海市徐汇区康健路341弄",121.42597542417825,31.171200501900003,"2022-03-29"
"徐汇区","上海市徐汇区桂林东街150弄",121.43059235517732,31.16388105020919,"2022-03-29"
"徐汇区","上海市徐汇区桂林西街201弄",121.42792807086528,31.158893997568462,"2022-03-29"
"徐汇区","上海市徐汇区浦北路24弄",121.42057319450234,31.15990023625963,"2022-03-29"
"徐汇区","上海市徐汇区桂平路218弄",121.41747035744032,31.15814284590489,"2022-03-29"
"徐汇区","上海市徐汇区桂林西街358弄",121.4261648768103,31.158462373872194,"2022-03-29"
"徐汇区","上海市徐汇区百花街350号",121.42065224538722,31.15222999156347,"2022-03-29"
"徐汇区","上海市徐汇区桂林西街111弄",121.42572003592177,31.156982461979297,"2022-03-29"
"徐汇区","上海市徐汇区钦州南路768弄",121.41798490683645,31.16247476760042,"2022-03-29"
"徐汇区","上海市徐汇区华发路180弄",121.45821354282869,31.13352974325808,"2022-03-29"
"徐汇区","上海市徐汇区龙吟路132号",121.46022292543489,31.124695024239113,"2022-03-29"
"徐汇区","上海市徐汇区龙吟路69号",121.46042265573882,31.124412545471866,"2022-03-29"
"徐汇区","上海市徐汇区华发路333弄",121.45582773322474,31.132189309388835,"2022-03-29"
"徐汇区","上海市徐汇区老沪闵路1296弄",121.44694492901986,31.127333186808233,"2022-03-29"
"徐汇区","上海市徐汇区老沪闵路1389弄",121.44220742978479,31.12024810541716,"2022-03-29"
"徐汇区","上海市徐汇区龙吟路501弄",121.45971631811634,31.119859604510552,"2022-03-29"
"徐汇区","上海市徐汇区华发路79号",121.46127065614024,31.133184011136844,"2022-03-29"
"徐汇区","上海市徐汇区龙吴路2038弄",121.46267910934934,31.133700367850242,"2022-03-29"
"徐汇区","上海市徐汇区老沪闵路1070弄",121.443571971491,31.134411609414304,"2022-03-29"
"徐汇区","上海市徐汇区乌鲁木齐中路190号",121.45202673312038,31.219607828497388,"2022-03-29"
"徐汇区","上海市徐汇区乌鲁木齐中路301弄",121.45340868631692,31.21797091819401,"2022-03-29"
"徐汇区","上海市徐汇区虹梅路1035弄",121.41069695423398,31.162849824708246,"2022-03-29"
"徐汇区","上海市徐汇区钦州北路1018弄",121.41558355654718,31.18612754518762,"2022-03-29"
"徐汇区","上海市徐汇区虹梅路2666弄",121.4028167488088,31.18040128346673,"2022-03-29"
"徐汇区","上海市徐汇区龙山新村",121.45220648405292,31.190648697629673,"2022-03-29"
"徐汇区","上海市徐汇区中山南二路981弄",121.45375677970203,31.188654972049193,"2022-03-29"
"徐汇区","上海市徐汇区枫林新村",121.46613228556024,31.197254991054862,"2022-03-29"
"徐汇区","上海市徐汇区天钥桥路905弄",121.45312679804788,31.186362794760136,"2022-03-29"
"徐汇区","上海市徐汇区斜土路2096弄",121.45753568149087,31.198649709287018,"2022-03-29"
"徐汇区","上海市徐汇区宛南一村",121.45705329143199,31.190362719439843,"2022-03-29"
"徐汇区","上海市徐汇区斜土路2183弄",121.45488397345595,31.199803245503066,"2022-03-29"
"徐汇区","上海市徐汇区南宁路501弄",121.44931124539426,31.171252255827913,"2022-03-29"
"徐汇区","上海市徐汇区融水路99弄",121.45083414272531,31.16689462955787,"2022-03-29"
"徐汇区","上海市徐汇区康健路43弄",121.43749170081617,31.17213299515986,"2022-03-29"
"徐汇区","上海市徐汇区漕溪二村",121.44363988338756,31.17807448663555,"2022-03-29"
"徐汇区","上海市徐汇区漕溪四村",121.44682527472594,31.178480145130568,"2022-03-29"
"徐汇区","上海市徐汇区龙吴路401弄",121.45490548530633,31.165504650914787,"2022-03-29"
"徐汇区","上海市徐汇区沪闵路9202号",121.43891120318303,31.16756606882341,"2022-03-29"
"徐汇区","上海市徐汇区康健路55弄",121.4367163733305,31.172089506821802,"2022-03-29"
"徐汇区","上海市徐汇区龙吴路11弄",121.45006321693666,31.18027561860353,"2022-03-29"
"徐汇区","上海市徐汇区龙漕路58弄",121.4429188135547,31.174063223656315,"2022-03-29"
"徐汇区","上海市徐汇区东泉路25号",121.45207865517884,31.160070658419624,"2022-03-29"
"徐汇区","上海市徐汇区漕溪三村",121.44401106322428,31.176091044668507,"2022-03-29"
"徐汇区","上海市徐汇区三江路301弄",121.44576518439361,31.17021925747162,"2022-03-29"
"徐汇区","上海市徐汇区沪闵路9228号",121.43932442371762,31.168154771569558,"2022-03-29"
"徐汇区","上海市徐汇区嘉善路140弄",121.46549215305383,31.216564366138513,"2022-03-29"
"徐汇区","上海市徐汇区已对相关居住地落实终末消毒措施",121.44339635276381,31.194556772822725,"2022-03-29"
"长宁区","上海市长宁区长宁路476弄",121.43170104383775,31.229417495649646,"2022-03-29"
"长宁区","上海市长宁区新泾五村",121.37309029236427,31.22362849048236,"2022-03-29"
"长宁区","上海市长宁区新泾一村",121.37762493857865,31.22381284742357,"2022-03-29"
"长宁区","上海市长宁区虹桥机场新村",121.42539305271613,31.204362269575324,"2022-03-29"
"长宁区","上海市长宁区玉屏南路9号",121.41809746451683,31.218330080476,"2022-03-29"
"长宁区","上海市长宁区定西路1310弄住宅",121.42954627841097,31.222266569349348,"2022-03-29"
"长宁区","上海市长宁区天山五村",121.40438680717915,31.217016722626205,"2022-03-29"
"长宁区","上海市长宁区哈密路780弄",121.37526616797054,31.210174008524472,"2022-03-29"
"长宁区","上海市长宁区虹桥路1041弄",121.41903808021635,31.204031855895327,"2022-03-29"
"长宁区","上海市长宁区金钟路333弄",121.37015759436585,31.22571738468603,"2022-03-29"
"长宁区","上海市长宁区万航渡路1424弄",121.42791387763822,31.231213150847626,"2022-03-29"
"长宁区","上海市长宁区新华路73弄",121.43692729546424,31.207837449749583,"2022-03-29"
"长宁区","上海市长宁区安顺路231弄住宅",121.42308288043613,31.206853654662805,"2022-03-29"
"长宁区","上海市长宁区仙霞西路888弄",121.35656317776116,31.216250363515943,"2022-03-29"
"长宁区","上海市长宁区蒲松北路17弄",121.3814659132782,31.223244566758737,"2022-03-29"
"长宁区","上海市长宁区虹桥路1077弄",121.41887934963273,31.202746636750568,"2022-03-29"
"长宁区","上海市长宁区联建新村",121.4149965138964,31.211499352933927,"2022-03-29"
"长宁区","上海市长宁区定西路710弄",121.43231889836751,31.21343880797814,"2022-03-29"
"长宁区","上海市长宁区虹桥路1829弄",121.39585676754805,31.205408559002755,"2022-03-29"
"长宁区","上海市长宁区延安西路1264弄",121.43320750217798,31.216172615470086,"2022-03-29"
"长宁区","上海市长宁区天山路840弄",121.40985856570153,31.218011991852364,"2022-03-29"
"长宁区","上海市长宁区娄山关路470弄",121.41057676095676,31.21410504965595,"2022-03-29"
"长宁区","上海市长宁区泉口路109弄",121.37823102530623,31.217708880182467,"2022-03-29"
"长宁区","上海市长宁区已对相关居住地落实终末消毒措施",121.43045437545099,31.226847968225428,"2022-03-29"
"普陀区","上海市普陀区石泉路450弄",121.4228919006847,31.253512885668457,"2022-03-29"
"普陀区","上海市普陀区金沙江路753弄",121.40654579464183,31.237379533230207,"2022-03-29"
"普陀区","上海市普陀区长寿路28弄",121.45145316505224,31.251374137345373,"2022-03-29"
"普陀区","上海市普陀区曹杨九村",121.40989719283846,31.238149501607726,"2022-03-29"
"普陀区","上海市普陀区长风一村",121.4097797843083,31.23746343886386,"2022-03-29"
"普陀区","上海市普陀区金沙江路759号",121.4061150571498,31.23766328371763,"2022-03-29"
"普陀区","上海市普陀区武威东路788弄",121.44973210152567,31.271907249373598,"2022-03-29"
"普陀区","上海市普陀区白玉路669弄",121.42810063535376,31.23418627743101,"2022-03-29"
"普陀区","上海市普陀区宜川一村",121.4471234223247,31.26854656873689,"2022-03-29"
"普陀区","上海市普陀区中山北路1560号",121.4453498079258,31.260962852469078,"2022-03-29"
"普陀区","上海市普陀区石泉路130弄",121.43214022540157,31.25711311469027,"2022-03-29"
"普陀区","上海市普陀区宜川五村",121.45046799339944,31.26748917898916,"2022-03-29"
"普陀区","上海市普陀区中潭路99弄",121.44388826486107,31.259116834823327,"2022-03-29"
"普陀区","上海市普陀区棕榈路451弄",121.36464963413142,31.245361501158424,"2022-03-29"
"普陀区","上海市普陀区三源路52号",121.41336896397343,31.26700025854231,"2022-03-29"
"普陀区","上海市普陀区桃浦路1861号",121.37334595011241,31.26896479884518,"2022-03-29"
"普陀区","上海市普陀区泰山一村",121.45374761698582,31.266473678482228,"2022-03-29"
"普陀区","上海市普陀区宜川三村",121.44741950382078,31.263551892325964,"2022-03-29"
"普陀区","上海市普陀区中山北路2605弄",121.4286673763,31.250034693507533,"2022-03-29"
"普陀区","上海市普陀区兰凤新村",121.4306796704729,31.2551283367716,"2022-03-29"
"普陀区","上海市普陀区铜川路276弄",121.42212852066231,31.259190765748915,"2022-03-29"
"普陀区","上海市普陀区华池路58弄",121.43479822157505,31.264154267885374,"2022-03-29"
"普陀区","上海市普陀区泰山三村",121.45492799042594,31.265067855689473,"2022-03-29"
"普陀区","上海市普陀区交通路1913弄",121.44676275266245,31.263185341116433,"2022-03-29"
"普陀区","上海市普陀区顺义路299弄",121.4223569597535,31.237353828913395,"2022-03-29"
"普陀区","上海市普陀区新村路349弄",121.44094334990771,31.274147378765885,"2022-03-29"
"普陀区","上海市普陀区柳园路599号",121.34864209943527,31.301479696687654,"2022-03-29"
"普陀区","上海市普陀区昌化路994弄",121.4511384886321,31.252354068630236,"2022-03-29"
"普陀区","上海市普陀区金鼎路298弄",121.39666461369318,31.264136673573596,"2022-03-29"
"普陀区","上海市普陀区交通路1517弄",121.45049000188445,31.26239744407075,"2022-03-29"
"普陀区","上海市普陀区祁安路88弄",121.39250384223206,31.29034829117577,"2022-03-29"
"普陀区","上海市普陀区金沙江路2348弄",121.37258005483461,31.244325846650764,"2022-03-29"
"普陀区","上海市普陀区石泉路300弄",121.43423633147856,31.25806558938439,"2022-03-29"
"普陀区","上海市普陀区顺义路100弄",121.42588209023576,31.23702607895726,"2022-03-29"
"普陀区","上海市普陀区长寿路505弄",121.44171562315462,31.24359953865196,"2022-03-29"
"普陀区","上海市普陀区祁连山南路2727弄",121.37501607971656,31.265658569292437,"2022-03-29"
"普陀区","上海市普陀区交通西路108弄",121.45444748680865,31.262117472786294,"2022-03-29"
"普陀区","上海市普陀区大渡河路1262弄",121.40263142838211,31.24312446379036,"2022-03-29"
"普陀区","上海市普陀区真光路1339弄",121.38763727213176,31.25168454907576,"2022-03-29"
"普陀区","上海市普陀区真北支路263弄",121.40119324126063,31.263130011051057,"2022-03-29"
"普陀区","上海市普陀区大渡河路658号",121.40262846397393,31.235194949852815,"2022-03-29"
"普陀区","上海市普陀区普雄路82弄",121.42863351018228,31.242139341484133,"2022-03-29"
"普陀区","上海市普陀区枣阳路465弄",121.40836118024694,31.235774813853716,"2022-03-29"
"普陀区","上海市普陀区中山北路3671弄",121.41442312548938,31.23126062589469,"2022-03-29"
"普陀区","上海市普陀区长风二村",121.4084474175759,31.240371683570128,"2022-03-29"
"普陀区","上海市普陀区志丹路211号",121.43642110030937,31.273501240591592,"2022-03-29"
"普陀区","上海市普陀区远景路97弄",121.45384005262281,31.257848732849144,"2022-03-29"
"普陀区","上海市普陀区农林路101弄",121.44092403633924,31.261428499085582,"2022-03-29"
"普陀区","上海市普陀区铜川路2060弄",121.38707987356281,31.26150790726773,"2022-03-29"
"普陀区","上海市普陀区武威东路477弄",121.41129223219934,31.281931904457352,"2022-03-29"
"普陀区","上海市普陀区桃浦路743弄",121.39476963821988,31.265275666922943,"2022-03-29"
"普陀区","上海市普陀区中山北路平民后村",121.43453205365243,31.256907060307324,"2022-03-29"
"普陀区","上海市普陀区曹杨一村",121.41382799808902,31.245105868916383,"2022-03-29"
"普陀区","上海市普陀区千阳南路99弄",121.37409864029922,31.234555952851952,"2022-03-29"
"普陀区","上海市普陀区铜川路1781弄",121.39377296825656,31.257330899016218,"2022-03-29"
"普陀区","上海市普陀区新村路285弄",121.44096095669569,31.27289784504357,"2022-03-29"
"普陀区","上海市普陀区曹杨七村",121.416892028353,31.246969606437972,"2022-03-29"
"普陀区","上海市普陀区同普路1441弄",121.37130607796036,31.24000480989914,"2022-03-29"
"普陀区","上海市普陀区长寿路393号",121.44380005125998,31.24614305844324,"2022-03-29"
"普陀区","上海市普陀区三源路41弄",121.4143708441087,31.266356154420706,"2022-03-29"
"普陀区","上海市普陀区武宁路8弄",121.40356934916508,31.254973368279597,"2022-03-29"
"普陀区","上海市普陀区中山北路1243弄",121.45058935447383,31.263530285136653,"2022-03-29"
"普陀区","上海市普陀区金沙江路875弄",121.40425466643863,31.237153829017853,"2022-03-29"
"普陀区","上海市普陀区东新支路55弄",121.43136885046016,31.2490687075801,"2022-03-29"
"普陀区","上海市普陀区真北路2904弄",121.40070716814917,31.271488878114162,"2022-03-29"
"普陀区","上海市普陀区梅川路43弄",121.40924151964673,31.246141051687886,"2022-03-29"
"普陀区","上海市普陀区澳门路660弄",121.44253236252432,31.2521310246081,"2022-03-29"
"普陀区","上海市普陀区岚皋路321号",121.42841135922966,31.260032941361384,"2022-03-29"
"普陀区","上海市普陀区灵石路1620弄",121.42946237667633,31.27147676368424,"2022-03-29"
"普陀区","上海市普陀区已对相关居住地落实终末消毒措施",121.40356934916508,31.254973368279597,"2022-03-29"
"虹口区","上海市虹口区吴淞路355弄",121.49550489946441,31.255723975227355,"2022-03-29"
"虹口区","上海市虹口区赤峰路525号",121.49105020244042,31.288034256620385,"2022-03-29"
"虹口区","上海市虹口区北苏州路400号",121.49008793757814,31.248865877052367,"2022-03-29"
"虹口区","上海市虹口区广灵二路160号",121.48372856338133,31.288719871038165,"2022-03-29"
"虹口区","上海市虹口区石油新村",121.48697099711961,31.2879457674792,"2022-03-29"
"虹口区","上海市虹口区长春路158号",121.49396969534784,31.266360784393093,"2022-03-29"
"虹口区","上海市虹口区公平路369号",121.51103633224025,31.26057645816394,"2022-03-29"
"虹口区","上海市虹口区水电路120号",121.47917460359851,31.279508980340367,"2022-03-29"
"虹口区","上海市虹口区广粤路219号",121.47176852382151,31.290847658402317,"2022-03-29"
"虹口区","上海市虹口区广灵二路220号",121.4821630863691,31.29058435882112,"2022-03-29"
"虹口区","上海市虹口区广灵一路265号",121.48626232390278,31.291719635275566,"2022-03-29"
"虹口区","上海市虹口区横浜路206弄",121.48459704514839,31.27020335086434,"2022-03-29"
"虹口区","上海市虹口区同心路125弄",121.48450595696968,31.272902860495766,"2022-03-29"
"虹口区","上海市虹口区同心路133弄",121.48423359073905,31.274202625147048,"2022-03-29"
"虹口区","上海市虹口区场中路755弄",121.4771157772002,31.312810769688888,"2022-03-29"
"虹口区","上海市虹口区车站北路507弄",121.47987168867425,31.302619777329497,"2022-03-29"
"虹口区","上海市虹口区车站西路80弄",121.48978260353529,31.301827199062874,"2022-03-29"
"虹口区","上海市虹口区大连西路420弄",121.49424810268304,31.282017778757957,"2022-03-29"
"虹口区","上海市虹口区东余杭路980号",121.51153318501783,31.26317808724641,"2022-03-29"
"虹口区","上海市虹口区多伦路201弄",121.4880953162959,31.269706651113975,"2022-03-29"
"虹口区","上海市虹口区飞虹支路83弄",121.50960691258058,31.26810146798837,"2022-03-29"
"虹口区","上海市虹口区广灵二村",121.48494684531398,31.291750030500495,"2022-03-29"
"虹口区","上海市虹口区广灵四路866弄",121.46941900576014,31.29169101438212,"2022-03-29"
"虹口区","上海市虹口区西宝兴路949弄",121.47502955248382,31.275593187403278,"2022-03-29"
"虹口区","上海市虹口区广中路564号",121.47416529275266,31.285806572901524,"2022-03-29"
"虹口区","上海市虹口区广灵一路263号",121.4862810086574,31.29138189274467,"2022-03-29"
"虹口区","上海市虹口区海伦路236号",121.49960234038706,31.263179321947728,"2022-03-29"
"虹口区","上海市虹口区海平路18号",121.51299589587973,31.255981044759146,"2022-03-29"
"虹口区","上海市虹口区邯郸路47弄",121.50145132261824,31.297822473898528,"2022-03-29"
"虹口区","上海市虹口区虹湾路288弄",121.47470391673646,31.31943411713273,"2022-03-29"
"虹口区","上海市虹口区虹湾路313弄",121.47669402276325,31.31902984095549,"2022-03-29"
"虹口区","上海市虹口区通州路392弄",121.50143739888284,31.264207590976742,"2022-03-29"
"虹口区","上海市虹口区池沟路348弄",121.48629870527594,31.309963861392912,"2022-03-29"
"虹口区","上海市虹口区凉城路126弄",121.47634686072332,31.28739174948657,"2022-03-29"
"虹口区","上海市虹口区凉城路203号",121.47606538856738,31.289120961238577,"2022-03-29"
"虹口区","上海市虹口区凉城四村",121.47873344576257,31.29898520102778,"2022-03-29"
"虹口区","上海市虹口区临平路333号",121.50214256870818,31.26830450370258,"2022-03-29"
"虹口区","上海市虹口区四平路327弄",121.4972878562406,31.27179112105807,"2022-03-29"
"虹口区","上海市虹口区欧阳路354弄",121.51369163349722,31.26488018469453,"2022-03-29"
"虹口区","上海市虹口区曲阳路269弄",121.49753596822246,31.276893377562747,"2022-03-29"
"虹口区","上海市虹口区曲阳路920弄",121.49868867385287,31.296353018484723,"2022-03-29"
"虹口区","上海市虹口区山阴路85弄",121.49292056434275,31.27096417525091,"2022-03-29"
"虹口区","上海市虹口区四川北路2023弄",121.4894507694799,31.269598082089164,"2022-03-29"
"虹口区","上海市虹口区罗浮路89弄",121.4874388346292,31.258020288790313,"2022-03-29"
"虹口区","上海市虹口区天宝西路231弄",121.5025060231175,31.280070901017577,"2022-03-29"
"虹口区","上海市虹口区天通庵路570号",121.48244434582428,31.268940415000962,"2022-03-29"
"虹口区","上海市虹口区甜爱路26号",121.48991195952871,31.271202838256904,"2022-03-29"
"虹口区","上海市虹口区万安路969号",121.4795432681798,31.30704667557765,"2022-03-29"
"虹口区","上海市虹口区万安路979弄",121.47898730689968,31.307411434850554,"2022-03-29"
"虹口区","上海市虹口区汶水东路298弄",121.49149567214282,31.296638672740045,"2022-03-29"
"虹口区","上海市虹口区吴淞路355弄",121.49550489946441,31.255723975227355,"2022-03-29"
"虹口区","上海市虹口区物华路98弄",121.50052274421259,31.264628772877874,"2022-03-29"
"虹口区","上海市虹口区祥德路180弄",121.49401613774272,31.277722122642363,"2022-03-29"
"虹口区","上海市虹口区运光路70弄",121.50228611792866,31.296333578843893,"2022-03-29"
"虹口区","上海市虹口区运光路71弄",121.50208301105286,31.29599184163938,"2022-03-29"
"虹口区","上海市虹口区长春路348号",121.49095049052882,31.26907105368698,"2022-03-29"
"虹口区","上海市虹口区广中路465号",121.47622106491227,31.285758585502023,"2022-03-29"
"虹口区","上海市虹口区虬江支路180弄",121.48974595267049,31.259486488866457,"2022-03-29"
"虹口区","上海市虹口区已对相关居住地落实终末消毒措施",121.51158645453457,31.269746698931357,"2022-03-29"
"杨浦区","上海市杨浦区国定路555弄",121.51217592261023,31.308804047799995,"2022-03-29"
"杨浦区","上海市杨浦区三门路358弄",121.49919954019639,31.31697804677975,"2022-03-29"
"杨浦区","上海市杨浦区双阳支路34号",121.5472121730937,31.280719616990236,"2022-03-29"
"杨浦区","上海市杨浦区双阳路37号",121.545053185631,31.2780885396613,"2022-03-29"
"杨浦区","上海市杨浦区黄兴路1413弄",121.52971434955647,31.28794761904013,"2022-03-29"
"杨浦区","上海市杨浦区世界路99弄",121.53149515039945,31.32616842791674,"2022-03-29"
"杨浦区","上海市杨浦区江浦路1315弄",121.52565311034587,31.27695888426116,"2022-03-29"
"杨浦区","上海市杨浦区控江二村",121.53254086784362,31.285566404206357,"2022-03-29"
"杨浦区","上海市杨浦区控江路1197弄",121.53427666358056,31.28379470702117,"2022-03-29"
"杨浦区","上海市杨浦区民府路517号",121.51766627605666,31.321463029550642,"2022-03-29"
"杨浦区","上海市杨浦区凤城二村",121.52513433891386,31.284134020032397,"2022-03-29"
"杨浦区","上海市杨浦区凤六新苑",121.52321097698645,31.29023588882242,"2022-03-29"
"杨浦区","上海市杨浦区中山北二路99弄",121.52629252420786,31.290833154958047,"2022-03-29"
"杨浦区","上海市杨浦区政立路717弄",121.50571054836325,31.313836795392323,"2022-03-29"
"杨浦区","上海市杨浦区恒耀路66弄",121.51500576462776,31.349009543100724,"2022-03-29"
"杨浦区","上海市杨浦区黄兴路1039弄",121.53000252596408,31.286116330200333,"2022-03-29"
"杨浦区","上海市杨浦区源泉路118弄",121.53764881263447,31.283588248569192,"2022-03-29"
"杨浦区","上海市杨浦区双阳路503号",121.53760991600589,31.28930912356044,"2022-03-29"
