"district","address","lng","lat","date"
"静安区","上海市静安区临汾路380弄",121.46855995620095,31.31818688632554,"2022-06-19"
"静安区","上海市静安区谈家桥路163弄",121.45627185546886,31.266914604602174,"2022-06-19"
"静安区","上海市静安区延长中路700弄",121.4540591493367,31.273840976804582,"2022-06-19"
"普陀区","上海市普陀区桃浦路1028弄",121.38946047299481,31.26651951514113,"2022-06-19"
"宝山区","上海市宝山区华灵路1180弄6月19日已通报",121.42551764769036,31.285480304388788,"2022-06-19"
