"district","address","lng","lat","date"
"浦东新区","上海市浦东新区北艾路155弄",121.5498820268999,31.192539931368604,"2022-05-12"
"浦东新区","上海市浦东新区北艾路1765弄",121.52839860147601,31.184265453706548,"2022-05-12"
"浦东新区","上海市浦东新区北蔡镇御桥村龙桥队张家宅",121.56411783363872,31.162329302205315,"2022-05-12"
"浦东新区","上海市浦东新区碧云路333弄",121.58332800713904,31.24398785556432,"2022-05-12"
"浦东新区","上海市浦东新区博华路1018弄",121.55750199321884,31.176850857976813,"2022-05-12"
"浦东新区","上海市浦东新区博山路51弄",121.5636509842652,31.250794833134776,"2022-05-12"
"浦东新区","上海市浦东新区博兴路1663弄",121.60720101505002,31.28077609395253,"2022-05-12"
"浦东新区","上海市浦东新区博兴路462弄",121.58940908628885,31.27201836204534,"2022-05-12"
"浦东新区","上海市浦东新区曹路镇顾东村船板桥",121.67028056694399,31.30311645627832,"2022-05-12"
"浦东新区","上海市浦东新区曹路镇前锋村陆家宅",121.70483855957393,31.276629575682062,"2022-05-12"
"浦东新区","上海市浦东新区曹路镇五四村沈孙家宅",121.6580400764039,31.26039873322475,"2022-05-12"
"浦东新区","上海市浦东新区昌邑路55弄",121.51912198013558,31.24605885186431,"2022-05-12"
"浦东新区","上海市浦东新区成山路668弄",121.51947303792888,31.175870831284065,"2022-05-12"
"浦东新区","上海市浦东新区川周公路4005弄",121.59668922363336,31.13136406677863,"2022-05-12"
"浦东新区","上海市浦东新区创新西路28弄",121.6642993793669,31.210286275536046,"2022-05-12"
"浦东新区","上海市浦东新区大团镇团西村鸭场",121.74336104391107,30.97540627641027,"2022-05-12"
"浦东新区","上海市浦东新区德平路1060弄",121.57348671095504,31.24824966471357,"2022-05-12"
"浦东新区","上海市浦东新区德平路1065弄",121.57423419096989,31.249263047832805,"2022-05-12"
"浦东新区","上海市浦东新区德平路1066弄",121.57397278406648,31.24683569519886,"2022-05-12"
"浦东新区","上海市浦东新区德平路215弄",121.56986806686919,31.254518494140477,"2022-05-12"
"浦东新区","上海市浦东新区德平路764弄",121.57177624743349,31.25020703558526,"2022-05-12"
"浦东新区","上海市浦东新区丁香路910弄",121.56039202170554,31.231240477950827,"2022-05-12"
"浦东新区","上海市浦东新区东靖路247弄",121.58407117528745,31.298685745986468,"2022-05-12"
"浦东新区","上海市浦东新区东陆路1268弄",121.60156055475287,31.272878863483545,"2022-05-12"
"浦东新区","上海市浦东新区东陆路2000弄",121.61592365138246,31.267711183214853,"2022-05-12"
"浦东新区","上海市浦东新区方竹路222弄",121.91359649568211,30.89871410251902,"2022-05-12"
"浦东新区","上海市浦东新区芳华路188弄",121.53688426481492,31.18970225553777,"2022-05-12"
"浦东新区","上海市浦东新区芳华路229弄",121.56081054224263,31.202551968217783,"2022-05-12"
"浦东新区","上海市浦东新区芳华路371弄",121.56442550327588,31.203020685498792,"2022-05-12"
"浦东新区","上海市浦东新区芳华路63号",121.55817159014597,31.20073105268403,"2022-05-12"
"浦东新区","上海市浦东新区芳华路933弄",121.53688426481492,31.18970225553777,"2022-05-12"
"浦东新区","上海市浦东新区高东二路118弄",121.63203026917635,31.32990867036808,"2022-05-12"
"浦东新区","上海市浦东新区高桥镇陆凌村陆家宅",121.56901180205708,31.3526591303629,"2022-05-12"
"浦东新区","上海市浦东新区高桥镇陆凌村西凌家宅",121.58173863520024,31.35356684063773,"2022-05-12"
"浦东新区","上海市浦东新区龚新路549弄",121.69111478697579,31.26461835524657,"2022-05-12"
"浦东新区","上海市浦东新区拱乐路698弄",121.77709385309956,31.06964198907137,"2022-05-12"
"浦东新区","上海市浦东新区海鹏路301弄",121.68073091426376,31.295363983048894,"2022-05-12"
"浦东新区","上海市浦东新区航头镇鹤东村沙东",121.60297826050872,31.06114895730399,"2022-05-12"
"浦东新区","上海市浦东新区航头镇沈庄村",121.58911480140377,31.0850414945296,"2022-05-12"
"浦东新区","上海市浦东新区合庆镇庆星村顾家宅",121.72570709487623,31.240436443995055,"2022-05-12"
"浦东新区","上海市浦东新区鹤永路750弄",121.6099678858513,31.07777749395087,"2022-05-12"
"浦东新区","上海市浦东新区沪东路67号",121.58681675624815,31.277393434011163,"2022-05-12"
"浦东新区","上海市浦东新区沪南路2688弄",121.57033464675108,31.143972355375933,"2022-05-12"
"浦东新区","上海市浦东新区沪南路3158弄",121.57200872889946,31.12772554060315,"2022-05-12"
"浦东新区","上海市浦东新区华安路24弄",121.52198362216815,31.217358903108494,"2022-05-12"
"浦东新区","上海市浦东新区环桥路1481弄",121.58485970786411,31.120077939878794,"2022-05-12"
"浦东新区","上海市浦东新区季景路19弄",121.59338067460956,31.34651061354801,"2022-05-12"
"浦东新区","上海市浦东新区金杨路685弄",121.58834306714016,31.258255434906122,"2022-05-12"
"浦东新区","上海市浦东新区锦绣路2868弄",121.54372036974584,31.191802564037758,"2022-05-12"
"浦东新区","上海市浦东新区居家桥路737弄",121.5770580143405,31.252754851932117,"2022-05-12"
"浦东新区","上海市浦东新区巨峰路176弄",121.60320166908903,31.285412489153977,"2022-05-12"
"浦东新区","上海市浦东新区巨峰路90弄",121.60248023993398,31.284755704928653,"2022-05-12"
"浦东新区","上海市浦东新区康弘路428弄",121.58485970786411,31.120077939878794,"2022-05-12"
"浦东新区","上海市浦东新区康桥镇花墙村",121.55274169266035,31.156328175262196,"2022-05-12"
"浦东新区","上海市浦东新区康沈路1758弄",121.58452158567016,31.119686481592485,"2022-05-12"
"浦东新区","上海市浦东新区崂山路562号",121.52456993356193,31.243419157140636,"2022-05-12"
"浦东新区","上海市浦东新区崂山三村",121.52639681747759,31.238932508563483,"2022-05-12"
"浦东新区","上海市浦东新区崂山四村",121.52454199626058,31.24117281086977,"2022-05-12"
"浦东新区","上海市浦东新区历城路22弄",121.53688426481492,31.18970225553777,"2022-05-12"
"浦东新区","上海市浦东新区林展路278弄",121.51290103481787,31.132805821704117,"2022-05-12"
"浦东新区","上海市浦东新区凌河路420弄",121.60593224834773,31.279917054061343,"2022-05-12"
"浦东新区","上海市浦东新区凌兆路334弄",121.50545821434551,31.148676181773208,"2022-05-12"
"浦东新区","上海市浦东新区龙居路180弄",121.56897173763133,31.258551238155807,"2022-05-12"
"浦东新区","上海市浦东新区龙阳路1188号",121.53717495647795,31.204222274391203,"2022-05-12"
"浦东新区","上海市浦东新区罗山路108弄",121.55887945488784,31.254641589752865,"2022-05-12"
"浦东新区","上海市浦东新区苗桥路455号",121.63561837087487,31.13291794954313,"2022-05-12"
"浦东新区","上海市浦东新区妙境北路116弄",121.6970792660704,31.20767367765606,"2022-05-12"
"浦东新区","上海市浦东新区明月路199弄",121.58367098018275,31.24111283655188,"2022-05-12"
"浦东新区","上海市浦东新区南港大道与环湖南三路交界口工地生活区",121.894828827476,30.900192727463445,"2022-05-12"
"浦东新区","上海市浦东新区浦电路221号",121.53004456666196,31.22498830738765,"2022-05-12"
"浦东新区","上海市浦东新区浦电路330弄",121.53452881793721,31.22662717934152,"2022-05-12"
"浦东新区","上海市浦东新区浦东大道1615弄",121.54779571235296,31.25197620550338,"2022-05-12"
"浦东新区","上海市浦东新区浦东大道2748弄",121.56868841207348,31.265697229843504,"2022-05-12"
"浦东新区","上海市浦东新区浦东南路1862弄",121.5241351536951,31.221747612042826,"2022-05-12"
"浦东新区","上海市浦东新区浦东南路4950弄",121.5043859968888,31.185763702680063,"2022-05-12"
"浦东新区","上海市浦东新区栖霞路286号",121.52915632217368,31.24414971169032,"2022-05-12"
"浦东新区","上海市浦东新区栖霞路86号",121.5242515740892,31.24224323405418,"2022-05-12"
"浦东新区","上海市浦东新区乳山路161弄",121.52801807926198,31.24159718403063,"2022-05-12"
"浦东新区","上海市浦东新区三彩路166弄",121.52553031198265,31.139159418419815,"2022-05-12"
"浦东新区","上海市浦东新区三林路235号",121.50273652831137,31.143691257217654,"2022-05-12"
"浦东新区","上海市浦东新区三林镇胡巷村金家宅",121.52500489308987,31.158715770519464,"2022-05-12"
"浦东新区","上海市浦东新区三林镇临江村王家渡队王家渡",121.48103454515693,31.130823354677393,"2022-05-12"
"浦东新区","上海市浦东新区三林镇临江村王家宅队王家宅",121.48402985504939,31.126877924520862,"2022-05-12"
"浦东新区","上海市浦东新区三林镇天花庵村北陈队大陈家宅",121.53193954213525,31.128535900177152,"2022-05-12"
"浦东新区","上海市浦东新区三林镇天花庵村闵北队闵家宅",121.53989017471241,31.12623849791897,"2022-05-12"
"浦东新区","上海市浦东新区三林镇天花庵村南王家队南王家宅",121.55380142367048,31.162845112362536,"2022-05-12"
"浦东新区","上海市浦东新区三舒路192弄",121.51063065747196,31.127855294432397,"2022-05-12"
"浦东新区","上海市浦东新区三舒路62弄",121.50989269949552,31.130409298630166,"2022-05-12"
"浦东新区","上海市浦东新区上南路6333弄",121.58485970786411,31.120077939878794,"2022-05-12"
"浦东新区","上海市浦东新区上浦路510弄",121.50622294182614,31.152101739360106,"2022-05-12"
"浦东新区","上海市浦东新区申轮路轲桥路交界口工地生活区",121.63667774256278,31.29081163122542,"2022-05-12"
"浦东新区","上海市浦东新区胜利路836弄",121.7085576342158,31.25218813627691,"2022-05-12"
"浦东新区","上海市浦东新区世博家园大道站路94弄",121.5456103147083,31.165459346349106,"2022-05-12"
"浦东新区","上海市浦东新区书院镇中久村中南",121.89445180865346,30.939379071549908,"2022-05-12"
"浦东新区","上海市浦东新区唐镇虹四村吴张家宅",121.65836822740671,31.246790543527457,"2022-05-12"
"浦东新区","上海市浦东新区唐镇唐四村黄家东宅",121.6737448821432,31.224156161077826,"2022-05-12"
"浦东新区","上海市浦东新区唐镇新虹村陆家宅",121.65503362752312,31.248713367963926,"2022-05-12"
"浦东新区","上海市浦东新区潍坊路606号",121.52801879790638,31.229204895697556,"2022-05-12"
"浦东新区","上海市浦东新区下南路500弄",121.5437208188986,31.177967587760506,"2022-05-12"
"浦东新区","上海市浦东新区下南路551弄",121.54679904238965,31.179016875274282,"2022-05-12"
"浦东新区","上海市浦东新区宣镇东路788弄",121.7075508134002,31.029191576455432,"2022-05-12"
"浦东新区","上海市浦东新区杨新路80弄",121.50033351024607,31.169613156321486,"2022-05-12"
"浦东新区","上海市浦东新区洋泾街道泾南村东唐家宅",121.49818274818965,31.19171769073948,"2022-05-12"
"浦东新区","上海市浦东新区耀华路220弄",121.49739223934087,31.179261334020538,"2022-05-12"
"浦东新区","上海市浦东新区耀华支路2号",121.47580380200287,31.18162347553838,"2022-05-12"
"浦东新区","上海市浦东新区耀元路228弄",121.48032983521631,31.176939830936618,"2022-05-12"
"浦东新区","上海市浦东新区张江镇劳动村吴家宅北",121.6390159419747,31.185271265739956,"2022-05-12"
"浦东新区","上海市浦东新区张江镇钱堂村立达宅",121.59951870632868,31.16388174546565,"2022-05-12"
"浦东新区","上海市浦东新区张江镇中心村蔡家圈宅",121.64654302350391,31.17777889241122,"2022-05-12"
"浦东新区","上海市浦东新区张杨路2850弄",121.57107179625257,31.251259372727603,"2022-05-12"
"浦东新区","上海市浦东新区招远路19弄",121.5212299438453,31.241645116927586,"2022-05-12"
"浦东新区","上海市浦东新区振兴东路12弄",121.50271020795994,31.16838558591424,"2022-05-12"
"浦东新区","上海市浦东新区周东路902弄",121.59094788362744,31.133893092899925,"2022-05-12"
"浦东新区","上海市浦东新区周泰北路韵涛路交界口工地生活区",121.60866363608137,31.109520206494043,"2022-05-12"
"浦东新区","上海市浦东新区祝桥镇先进村",121.8100085754601,31.103827765483793,"2022-05-12"
"浦东新区","上海市浦东新区邹平路191号工地生活区",121.52160058469872,31.17630685482829,"2022-05-12"
"黄浦区","上海市黄浦区半淞园路650号",121.50102139360118,31.204231463270702,"2022-05-12"
"黄浦区","上海市黄浦区保屯路211弄",121.4983058160445,31.209535149529046,"2022-05-12"
"黄浦区","上海市黄浦区北海路267弄",121.48451934172178,31.236080259939193,"2022-05-12"
"黄浦区","上海市黄浦区北京东路159号",121.4936093850078,31.24633462619826,"2022-05-12"
"黄浦区","上海市黄浦区北京东路288弄",121.49064632428312,31.24648026991378,"2022-05-12"
"黄浦区","上海市黄浦区北京东路492号",121.48725468199966,31.24556572858875,"2022-05-12"
"黄浦区","上海市黄浦区曹市弄57弄",121.49565482665402,31.22491172460565,"2022-05-12"
"黄浦区","上海市黄浦区长乐路67号",121.47519735595309,31.228116027440944,"2022-05-12"
"黄浦区","上海市黄浦区成都南路122号",121.47429527755996,31.22742340645586,"2022-05-12"
"黄浦区","上海市黄浦区重庆北路177弄",121.4763199683489,31.2325548713123,"2022-05-12"
"黄浦区","上海市黄浦区重庆南路177号",121.47780998769831,31.222069856921387,"2022-05-12"
"黄浦区","上海市黄浦区打浦路316弄",121.4771429060266,31.205298679857936,"2022-05-12"
"黄浦区","上海市黄浦区打浦路339弄",121.4785522575412,31.20529674944314,"2022-05-12"
"黄浦区","上海市黄浦区打浦路470弄",121.4793632477556,31.203063078428812,"2022-05-12"
"黄浦区","上海市黄浦区打浦路480弄",121.4794169664251,31.202757833460705,"2022-05-12"
"黄浦区","上海市黄浦区打浦路90弄",121.47722528064186,31.20856086958744,"2022-05-12"
"黄浦区","上海市黄浦区大沽路151号",121.47784448262988,31.23219259864778,"2022-05-12"
"黄浦区","上海市黄浦区大吉路320号",121.48821461126762,31.21884519645946,"2022-05-12"
"黄浦区","上海市黄浦区淡水路190号",121.47965879026839,31.223670410874007,"2022-05-12"
"黄浦区","上海市黄浦区淡水路214弄",121.47901048318184,31.22338754436811,"2022-05-12"
"黄浦区","上海市黄浦区淡水路216号",121.47979901575849,31.223348094304406,"2022-05-12"
"黄浦区","上海市黄浦区方斜路401弄",121.49001086296538,31.22040782112921,"2022-05-12"
"黄浦区","上海市黄浦区方斜路556弄",121.48243060174998,31.20848141644904,"2022-05-12"
"黄浦区","上海市黄浦区凤阳路428号",121.47501976095377,31.239377192462186,"2022-05-12"
"黄浦区","上海市黄浦区福建中路195弄",121.48805704848118,31.239509570614192,"2022-05-12"
"黄浦区","上海市黄浦区福州路105号",121.494982804302,31.240828710592687,"2022-05-12"
"黄浦区","上海市黄浦区福州路384弄",121.4896390543148,31.24003344662922,"2022-05-12"
"黄浦区","上海市黄浦区福州路614弄",121.48585503218456,31.238969867958666,"2022-05-12"
"黄浦区","上海市黄浦区复兴东路318号",121.50501750566231,31.226403070371738,"2022-05-12"
"黄浦区","上海市黄浦区复兴东路354号",121.5043178155006,31.22667620069466,"2022-05-12"
"黄浦区","上海市黄浦区复兴东路673号",121.49788082770775,31.2278543266236,"2022-05-12"
"黄浦区","上海市黄浦区复兴中路480弄",121.47929767145337,31.221615826383537,"2022-05-12"
"黄浦区","上海市黄浦区广东路564号",121.4872417464003,31.23774911884241,"2022-05-12"
"黄浦区","上海市黄浦区汉口路429弄",121.48884495224397,31.240580321584385,"2022-05-12"
"黄浦区","上海市黄浦区河南南路555弄",121.49758088349796,31.226237323571752,"2022-05-12"
"黄浦区","上海市黄浦区河南南路790弄",121.49854009412151,31.222041137489935,"2022-05-12"
"黄浦区","上海市黄浦区虎丘路9号",121.49390070548468,31.24675318725636,"2022-05-12"
"黄浦区","上海市黄浦区淮海中路833弄",121.46898988521804,31.224196151207956,"2022-05-12"
"黄浦区","上海市黄浦区黄陂南路847弄",121.48515336575072,31.216905930618072,"2022-05-12"
"黄浦区","上海市黄浦区黄河路155号",121.47690045336945,31.241064826195036,"2022-05-12"
"黄浦区","上海市黄浦区黄河路215弄",121.4344569553118,31.2533728868238,"2022-05-12"
"黄浦区","上海市黄浦区黄河路253弄",121.47529419328706,31.242852770826993,"2022-05-12"
"黄浦区","上海市黄浦区黄家路88弄",121.50359063719026,31.22123451932127,"2022-05-12"
"黄浦区","上海市黄浦区黄家阙路68弄",121.49395002245718,31.220714861457605,"2022-05-12"
"黄浦区","上海市黄浦区建国东路143弄",121.48532709803635,31.21823318708983,"2022-05-12"
"黄浦区","上海市黄浦区建国西路91弄",121.47809636749489,31.218166326734593,"2022-05-12"
"黄浦区","上海市黄浦区江滨路99号",121.4799350192127,31.19785385522803,"2022-05-12"
"黄浦区","上海市黄浦区江西中路34弄",121.49485066356148,31.238477093249102,"2022-05-12"
"黄浦区","上海市黄浦区江西中路391号",121.49213571481867,31.246094124473508,"2022-05-12"
"黄浦区","上海市黄浦区江西中路451号",121.4916062535511,31.24738391965078,"2022-05-12"
"黄浦区","上海市黄浦区江西中路52号",121.49473038045369,31.23849839747257,"2022-05-12"
"黄浦区","上海市黄浦区江西中路58号",121.49467513466483,31.238664045363397,"2022-05-12"
"黄浦区","上海市黄浦区江阴路88弄",121.47555173747676,31.235860033180316,"2022-05-12"
"黄浦区","上海市黄浦区金陵东路79号",121.49687912723357,31.236786556772227,"2022-05-12"
"黄浦区","上海市黄浦区静修路114弄",121.49302979829275,31.2257417798045,"2022-05-12"
"黄浦区","上海市黄浦区局门后路5号",121.48708121920568,31.21525368581015,"2022-05-12"
"黄浦区","上海市黄浦区局门后路77号",121.48715254466318,31.214357678242408,"2022-05-12"
"黄浦区","上海市黄浦区局门路295弄",121.48918909308485,31.210922426988578,"2022-05-12"
"黄浦区","上海市黄浦区局门路434弄",121.48772763985068,31.208410534000432,"2022-05-12"
"黄浦区","上海市黄浦区丽园路333弄",121.49070920566882,31.21505942931798,"2022-05-12"
"黄浦区","上海市黄浦区丽园路488弄",121.48928602024937,31.21314185831155,"2022-05-12"
"黄浦区","上海市黄浦区龙华东路888弄",121.47773012833846,31.19906060703334,"2022-05-12"
"黄浦区","上海市黄浦区鲁班路509弄",121.48325407841098,31.206749413937416,"2022-05-12"
"黄浦区","上海市黄浦区鲁班路788号",121.48562596427952,31.19808212533524,"2022-05-12"
"黄浦区","上海市黄浦区陆家浜路413弄",121.50586370945271,31.217303468719948,"2022-05-12"
"黄浦区","上海市黄浦区马当路278弄",121.48038956180075,31.223680369859316,"2022-05-12"
"黄浦区","上海市黄浦区马当路306弄",121.48012563964191,31.223088619009204,"2022-05-12"
"黄浦区","上海市黄浦区马当路318弄",121.48114997741496,31.223044305096334,"2022-05-12"
"黄浦区","上海市黄浦区马园街1号",121.50107196820139,31.23197382943421,"2022-05-12"
"黄浦区","上海市黄浦区茂名南路151号",121.46860154774608,31.222852072025784,"2022-05-12"
"黄浦区","上海市黄浦区南车站路192弄",121.4977067360999,31.214937439740865,"2022-05-12"
"黄浦区","上海市黄浦区南车站路1号",121.49671267122257,31.217515941295574,"2022-05-12"
"黄浦区","上海市黄浦区南车站路450弄",121.50015381013964,31.21062068218494,"2022-05-12"
"黄浦区","上海市黄浦区南塘浜路125弄",121.47933432231818,31.2095512098521,"2022-05-12"
"黄浦区","上海市黄浦区宁波路51号",121.49250078617793,31.24520960382349,"2022-05-12"
"黄浦区","上海市黄浦区宁波路540号",121.48389996007263,31.242886037820316,"2022-05-12"
"黄浦区","上海市黄浦区宁波路567号",121.48334983777833,31.242552518310145,"2022-05-12"
"黄浦区","上海市黄浦区宁海东路266弄",121.48705220393771,31.23413563896349,"2022-05-12"
"黄浦区","上海市黄浦区牌楼路27号",121.49287861347543,31.219835659560093,"2022-05-12"
"黄浦区","上海市黄浦区蓬莱路405弄",121.49387914615244,31.2220148113367,"2022-05-12"
"黄浦区","上海市黄浦区普育东路101弄",121.50287621481819,31.21521747507171,"2022-05-12"
"黄浦区","上海市黄浦区普育东路200弄",121.50230875522753,31.21362364824667,"2022-05-12"
"黄浦区","上海市黄浦区普育东路7号",121.50278943850591,31.21707277483961,"2022-05-12"
"黄浦区","上海市黄浦区瞿溪路1145弄",121.4794539766121,31.204640560538927,"2022-05-12"
"黄浦区","上海市黄浦区瞿溪路116号",121.50155103452987,31.212322886942978,"2022-05-12"
"黄浦区","上海市黄浦区瞿溪路1200弄",121.47791751486785,31.202302396543868,"2022-05-12"
"黄浦区","上海市黄浦区瞿溪路120弄",121.5017221617295,31.212085926699476,"2022-05-12"
"黄浦区","上海市黄浦区瞿溪路129号",121.50038826787774,31.21182194193579,"2022-05-12"
"黄浦区","上海市黄浦区瞿溪路301弄",121.49833546012634,31.210375378694277,"2022-05-12"
"黄浦区","上海市黄浦区瞿溪路57号",121.50273796560019,31.212925669714345,"2022-05-12"
"黄浦区","上海市黄浦区瞿溪路883弄",121.4857689745167,31.2063427195683,"2022-05-12"
"黄浦区","上海市黄浦区瞿溪路884号",121.48572612534389,31.205978646691694,"2022-05-12"
"黄浦区","上海市黄浦区瞿溪路904弄",121.4856468947979,31.20580761302777,"2022-05-12"
"黄浦区","上海市黄浦区瞿溪路926弄",121.48473448589141,31.205434117660975,"2022-05-12"
"黄浦区","上海市黄浦区瞿溪路937弄",121.48468409095231,31.206350981651095,"2022-05-12"
"黄浦区","上海市黄浦区瞿溪路968弄",121.48450981968337,31.204913522709084,"2022-05-12"
"黄浦区","上海市黄浦区汝南街70弄",121.49138401276792,31.208191323125448,"2022-05-12"
"黄浦区","上海市黄浦区汝南街84号",121.49023481052902,31.208304750725752,"2022-05-12"
"黄浦区","上海市黄浦区厦门路48号",121.48404827031234,31.24614282689455,"2022-05-12"
"黄浦区","上海市黄浦区山西南路31弄",121.48985779170647,31.240518262823,"2022-05-12"
"黄浦区","上海市黄浦区陕西南路271弄",121.46934498538613,31.21423985704883,"2022-05-12"
"黄浦区","上海市黄浦区尚文路133弄",121.49799257691318,31.221508436760633,"2022-05-12"
"黄浦区","上海市黄浦区顺昌路485号",121.48595654070719,31.21898084628515,"2022-05-12"
"黄浦区","上海市黄浦区顺昌路487号",121.48604996448022,31.2190202209843,"2022-05-12"
"黄浦区","上海市黄浦区四牌楼路146号",121.50204582120475,31.228724961495157,"2022-05-12"
"黄浦区","上海市黄浦区四牌楼路95弄",121.50207604918516,31.229580534937064,"2022-05-12"
"黄浦区","上海市黄浦区泗泾路29号",121.49320469837555,31.23893922399306,"2022-05-12"
"黄浦区","上海市黄浦区天津路170弄",121.48959440853095,31.24451170649469,"2022-05-12"
"黄浦区","上海市黄浦区威海路172弄",121.47452048275132,31.233857667253474,"2022-05-12"
"黄浦区","上海市黄浦区五里桥路210弄",121.48718425484768,31.209619311768297,"2022-05-12"
"黄浦区","上海市黄浦区五里桥路252号",121.48682762756022,31.209417013414257,"2022-05-12"
"黄浦区","上海市黄浦区五里桥路254号",121.48667599359014,31.209366593183937,"2022-05-12"
"黄浦区","上海市黄浦区五里桥路269弄",121.48593902374974,31.209584102620525,"2022-05-12"
"黄浦区","上海市黄浦区西仓桥街161弄",121.49530475699677,31.22575390016163,"2022-05-12"
"黄浦区","上海市黄浦区西藏南路1090弄",121.49265879811713,31.216956115167616,"2022-05-12"
"黄浦区","上海市黄浦区西藏南路1341弄",121.4946357888835,31.211611849990653,"2022-05-12"
"黄浦区","上海市黄浦区西藏南路1374弄",121.493515512082,31.211693925657812,"2022-05-12"
"黄浦区","上海市黄浦区西藏南路1383弄",121.49478679403973,31.21117313386863,"2022-05-12"
"黄浦区","上海市黄浦区西藏南路779号",121.49191598929094,31.221382595421016,"2022-05-12"
"黄浦区","上海市黄浦区西藏中路500号",121.48130215036834,31.242235747000603,"2022-05-12"
"黄浦区","上海市黄浦区西凌家宅路111弄",121.49301659320176,31.210318627559108,"2022-05-12"
"黄浦区","上海市黄浦区西凌家宅路137弄",121.49180415025494,31.20989110123533,"2022-05-12"
"黄浦区","上海市黄浦区西凌家宅路27弄",121.49375212575332,31.210565784292413,"2022-05-12"
"黄浦区","上海市黄浦区先棉祠街32弄",121.49794829045155,31.222769002512486,"2022-05-12"
"黄浦区","上海市黄浦区斜土东路265弄",121.49341975271463,31.213289483952547,"2022-05-12"
"黄浦区","上海市黄浦区斜土东路68弄",121.49727096809701,31.21408003382973,"2022-05-12"
"黄浦区","上海市黄浦区斜土路118弄",121.48937099995062,31.211599882225087,"2022-05-12"
"黄浦区","上海市黄浦区斜土路195弄",121.4886325928214,31.21209418827557,"2022-05-12"
"黄浦区","上海市黄浦区斜土路22号",121.49057311238407,31.212251621347917,"2022-05-12"
"黄浦区","上海市黄浦区斜土路338号",121.48598286105863,31.210533509567018,"2022-05-12"
"黄浦区","上海市黄浦区斜土路352号",121.48572289144406,31.21041359882715,"2022-05-12"
"黄浦区","上海市黄浦区斜土路468号",121.48394927704514,31.209353852998927,"2022-05-12"
"黄浦区","上海市黄浦区斜土路74号",121.49013240370087,31.21211287333281,"2022-05-12"
"黄浦区","上海市黄浦区斜土路80弄",121.49047914962772,31.21070993944921,"2022-05-12"
"黄浦区","上海市黄浦区新昌路290号",121.4748523168067,31.241918202754274,"2022-05-12"
"黄浦区","上海市黄浦区新昌路300弄",121.4747357167515,31.242144358587126,"2022-05-12"
"黄浦区","上海市黄浦区新昌路310弄",121.47466510993841,31.242175696178155,"2022-05-12"
"黄浦区","上海市黄浦区新闸路168号",121.47671655437912,31.24446026999239,"2022-05-12"
"黄浦区","上海市黄浦区学院路125号",121.5013124445864,31.228927681308956,"2022-05-12"
"黄浦区","上海市黄浦区学院路135号",121.50135107172333,31.22941031635631,"2022-05-12"
"黄浦区","上海市黄浦区学院路72号",121.50245104682031,31.228808102918983,"2022-05-12"
"黄浦区","上海市黄浦区延安东路151号",121.49251273364122,31.236546956783062,"2022-05-12"
"黄浦区","上海市黄浦区延安东路158弄",121.4955776622107,31.23813329181246,"2022-05-12"
"黄浦区","上海市黄浦区延安东路272弄",121.4937927291624,31.237142173279377,"2022-05-12"
"黄浦区","上海市黄浦区肇嘉浜路168弄",121.47033518754978,31.209930943034088,"2022-05-12"
"黄浦区","上海市黄浦区制造局路361号",121.49177423668145,31.2121371175751,"2022-05-12"
"黄浦区","上海市黄浦区制造局路455弄",121.49101040750632,31.210925129406952,"2022-05-12"
"黄浦区","上海市黄浦区制造局路567弄",121.49182867399537,31.209308606024834,"2022-05-12"
"黄浦区","上海市黄浦区中华路367号",121.50510571926338,31.225121555102913,"2022-05-12"
"黄浦区","上海市黄浦区中华路868弄",121.50512117011817,31.22900364322812,"2022-05-12"
"黄浦区","上海市黄浦区中山南路1586弄",121.501523995534,31.211132057209905,"2022-05-12"
"黄浦区","上海市黄浦区中山南路1671号",121.50116655977159,31.210134244041726,"2022-05-12"
"黄浦区","上海市黄浦区中山南路1726弄",121.49944953861981,31.209989701935054,"2022-05-12"
"黄浦区","上海市黄浦区中山南路969号",121.5120166530433,31.21737828197472,"2022-05-12"
"黄浦区","上海市黄浦区中山南一路1026号",121.47853438126155,31.20123823461411,"2022-05-12"
"黄浦区","上海市黄浦区中山南一路1050号",121.47701660427188,31.200547731377743,"2022-05-12"
"黄浦区","上海市黄浦区中山南一路1109弄",121.47688787709231,31.201485415311588,"2022-05-12"
"黄浦区","上海市黄浦区中山南一路247弄",121.49296071859904,31.20630496106852,"2022-05-12"
"静安区","上海市静安区保德路1238弄",121.45156644137705,31.32536178303074,"2022-05-12"
"静安区","上海市静安区保德路241弄",121.46949581088126,31.32350624194654,"2022-05-12"
"静安区","上海市静安区昌平路399号",121.45437238846802,31.24216604790617,"2022-05-12"
"静安区","上海市静安区长临路200弄",121.44093562448033,31.32007677536845,"2022-05-12"
"静安区","上海市静安区场中路2600弄",121.44826202455859,31.310232736781717,"2022-05-12"
"静安区","上海市静安区场中路2800弄",121.44719402913779,31.310472147835316,"2022-05-12"
"静安区","上海市静安区场中路2965弄",121.44406990223517,31.31112890535078,"2022-05-12"
"静安区","上海市静安区场中路3278弄",121.44012247833268,31.309968951984068,"2022-05-12"
"静安区","上海市静安区场中路3332弄",121.4374503787627,31.30971704451895,"2022-05-12"
"静安区","上海市静安区场中路3428弄",121.43299271733055,31.309174353620627,"2022-05-12"
"静安区","上海市静安区高平路860弄",121.43445848243117,31.298314935694535,"2022-05-12"
"静安区","上海市静安区共和新路1725弄",121.46434753217301,31.27720262432909,"2022-05-12"
"静安区","上海市静安区共和新路3616弄",121.45442898171515,31.308981912016453,"2022-05-12"
"静安区","上海市静安区共和新路619弄",121.4715034338655,31.26046625793751,"2022-05-12"
"静安区","上海市静安区海防路338弄",121.45322103029588,31.245084874933095,"2022-05-12"
"静安区","上海市静安区汉中路28弄",121.45343177276851,31.233844930401652,"2022-05-12"
"静安区","上海市静安区汉中路48号",121.46601406855514,31.24953626577337,"2022-05-12"
"静安区","上海市静安区汉中路78弄",121.46570002094884,31.24937495923268,"2022-05-12"
"静安区","上海市静安区恒丰北路100号",121.45802013765238,31.261691340682233,"2022-05-12"
"静安区","上海市静安区恒丰路710号",121.45761823576723,31.255682223549485,"2022-05-12"
"静安区","上海市静安区沪太路549号",121.45741090685551,31.263272927694082,"2022-05-12"
"静安区","上海市静安区沪太路631弄",121.45662632682311,31.26730614278311,"2022-05-12"
"静安区","上海市静安区沪太路651弄",121.4552847973745,31.267443805797818,"2022-05-12"
"静安区","上海市静安区华康路69弄",121.46500652909515,31.25081196688395,"2022-05-12"
"静安区","上海市静安区黄山路300号",121.47432411316683,31.27203333138129,"2022-05-12"
"静安区","上海市静安区江杨南路466弄",121.47443155050583,31.322721398879402,"2022-05-12"
"静安区","上海市静安区江杨南路550号",121.47406820545541,31.324509611355015,"2022-05-12"
"静安区","上海市静安区胶州路190弄",121.45031743739598,31.233942193589805,"2022-05-12"
"静安区","上海市静安区临汾路1320弄",121.44524264007846,31.31758578483791,"2022-05-12"
"静安区","上海市静安区临汾路99弄",121.45580204168715,31.31690084525303,"2022-05-12"
"静安区","上海市静安区岭南路50弄",121.46141645112452,31.312222436846458,"2022-05-12"
"静安区","上海市静安区柳营路319弄",121.46987678224804,31.273721070046967,"2022-05-12"
"静安区","上海市静安区洛川东路60号",121.47201483919234,31.278173103165848,"2022-05-12"
"静安区","上海市静安区洛川中路980号",121.45651035558177,31.270988249917387,"2022-05-12"
"静安区","上海市静安区毛家弄79号",121.45931094278319,31.26354479282146,"2022-05-12"
"静安区","上海市静安区茂名北路118弄",121.48669764275293,31.237833410093312,"2022-05-12"
"静安区","上海市静安区秣陵路228号",121.46121801543737,31.25325087001917,"2022-05-12"
"静安区","上海市静安区彭浦新村257号",121.4605601863124,31.312916588993545,"2022-05-12"
"静安区","上海市静安区彭浦新村316号",121.45936508066191,31.315013899754156,"2022-05-12"
"静安区","上海市静安区平顺路373弄",121.45785601723571,31.319893148164248,"2022-05-12"
"静安区","上海市静安区平顺路550弄",121.45966942656871,31.320962669361215,"2022-05-12"
"静安区","上海市静安区平顺路790弄",121.45939229931888,31.32375973165818,"2022-05-12"
"静安区","上海市静安区平型关路121弄",121.45832062084547,31.26603822910109,"2022-05-12"
"静安区","上海市静安区平型关路1545弄",121.49151408740578,31.272044056831866,"2022-05-12"
"静安区","上海市静安区普善路铁路新村30号",121.46133443583145,31.262183993051686,"2022-05-12"
"静安区","上海市静安区虬江路1258弄",121.4755991680077,31.256011605965373,"2022-05-12"
"静安区","上海市静安区虬江路1431弄",121.47242482582708,31.256164334672036,"2022-05-12"
"静安区","上海市静安区虬江路860号",121.4826619154188,31.258012262788395,"2022-05-12"
"静安区","上海市静安区陕西北路159弄",121.46183667844207,31.232603966754034,"2022-05-12"
"静安区","上海市静安区陕西北路640弄",121.45780445449944,31.239793546204435,"2022-05-12"
"静安区","上海市静安区少年村路479弄",121.43983591887499,31.306570612059296,"2022-05-12"
"静安区","上海市静安区谈家桥路163弄",121.45627185546886,31.266914604602174,"2022-05-12"
"静安区","上海市静安区谈家桥路85弄",121.45924623484296,31.266592051222077,"2022-05-12"
"静安区","上海市静安区万航渡路269弄",121.44559639278829,31.23251542511323,"2022-05-12"
"静安区","上海市静安区闻喜路806弄",121.45566999077718,31.315653889063245,"2022-05-12"
"静安区","上海市静安区武定路458号",121.4578010409385,31.240824851228435,"2022-05-12"
"静安区","上海市静安区武定西路1191弄",121.44180509438343,31.232710262928777,"2022-05-12"
"静安区","上海市静安区西宝兴路922弄",121.47445373865193,31.275670037316026,"2022-05-12"
"静安区","上海市静安区西藏北路1071弄",121.4725430428322,31.26684623572514,"2022-05-12"
"静安区","上海市静安区西藏北路867号",121.47401734183518,31.262662829527702,"2022-05-12"
"静安区","上海市静安区西康路520号",121.45413882903543,31.24044478025628,"2022-05-12"
"静安区","上海市静安区西康路894弄",121.44985112700574,31.24511181206521,"2022-05-12"
"静安区","上海市静安区延安西路433号",121.44469934490603,31.223537624301937,"2022-05-12"
"静安区","上海市静安区阳曲路391弄",121.46619247202942,31.318617310863207,"2022-05-12"
"静安区","上海市静安区永兴路888弄",121.46695764866281,31.257517118875455,"2022-05-12"
"静安区","上海市静安区永兴路973弄",121.46607605163531,31.257837928595784,"2022-05-12"
"静安区","上海市静安区余姚路298弄",121.44463745165639,31.242180713279193,"2022-05-12"
"静安区","上海市静安区芷江西路192号",121.47041765199559,31.263774677590156,"2022-05-12"
"静安区","上海市静安区芷江中路495弄",121.47506593385697,31.26513329351355,"2022-05-12"
"静安区","上海市静安区芷江中路680号",121.47451140986567,31.263905169162577,"2022-05-12"
"静安区","上海市静安区芷江中路684号",121.47439489964101,31.263851382888987,"2022-05-12"
"静安区","上海市静安区中华新路455弄",121.47442741830048,31.26149640890541,"2022-05-12"
"静安区","上海市静安区中华新路618号",121.4684924036266,31.259646311696255,"2022-05-12"
"静安区","上海市静安区中华新路893弄",121.46198462935958,31.261228396340947,"2022-05-12"
"静安区","上海市静安区中华新路927弄",121.46212395654418,31.260952897453105,"2022-05-12"
"静安区","上海市静安区中华新路939弄",121.46199801411167,31.261891982624878,"2022-05-12"
"静安区","上海市静安区中山北路255弄",121.4755179611896,31.270384838136735,"2022-05-12"
"静安区","上海市静安区中山北路899弄",121.46215180401498,31.268675047373453,"2022-05-12"
"静安区","上海市静安区中兴路1340弄",121.46757667098974,31.258286381233074,"2022-05-12"
"静安区","上海市静安区中兴路1385弄",121.46736062851458,31.258900057899563,"2022-05-12"
"徐汇区","上海市徐汇区漕溪北路850号",121.44255976084236,31.190087089081253,"2022-05-12"
"徐汇区","上海市徐汇区东安二村",121.45997781485028,31.19283107711445,"2022-05-12"
"徐汇区","上海市徐汇区东安四村",121.45666306751846,31.192661177850134,"2022-05-12"
"徐汇区","上海市徐汇区东安五村",121.45909351613304,31.19072466528382,"2022-05-12"
"徐汇区","上海市徐汇区丰谷路205弄",121.46272716869413,31.176347328833007,"2022-05-12"
"徐汇区","上海市徐汇区丰谷路220弄",121.45972637913803,31.174384473964274,"2022-05-12"
"徐汇区","上海市徐汇区丰谷路235号",121.46102829331365,31.17452466821153,"2022-05-12"
"徐汇区","上海市徐汇区复兴中路1199号",121.46519490376058,31.21889761892536,"2022-05-12"
"徐汇区","上海市徐汇区机场新村",121.45808804954895,31.17374220397558,"2022-05-12"
"徐汇区","上海市徐汇区凯旋路2120弄",121.43106962489477,31.19744356997338,"2022-05-12"
"徐汇区","上海市徐汇区凯旋路3021号",121.43690771240414,31.190050019091668,"2022-05-12"
"徐汇区","上海市徐汇区乐山路30弄",121.43751397879282,31.20196317259295,"2022-05-12"
"徐汇区","上海市徐汇区龙漕路58弄",121.4429188135547,31.174063223656315,"2022-05-12"
"徐汇区","上海市徐汇区龙吴路1717弄",121.45670573703019,31.13827071965649,"2022-05-12"
"徐汇区","上海市徐汇区龙吴路2888弄",121.46157679865804,31.11546419311615,"2022-05-12"
"徐汇区","上海市徐汇区罗城路700弄",121.4413512704398,31.155479194942767,"2022-05-12"
"徐汇区","上海市徐汇区钦州路777号",121.43435814170572,31.1835325008748,"2022-05-12"
"徐汇区","上海市徐汇区日晖六村",121.46622103814462,31.201232983658134,"2022-05-12"
"徐汇区","上海市徐汇区陕西南路550弄",121.4681321831171,31.214074938012466,"2022-05-12"
"徐汇区","上海市徐汇区天钥桥路901号",121.4510800089434,31.18778385644346,"2022-05-12"
"徐汇区","上海市徐汇区田林二村",121.42656183801516,31.176380001537815,"2022-05-12"
"徐汇区","上海市徐汇区宛南华侨新村",121.45684236929826,31.187054329316297,"2022-05-12"
"徐汇区","上海市徐汇区五原路212弄",121.45176586520026,31.218987099914948,"2022-05-12"
"徐汇区","上海市徐汇区斜土路1111弄",121.47257358521954,31.206677989669704,"2022-05-12"
"徐汇区","上海市徐汇区斜土路1969号",121.45804097834022,31.200726882784675,"2022-05-12"
"徐汇区","上海市徐汇区中山南二路918弄",121.45588342816636,31.19185183530758,"2022-05-12"
"长宁区","上海市长宁区北虹路1000弄",121.3833429226413,31.219659864512455,"2022-05-12"
"长宁区","上海市长宁区长宁路378号",121.43328709204616,31.230416029630327,"2022-05-12"
"长宁区","上海市长宁区长宁路491弄住宅",121.43327298864965,31.228760858219243,"2022-05-12"
"长宁区","上海市长宁区长宁支路133弄",121.4322014000068,31.233760326784317,"2022-05-12"
"长宁区","上海市长宁区程家桥路80弄住宅",121.37834448129213,31.194698326958374,"2022-05-12"
"长宁区","上海市长宁区定西路380弄",121.42929421388486,31.208338647715102,"2022-05-12"
"长宁区","上海市长宁区定西路439弄",121.42917491891313,31.20907820129889,"2022-05-12"
"长宁区","上海市长宁区定西路710弄",121.43231889836751,31.21343880797814,"2022-05-12"
"长宁区","上海市长宁区芙蓉江路555弄",121.40321901001619,31.22354920453375,"2022-05-12"
"长宁区","上海市长宁区福泉路255弄",121.36526129035316,31.21870267514456,"2022-05-12"
"长宁区","上海市长宁区虹桥路2328弄",121.37681960768894,31.195331495294433,"2022-05-12"
"长宁区","上海市长宁区娄山关路810弄",121.41238540927056,31.21899350795492,"2022-05-12"
"长宁区","上海市长宁区茅台路597弄",121.39652870006952,31.214776691207284,"2022-05-12"
"长宁区","上海市长宁区水城南路16弄",121.40175387372942,31.19811401823894,"2022-05-12"
"长宁区","上海市长宁区淞虹路685弄",121.36761134739781,31.218736954397215,"2022-05-12"
"长宁区","上海市长宁区宋园路58号",121.4200777790136,31.197797019282657,"2022-05-12"
"长宁区","上海市长宁区天山二村",121.41333321141413,31.21371128124563,"2022-05-12"
"长宁区","上海市长宁区万航渡路1424弄",121.42791387763822,31.231213150847626,"2022-05-12"
"长宁区","上海市长宁区万航渡路2088弄",121.41913033619221,31.228329479040568,"2022-05-12"
"长宁区","上海市长宁区武夷路491弄",121.42654099732732,31.220824645308458,"2022-05-12"
"长宁区","上海市长宁区仙霞路1225弄",121.38150310312632,31.213795671360057,"2022-05-12"
"长宁区","上海市长宁区仙霞路88号",121.41085298990109,31.211497577069906,"2022-05-12"
"长宁区","上海市长宁区仙霞西路700弄住宅",121.3635668166697,31.21531336787089,"2022-05-12"
"长宁区","上海市长宁区新泾三村",121.37673184324062,31.220960601080296,"2022-05-12"
"长宁区","上海市长宁区延安西路1428号",121.42987559721092,31.215386329717518,"2022-05-12"
"长宁区","上海市长宁区延安西路2055弄",121.4155954141799,31.21089270038145,"2022-05-12"
"长宁区","上海市长宁区愚园路1355弄住宅",121.43026106010525,31.224959974853633,"2022-05-12"
"长宁区","上海市长宁区玉屏南路345弄",121.41376556585607,31.218617594602872,"2022-05-12"
"长宁区","上海市长宁区中山西路1410弄",121.42265169379134,31.201650588178886,"2022-05-12"
"长宁区","上海市长宁区遵义路435弄",121.4141684558773,31.217472937255774,"2022-05-12"
"长宁区","上海市长宁区遵义路800弄住宅",121.41656495531682,31.221725609177632,"2022-05-12"
"普陀区","上海市普陀区昌化路994弄",121.4511384886321,31.252354068630236,"2022-05-12"
"普陀区","上海市普陀区古浪路518弄",121.39177846053275,31.291961022461667,"2022-05-12"
"普陀区","上海市普陀区黄陵路151弄",121.43257015441866,31.26789591625602,"2022-05-12"
"普陀区","上海市普陀区礼泉路689弄",121.41498672236635,31.259756358546216,"2022-05-12"
"普陀区","上海市普陀区平利路21弄",121.43613678661546,31.27602920951366,"2022-05-12"
"普陀区","上海市普陀区石岚新村",121.42942276140334,31.255995630790647,"2022-05-12"
"普陀区","上海市普陀区水泉路99弄",121.40826083952149,31.272752242490622,"2022-05-12"
"普陀区","上海市普陀区普陀一村",121.42863351018228,31.242139341484133,"2022-05-12"
"普陀区","上海市普陀区新村路350弄",121.43877475057607,31.271880860094644,"2022-05-12"
"普陀区","上海市普陀区延长西路220弄",121.44482223309979,31.270641867339766,"2022-05-12"
"普陀区","上海市普陀区宜川三村",121.44741950382078,31.263551892325964,"2022-05-12"
"普陀区","上海市普陀区真光路962弄",121.38837388264994,31.247393335838826,"2022-05-12"
"普陀区","上海市普陀区真如西村",121.40580693835987,31.252311620846957,"2022-05-12"
"普陀区","上海市普陀区中联路1号",121.35396923077055,31.281110017151814,"2022-05-12"
"普陀区","上海市普陀区中山北路3904弄",121.41799972887736,31.232423100871948,"2022-05-12"
"虹口区","上海市虹口区保宁路71弄",121.50208301105286,31.29599184163938,"2022-05-12"
"虹口区","上海市虹口区北苏州路370弄",121.52102396239185,31.231473838735862,"2022-05-12"
"虹口区","上海市虹口区场中路239弄",121.48652741385878,31.313663799441937,"2022-05-12"
"虹口区","上海市虹口区场中路633号",121.4793808545436,31.312916974632202,"2022-05-12"
"虹口区","上海市虹口区场中路688号",121.4743300419832,31.31215888310284,"2022-05-12"
"虹口区","上海市虹口区赤峰路327号",121.49997181344332,31.28768932593722,"2022-05-12"
"虹口区","上海市虹口区大连西路155弄",121.51382889457913,31.26899797938246,"2022-05-12"
"虹口区","上海市虹口区东宝兴路835弄",121.480857668802,31.26947724392173,"2022-05-12"
"虹口区","上海市虹口区东汉阳路490号",121.50458003087896,31.25813288426385,"2022-05-12"
"虹口区","上海市虹口区东体育会路100弄",121.49158083150516,31.28372071841317,"2022-05-12"
"虹口区","上海市虹口区东体育会路87号",121.48801392981669,31.279740446084467,"2022-05-12"
"虹口区","上海市虹口区东体育会路880弄",121.49458728038596,31.290471802459454,"2022-05-12"
"虹口区","上海市虹口区东余杭路1168弄",121.53211722696511,31.273637814234768,"2022-05-12"
"虹口区","上海市虹口区峨嵋路299弄",121.4972737528441,31.255425461896817,"2022-05-12"
"虹口区","上海市虹口区广中二村",121.48536123364572,31.284664435240984,"2022-05-12"
"虹口区","上海市虹口区海宁路570弄",121.4891624134112,31.2542914421217,"2022-05-12"
"虹口区","上海市虹口区恒业路388弄",121.47953536309132,31.27138694709741,"2022-05-12"
"虹口区","上海市虹口区横浜路323号",121.48301512914531,31.271935567685123,"2022-05-12"
"虹口区","上海市虹口区横浜路63弄",121.51883706993986,31.28281172820514,"2022-05-12"
"虹口区","上海市虹口区虹湾路313弄",121.47669402276325,31.31902984095549,"2022-05-12"
"虹口区","上海市虹口区虹湾路55弄",121.48246132379842,31.318409464107344,"2022-05-12"
"虹口区","上海市虹口区虹镇老街207号",121.5095310416972,31.271604698157944,"2022-05-12"
"虹口区","上海市虹口区花园路168弄",121.48037779399857,31.277573672802884,"2022-05-12"
"虹口区","上海市虹口区江杨南路55弄",121.47472224216885,31.314233921306663,"2022-05-12"
"虹口区","上海市虹口区蒋家桥路10号",121.5038589610461,31.27823405673935,"2022-05-12"
"虹口区","上海市虹口区蒋家桥路12号",121.50360375245072,31.278346705010986,"2022-05-12"
"虹口区","上海市虹口区奎照路33号",121.49032059870521,31.3064110237937,"2022-05-12"
"虹口区","上海市虹口区凉城路585弄",121.47745884007445,31.299088953258693,"2022-05-12"
"虹口区","上海市虹口区欧阳路196号",121.49504703314597,31.27241319676866,"2022-05-12"
"虹口区","上海市虹口区青云路167弄",121.48178732517428,31.271130305755726,"2022-05-12"
"虹口区","上海市虹口区三门路759弄",121.48538054721419,31.317284847020417,"2022-05-12"
"虹口区","上海市虹口区山阴路133弄",121.4913996432838,31.271848760844684,"2022-05-12"
"虹口区","上海市虹口区山阴路229弄",121.49203966509202,31.273221630503624,"2022-05-12"
"虹口区","上海市虹口区山阴路69弄",121.49398083433617,31.27074611404702,"2022-05-12"
"虹口区","上海市虹口区商业二村",121.4871048446406,31.290100496652226,"2022-05-12"
"虹口区","上海市虹口区四川北路1156弄",121.52893381189887,31.2359721921938,"2022-05-12"
"虹口区","上海市虹口区四川北路1545弄",121.48867687928306,31.26148799735084,"2022-05-12"
"虹口区","上海市虹口区四川北路1661号",121.4893968711493,31.262956612433136,"2022-05-12"
"虹口区","上海市虹口区四川北路1774弄",121.4900271222951,31.265406773735187,"2022-05-12"
"虹口区","上海市虹口区四川北路1906弄",121.4918942502976,31.267938202631782,"2022-05-12"
"虹口区","上海市虹口区四川北路1953弄",121.48848104868188,31.268984398512814,"2022-05-12"
"虹口区","上海市虹口区四川北路1999弄",121.49037431737472,31.26948364850286,"2022-05-12"
"虹口区","上海市虹口区四平路52弄",121.49526352477386,31.26301225127707,"2022-05-12"
"虹口区","上海市虹口区四平路621弄",121.5005054967468,31.277798353549326,"2022-05-12"
"虹口区","上海市虹口区唐山路708弄",121.51396462854169,31.26286586162634,"2022-05-12"
"虹口区","上海市虹口区天宝西路241弄",121.50037164922581,31.28001504086819,"2022-05-12"
"虹口区","上海市虹口区吴家湾路52弄",121.49227189793399,31.298178706704586,"2022-05-12"
"虹口区","上海市虹口区武进路236号",121.49264828794267,31.258249029555373,"2022-05-12"
"虹口区","上海市虹口区新港路143号",121.50881985322495,31.274085033648458,"2022-05-12"
"虹口区","上海市虹口区新嘉路1弄",121.51158645453457,31.269746698931357,"2022-05-12"
"虹口区","上海市虹口区新市北路1508弄",121.4875827431719,31.31190860125206,"2022-05-12"
"虹口区","上海市虹口区新市南路1141弄",121.48759370249913,31.303893905097002,"2022-05-12"
"虹口区","上海市虹口区新市南路1145弄",121.48790514501944,31.304163955006175,"2022-05-12"
"虹口区","上海市虹口区新市南路1225弄",121.48799470607878,31.30661689183392,"2022-05-12"
"虹口区","上海市虹口区幸福村",121.50390998479907,31.279153910773882,"2022-05-12"
"虹口区","上海市虹口区逸仙路810弄",121.4915352874158,31.315594039682782,"2022-05-12"
"杨浦区","上海市杨浦区安图新村",121.54711785101514,31.29681848867539,"2022-05-12"
"杨浦区","上海市杨浦区鞍山六村",121.5117733919112,31.27971544781173,"2022-05-12"
"杨浦区","上海市杨浦区鞍山四村",121.5163232194887,31.282015955270047,"2022-05-12"
"杨浦区","上海市杨浦区包头路1150弄",121.54385673252227,31.336952892466574,"2022-05-12"
"杨浦区","上海市杨浦区包头南路629弄",121.54559109097038,31.305988410533338,"2022-05-12"
"杨浦区","上海市杨浦区长白路181号",121.54928600119402,31.293741127608104,"2022-05-12"
"杨浦区","上海市杨浦区长白三村",121.54556126722746,31.29484111147227,"2022-05-12"
"杨浦区","上海市杨浦区长海路442弄",121.52899462718189,31.31488571626265,"2022-05-12"
"杨浦区","上海市杨浦区长海一村",121.53609869664645,31.317592263242574,"2022-05-12"
"杨浦区","上海市杨浦区长岭路60弄",121.5260519579923,31.286586866158164,"2022-05-12"
"杨浦区","上海市杨浦区长阳路2080号",121.54787143950747,31.278725155914803,"2022-05-12"
"杨浦区","上海市杨浦区长阳路3400号",121.54231667755596,31.276406512439934,"2022-05-12"
"杨浦区","上海市杨浦区打虎山路118弄",121.51403406755762,31.279298577481207,"2022-05-12"
"杨浦区","上海市杨浦区定海路154弄",121.56420964046184,31.279616766293245,"2022-05-12"
"杨浦区","上海市杨浦区敦化路2弄",121.53251993732523,31.265524144657057,"2022-05-12"
"杨浦区","上海市杨浦区敦化路3弄",121.53251993732523,31.265524144657057,"2022-05-12"
"杨浦区","上海市杨浦区飞虹路1047弄",121.52177791020638,31.273490129506747,"2022-05-12"
"杨浦区","上海市杨浦区飞虹路600弄",121.51588906843571,31.271457318863494,"2022-05-12"
"杨浦区","上海市杨浦区凤城二村",121.52513433891386,31.284134020032397,"2022-05-12"
"杨浦区","上海市杨浦区凤城路祝家宅",121.53067158390792,31.282972265183467,"2022-05-12"
"杨浦区","上海市杨浦区凤城三村",121.5282979912589,31.28782287004112,"2022-05-12"
"杨浦区","上海市杨浦区阜新路169弄",121.51353317240525,31.28312610710616,"2022-05-12"
"杨浦区","上海市杨浦区阜新路20弄",121.51097398983786,31.27886480815453,"2022-05-12"
"杨浦区","上海市杨浦区国定路600弄",121.51179836480438,31.310211294653506,"2022-05-12"
"杨浦区","上海市杨浦区国定路700弄",121.51044866077564,31.312403611055103,"2022-05-12"
"杨浦区","上海市杨浦区国权后路15弄",121.51218319888484,31.29477623446126,"2022-05-12"
"杨浦区","上海市杨浦区国权后路25弄",121.51034580479474,31.295658357377675,"2022-05-12"
"杨浦区","上海市杨浦区河间路827弄",121.549122150269,31.27746742763256,"2022-05-12"
"杨浦区","上海市杨浦区浣纱三村",121.54221768428876,31.307219066741858,"2022-05-12"
"杨浦区","上海市杨浦区黄兴路1007号",121.53078135684123,31.285773784086203,"2022-05-12"
"杨浦区","上海市杨浦区黄兴路1019弄",121.53061849405228,31.28617210954992,"2022-05-12"
"杨浦区","上海市杨浦区黄兴路103弄",121.52747598183024,31.293990969623646,"2022-05-12"
"杨浦区","上海市杨浦区黄兴路1413弄",121.52971434955647,31.28794761904013,"2022-05-12"
"杨浦区","上海市杨浦区黄兴路221号",121.53537618952477,31.278968505594108,"2022-05-12"
"杨浦区","上海市杨浦区霍山路1191弄",121.53347205133527,31.270727903675752,"2022-05-12"
"杨浦区","上海市杨浦区江浦路1424弄",121.52652581414881,31.27947487767225,"2022-05-12"
"杨浦区","上海市杨浦区江浦路2009弄",121.52312689559072,31.285912114233586,"2022-05-12"
"杨浦区","上海市杨浦区锦西路150弄",121.51586939554505,31.28046423576434,"2022-05-12"
"杨浦区","上海市杨浦区靖宇东路25弄",121.55019095416478,31.299431681927214,"2022-05-12"
"杨浦区","上海市杨浦区靖宇南路99弄",121.53249828816244,31.2892892967162,"2022-05-12"
"杨浦区","上海市杨浦区军工路2866号",121.54902585191834,31.341007751583398,"2022-05-12"
"杨浦区","上海市杨浦区军工路601号",121.55604709761488,31.297602315481832,"2022-05-12"
"杨浦区","上海市杨浦区开鲁二村",121.53419096523491,31.32814622068962,"2022-05-12"
"杨浦区","上海市杨浦区开鲁六村",121.53586001687245,31.33369741949098,"2022-05-12"
"杨浦区","上海市杨浦区开鲁路320弄",121.5422080724198,31.330946923089286,"2022-05-12"
"杨浦区","上海市杨浦区开鲁四村",121.53691498686335,31.332001974649078,"2022-05-12"
"杨浦区","上海市杨浦区控江二村",121.53254086784362,31.285566404206357,"2022-05-12"
"杨浦区","上海市杨浦区控江六村",121.53662303757261,31.29061190000752,"2022-05-12"
"杨浦区","上海市杨浦区控江路120号",121.5538134609643,31.29510007906808,"2022-05-12"
"杨浦区","上海市杨浦区控江路1525弄",121.52780733678935,31.281330523083064,"2022-05-12"
"杨浦区","上海市杨浦区控江路2026弄",121.51731279283848,31.27918932520456,"2022-05-12"
"杨浦区","上海市杨浦区控江路2200号",121.51456694238614,31.278054745100654,"2022-05-12"
"杨浦区","上海市杨浦区控江路2202号",121.51438422704541,31.278272326304407,"2022-05-12"
"杨浦区","上海市杨浦区控江路288弄",121.55285353169636,31.29464948887446,"2022-05-12"
"杨浦区","上海市杨浦区控江路645弄",121.54624442856779,31.290339265048075,"2022-05-12"
"杨浦区","上海市杨浦区控江路652弄",121.54777064962924,31.291775025551146,"2022-05-12"
"杨浦区","上海市杨浦区控江路740弄",121.54571469780855,31.290372360845378,"2022-05-12"
"杨浦区","上海市杨浦区控江路802弄",121.5427833472684,31.28912489575596,"2022-05-12"
"杨浦区","上海市杨浦区控江路874弄",121.54260224887759,31.289039647842312,"2022-05-12"
"杨浦区","上海市杨浦区控江路888弄",121.54022425453157,31.289846452580182,"2022-05-12"
"杨浦区","上海市杨浦区控江路980弄",121.53797489753458,31.28666455566765,"2022-05-12"
"杨浦区","上海市杨浦区控江七村",121.53858996731726,31.28914186818196,"2022-05-12"
"杨浦区","上海市杨浦区控江四村",121.53155497754642,31.290911920976683,"2022-05-12"
"杨浦区","上海市杨浦区控江五村",121.53661728841736,31.29349226207843,"2022-05-12"
"杨浦区","上海市杨浦区兰州路1151弄",121.53252802207483,31.273410500026724,"2022-05-12"
"杨浦区","上海市杨浦区辽源西路230弄",121.5159853667864,31.2753671896529,"2022-05-12"
"杨浦区","上海市杨浦区隆昌路362号",121.55261386378629,31.277566574363895,"2022-05-12"
"杨浦区","上海市杨浦区眉州路100弄",121.54449668536758,31.264155271069722,"2022-05-12"
"杨浦区","上海市杨浦区眉州路420弄",121.54119972448485,31.268377578549504,"2022-05-12"
"杨浦区","上海市杨浦区眉州路474弄",121.54041038343324,31.269453554684116,"2022-05-12"
"杨浦区","上海市杨浦区民府路175号",121.52237012574095,31.318992526670428,"2022-05-12"
"杨浦区","上海市杨浦区民京路658弄",121.52696445672933,31.32663899324886,"2022-05-12"
"杨浦区","上海市杨浦区民星路162号",121.55707520827103,31.318374218804458,"2022-05-12"
"杨浦区","上海市杨浦区民星路201号",121.553966172901,31.31766383415939,"2022-05-12"
"杨浦区","上海市杨浦区民星路350弄",121.5479888480376,31.318375221406264,"2022-05-12"
"杨浦区","上海市杨浦区民壮路6号",121.52214819173759,31.321033389359812,"2022-05-12"
"杨浦区","上海市杨浦区南翔殷路81号",121.5590613617536,31.311844198879808,"2022-05-12"
"杨浦区","上海市杨浦区内江路222弄",121.55408196448124,31.285799860839088,"2022-05-12"
"杨浦区","上海市杨浦区平凉路1777弄",121.54903483497344,31.274901381024772,"2022-05-12"
"杨浦区","上海市杨浦区平凉路1782弄",121.55116858005128,31.273288355062544,"2022-05-12"
"杨浦区","上海市杨浦区平凉路1889弄",121.55023865418735,31.275817718597352,"2022-05-12"
"杨浦区","上海市杨浦区平凉路1975弄",121.55243932302571,31.27653351426814,"2022-05-12"
"杨浦区","上海市杨浦区平凉路2545弄",121.54582545887793,31.272526392188638,"2022-05-12"
"杨浦区","上海市杨浦区平凉路2625弄",121.55996847065758,31.284878992158845,"2022-05-12"
"杨浦区","上海市杨浦区平凉路608号",121.53087244501994,31.2627592138819,"2022-05-12"
"杨浦区","上海市杨浦区秦皇岛路32号",121.52317522442715,31.256576600606934,"2022-05-12"
"杨浦区","上海市杨浦区虬江码头路118号",121.56133158557095,31.31298521301489,"2022-05-12"
"杨浦区","上海市杨浦区虬江码头路2号",121.56166680705475,31.315829426457604,"2022-05-12"
"杨浦区","上海市杨浦区三门路358弄",121.49919954019639,31.31697804677975,"2022-05-12"
"杨浦区","上海市杨浦区世界路65弄",121.53208982864707,31.32485704804849,"2022-05-12"
"杨浦区","上海市杨浦区市光路143弄",121.52296555992112,31.319999345041687,"2022-05-12"
"杨浦区","上海市杨浦区市光路176号",121.54156883821891,31.3266541080579,"2022-05-12"
"杨浦区","上海市杨浦区市光路390弄",121.5254261085435,31.323658860264374,"2022-05-12"
"杨浦区","上海市杨浦区市光三村",121.54755658342621,31.325646962871275,"2022-05-12"
"杨浦区","上海市杨浦区双辽路200弄",121.52279892424902,31.278407427002413,"2022-05-12"
"杨浦区","上海市杨浦区双辽支路70弄",121.52344812964108,31.27646330064205,"2022-05-12"
"杨浦区","上海市杨浦区双阳路300弄",121.54121032448987,31.281000072607377,"2022-05-12"
"杨浦区","上海市杨浦区双阳支路31弄",121.5447859397418,31.280774628020882,"2022-05-12"
"杨浦区","上海市杨浦区四平路1028弄",121.51171805629178,31.284858238562652,"2022-05-12"
"杨浦区","上海市杨浦区松花江路215弄",121.54439742260872,31.30045824048134,"2022-05-12"
"杨浦区","上海市杨浦区松花一村",121.54763186142796,31.30123925976951,"2022-05-12"
"杨浦区","上海市杨浦区腾越路465弄",121.55641513338232,31.277369978252416,"2022-05-12"
"杨浦区","上海市杨浦区武川路75弄",121.49862112127852,31.307239815366085,"2022-05-12"
"杨浦区","上海市杨浦区延吉东路131弄",121.55148738867678,31.300192808141528,"2022-05-12"
"杨浦区","上海市杨浦区延吉东路137弄",121.55137761574345,31.299151281680984,"2022-05-12"
"杨浦区","上海市杨浦区延吉东路149弄",121.55138475727226,31.29787859338383,"2022-05-12"
"杨浦区","上海市杨浦区延吉西路80弄",121.52891620511086,31.28660916235966,"2022-05-12"
"杨浦区","上海市杨浦区延吉新村",121.53950677792076,31.290322987157445,"2022-05-12"
"杨浦区","上海市杨浦区延吉中路365弄",121.53266420519014,31.287438592701548,"2022-05-12"
"杨浦区","上海市杨浦区延吉中路95号",121.53910298959401,31.290372437991746,"2022-05-12"
"杨浦区","上海市杨浦区永吉路97弄",121.54042251055762,31.289893820704354,"2022-05-12"
"杨浦区","上海市杨浦区政府路130号",121.52092847251615,31.31523316869969,"2022-05-12"
"杨浦区","上海市杨浦区政府路132号",121.52073601056063,31.315266139979137,"2022-05-12"
"杨浦区","上海市杨浦区中山北二路99弄",121.52629252420786,31.290833154958047,"2022-05-12"
"杨浦区","上海市杨浦区周家嘴路1683弄",121.51940108365751,31.27205293040515,"2022-05-12"
"杨浦区","上海市杨浦区周家嘴路3900弄",121.55367269649089,31.287652911798318,"2022-05-12"
"杨浦区","上海市杨浦区周家嘴路4500号",121.56171091385528,31.292802748350613,"2022-05-12"
"宝山区","上海市宝山区爱辉路305号",121.46009288778612,31.340984466024743,"2022-05-12"
"宝山区","上海市宝山区宝荻路500弄",121.39991531184214,31.367345079552507,"2022-05-12"
"宝山区","上海市宝山区宝杨路868号",121.49226111826788,31.404076743684485,"2022-05-12"
"宝山区","上海市宝山区长江西路1160弄",121.46681823164766,31.344094270259554,"2022-05-12"
"宝山区","上海市宝山区长江西路1251号",121.46314497058681,31.344316863278745,"2022-05-12"
"宝山区","上海市宝山区场北路550弄",121.43433487559301,31.338392407704685,"2022-05-12"
"宝山区","上海市宝山区场中路4098弄",121.42267961690891,31.308510262981834,"2022-05-12"
"宝山区","上海市宝山区大华一路198号",121.4205107622694,31.27594202068608,"2022-05-12"
"宝山区","上海市宝山区富联路128弄",121.4170625267388,31.35961683430447,"2022-05-12"
"宝山区","上海市宝山区顾北东路1号",121.42311162621243,31.36795156412828,"2022-05-12"
"宝山区","上海市宝山区顾北东路88弄",121.4138765964171,31.36403504402347,"2022-05-12"
"宝山区","上海市宝山区顾北东路501弄",121.41270861959305,31.36315615811293,"2022-05-12"
"宝山区","上海市宝山区顾北东路575弄",121.41259274988431,31.363044029886478,"2022-05-12"
"宝山区","上海市宝山区顾泾河路30弄",121.40871466346512,31.45923839431518,"2022-05-12"
"宝山区","上海市宝山区顾泾河路39号",121.40807533943367,31.458872612847493,"2022-05-12"
"宝山区","上海市宝山区红林路158弄",121.43232806108371,31.3718275608762,"2022-05-12"
"宝山区","上海市宝山区红林路576弄",121.42523504077693,31.370697884628964,"2022-05-12"
"宝山区","上海市宝山区沪太路1500弄",121.43042293475814,31.285255873577075,"2022-05-12"
"宝山区","上海市宝山区沪太路3717弄",121.40711154745202,31.35149576189261,"2022-05-12"
"宝山区","上海市宝山区华和路728弄",121.40185699920194,31.297451583035752,"2022-05-12"
"宝山区","上海市宝山区华灵路510弄",121.42724239426951,31.28071606789037,"2022-05-12"
"宝山区","上海市宝山区华灵路560弄",121.42864033730415,31.281212323327416,"2022-05-12"
"宝山区","上海市宝山区华灵路1210弄",121.42452915230719,31.285303321181072,"2022-05-12"
"宝山区","上海市宝山区华灵路1280弄",121.42265241243574,31.28404498713332,"2022-05-12"
"宝山区","上海市宝山区环镇北路300弄",121.41483068669925,31.313858159560102,"2022-05-12"
"宝山区","上海市宝山区环镇北路500弄",121.41213280576113,31.313236282883658,"2022-05-12"
"宝山区","上海市宝山区江杨北路1568弄",121.4470099663388,31.40520193079418,"2022-05-12"
"宝山区","上海市宝山区界华路100弄",121.42941764106193,31.30820843931174,"2022-05-12"
"宝山区","上海市宝山区菊联路89弄",121.3742624013937,31.35394205683223,"2022-05-12"
"宝山区","上海市宝山区菊联路262弄",121.36067903394677,31.34827418075293,"2022-05-12"
"宝山区","上海市宝山区菊太路1609弄",121.3556849942946,31.35174485811393,"2022-05-12"
"宝山区","上海市宝山区聚丰园路91弄",121.39170785371968,31.321183081131924,"2022-05-12"
"宝山区","上海市宝山区聚丰园路105弄",121.39141473663176,31.32172014947895,"2022-05-12"
"宝山区","上海市宝山区克山路12号",121.4743980437103,31.403834876375317,"2022-05-12"
"宝山区","上海市宝山区联谊路649弄",121.42477897106951,31.349267897690904,"2022-05-12"
"宝山区","上海市宝山区陆翔路698弄",121.37336652130858,31.359807552501792,"2022-05-12"
"宝山区","上海市宝山区罗溪路121号",121.35502896178066,31.418584548573275,"2022-05-12"
"宝山区","上海市宝山区湄星路1918号",121.41815369844176,31.382219538054557,"2022-05-12"
"宝山区","上海市宝山区盘古路895弄",121.4703324028027,31.407791974525647,"2022-05-12"
"宝山区","上海市宝山区盘古路2618弄",121.43687204967539,31.39565555358279,"2022-05-12"
"宝山区","上海市宝山区三泉路1858弄",121.44292932372917,31.338752726400713,"2022-05-12"
"宝山区","上海市宝山区三泉路1859弄",121.44266962360624,31.33768495147111,"2022-05-12"
"宝山区","上海市宝山区上大路99号",121.39745655983077,31.324153807693328,"2022-05-12"
"宝山区","上海市宝山区盛桥老街14弄",121.40823523781445,31.46073069074594,"2022-05-12"
"宝山区","上海市宝山区松兰路328弄",121.45521347191702,31.378549914581573,"2022-05-12"
"宝山区","上海市宝山区松兰路1000号",121.45081464949574,31.388045951895045,"2022-05-12"
"宝山区","上海市宝山区淞滨支路15弄",121.49485560424178,31.374860106468184,"2022-05-12"
"宝山区","上海市宝山区泰和西路3463弄",121.41246625676645,31.35640177856143,"2022-05-12"
"宝山区","上海市宝山区泰和西路3465号",121.41173880896446,31.354951825717762,"2022-05-12"
"宝山区","上海市宝山区通南路55弄",121.48349868700133,31.34457438276891,"2022-05-12"
"宝山区","上海市宝山区纬地路88弄",121.41132136639398,31.3330935649043,"2022-05-12"
"宝山区","上海市宝山区汶水路1585弄",121.42239567672098,31.295736193621245,"2022-05-12"
"宝山区","上海市宝山区新沪路198弄",121.4263408548597,31.275401139503494,"2022-05-12"
"宝山区","上海市宝山区新沪路960弄",121.42593212585267,31.27911039498447,"2022-05-12"
"宝山区","上海市宝山区殷高路21弄",121.49745512072656,31.328314331525767,"2022-05-12"
"宝山区","上海市宝山区友谊路181号",121.49025969359164,31.411081684427476,"2022-05-12"
"宝山区","上海市宝山区友谊路309号",121.48218392705694,31.408392724912428,"2022-05-12"
"宝山区","上海市宝山区友谊路327号",121.47930934942501,31.407545185726825,"2022-05-12"
"宝山区","上海市宝山区友谊路1111号",121.46825040012222,31.403774159029066,"2022-05-12"
"宝山区","上海市宝山区友谊路1869弄",121.45429702063572,31.401951926709412,"2022-05-12"
"宝山区","上海市宝山区真大路333弄",121.40816355303475,31.297893597144288,"2022-05-12"
"宝山区","上海市宝山区真大路561号",121.4191875582532,31.30314985608791,"2022-05-12"
"宝山区","上海市宝山区镇泰路211弄",121.45033423570902,31.38804379406011,"2022-05-12"
"宝山区","上海市宝山区宝钢十一村",121.49100349055391,31.416258136127276,"2022-05-12"
"宝山区","上海市宝山区宝林七村",121.50186768722213,31.41095756253673,"2022-05-12"
"宝山区","上海市宝山区北宗村",121.40980457754038,31.393912380499955,"2022-05-12"
"宝山区","上海市宝山区东街村",121.45082471051747,31.384928907125317,"2022-05-12"
"宝山区","上海市宝山区高境一村",121.48675163091407,31.32533533174659,"2022-05-12"
"宝山区","上海市宝山区共富一村",121.43647859186201,31.35861521045371,"2022-05-12"
"宝山区","上海市宝山区共富二村",121.43808296550284,31.35455387107869,"2022-05-12"
"宝山区","上海市宝山区共和二村",121.46739638107388,31.32806563534186,"2022-05-12"
"宝山区","上海市宝山区共康八村",121.43955951026958,31.330407825842034,"2022-05-12"
"宝山区","上海市宝山区呼玛五村",121.44550521477903,31.34705925506589,"2022-05-12"
"宝山区","上海市宝山区康家村",121.43171631503142,31.327048480321658,"2022-05-12"
"宝山区","上海市宝山区临江三村",121.49502682127199,31.416526088312732,"2022-05-12"
"宝山区","上海市宝山区湄浦村",121.43237764754785,31.394080989093933,"2022-05-12"
"宝山区","上海市宝山区祁连四村",121.38863654718106,31.321711820470192,"2022-05-12"
"宝山区","上海市宝山区羌家村",121.39682729682103,31.36633097424639,"2022-05-12"
"宝山区","上海市宝山区勤丰村",121.39903694871447,31.420418857930958,"2022-05-12"
"宝山区","上海市宝山区盛桥三村",121.40761558667367,31.45523589651462,"2022-05-12"
"宝山区","上海市宝山区泗塘一村",121.46039983877887,31.3447274291945,"2022-05-12"
"宝山区","上海市宝山区泗塘二村",121.46202424463257,31.342166470641395,"2022-05-12"
"宝山区","上海市宝山区泗塘三村",121.46200672767512,31.34064135033011,"2022-05-12"
"宝山区","上海市宝山区淞南五村",121.49163742475228,31.34488479304042,"2022-05-12"
"宝山区","上海市宝山区淞南九村",121.48257900182023,31.341373920083104,"2022-05-12"
"宝山区","上海市宝山区通河一村",121.45505887353875,31.341825055584014,"2022-05-12"
"宝山区","上海市宝山区通河二村",121.45689734559546,31.339738448835092,"2022-05-12"
"宝山区","上海市宝山区通河三村",121.45073901217181,31.340732873673815,"2022-05-12"
"宝山区","上海市宝山区通河四村",121.45156203968006,31.337385852010286,"2022-05-12"
"宝山区","上海市宝山区通河七村",121.45834577339976,31.335453981011785,"2022-05-12"
"宝山区","上海市宝山区通河九村",121.4548916090528,31.333018767166845,"2022-05-12"
"宝山区","上海市宝山区西街村",121.4439725259179,31.378533266725405,"2022-05-12"
"宝山区","上海市宝山区朱家弄村",121.3959866625248,31.347668338968923,"2022-05-12"
"闵行区","上海市闵行区报春路399弄",121.39523900284885,31.129921826050932,"2022-05-12"
"闵行区","上海市闵行区古美七村",121.41502615797822,31.150006645268725,"2022-05-12"
"闵行区","上海市闵行区顾戴路1199弄",121.39431931766772,31.14414311552845,"2022-05-12"
"闵行区","上海市闵行区鹤坡南路56弄",121.53705242760638,31.06530470413392,"2022-05-12"
"闵行区","上海市闵行区虹梅路2555弄",121.39905653177459,31.180873123788146,"2022-05-12"
"闵行区","上海市闵行区虹梅路2759弄",121.40004412885227,31.18280317236318,"2022-05-12"
"闵行区","上海市闵行区沪青平公路635弄",121.34572494212216,31.17757946040129,"2022-05-12"
"闵行区","上海市闵行区江玮路100弄",121.53708602423247,31.063109848004515,"2022-05-12"
"闵行区","上海市闵行区昆阳路3251弄",121.36795132377627,31.05035141719196,"2022-05-12"
"闵行区","上海市闵行区黎安路433号",121.37972185313058,31.135973478224145,"2022-05-12"
"闵行区","上海市闵行区黎安路486弄",121.36641704438915,31.131150866392773,"2022-05-12"
"闵行区","上海市闵行区黎明路155弄",121.38726456517567,31.13207486237308,"2022-05-12"
"闵行区","上海市闵行区梅陇一村",121.42046602665499,31.142594827275744,"2022-05-12"
"闵行区","上海市闵行区梅陇二村",121.41705551995581,31.14070474980123,"2022-05-12"
"闵行区","上海市闵行区平吉路88弄",121.41143176814116,31.155072509866677,"2022-05-12"
"闵行区","上海市闵行区平南路662号",121.40203558233733,31.158157910715016,"2022-05-12"
"闵行区","上海市闵行区浦航路36弄",121.55210802795362,31.05006911155449,"2022-05-12"
"闵行区","上海市闵行区七莘路秀文路口工地",121.3763243718613,31.1314139107416,"2022-05-12"
"闵行区","上海市闵行区莘东路25号",121.38588979842321,31.110048751282392,"2022-05-12"
"闵行区","上海市闵行区莘沥路550号",121.37249785988044,31.113270043073207,"2022-05-12"
"闵行区","上海市闵行区莘松三村",121.37728771469021,31.113392087638047,"2022-05-12"
"闵行区","上海市闵行区莘松五村",121.37559225287067,31.113113525904126,"2022-05-12"
"闵行区","上海市闵行区水清路1000弄",121.3831028055785,31.131613131774458,"2022-05-12"
"闵行区","上海市闵行区许浦村",121.3441344023862,31.230791664007622,"2022-05-12"
"闵行区","上海市闵行区益文路101弄",121.41775655757581,31.134922472885403,"2022-05-12"
"闵行区","上海市闵行区珠城路99弄",121.39145372309089,31.109700072829717,"2022-05-12"
"嘉定区","上海市嘉定区曹安公路2383弄32号",121.34661956457956,31.266541198805278,"2022-05-12"
"嘉定区","上海市嘉定区陈翔路1088号",121.33436784522061,31.321123389542166,"2022-05-12"
"嘉定区","上海市嘉定区丰庄路450弄",121.37165524931208,31.25213766191194,"2022-05-12"
"嘉定区","上海市嘉定区封周路508弄",121.27678026372301,31.337359172816072,"2022-05-12"
"嘉定区","上海市嘉定区鹤望路365弄",121.33189606777935,31.2520776946264,"2022-05-12"
"嘉定区","上海市嘉定区鹤友路305号",121.33098096395635,31.241787834860173,"2022-05-12"
"嘉定区","上海市嘉定区沪宜公路185号",121.32283530925297,31.29643100843164,"2022-05-12"
"嘉定区","上海市嘉定区联群村",121.25287581511918,31.28231376642631,"2022-05-12"
"嘉定区","上海市嘉定区瑞林路1280弄",121.31020576259652,31.318786904217994,"2022-05-12"
"嘉定区","上海市嘉定区喜泉路118弄",121.16403160357136,31.375983951517792,"2022-05-12"
"松江区","上海市松江区车亭公路128号",121.31735384903108,31.009160578669114,"2022-05-12"
"松江区","上海市松江区车香路253号",121.29209996589017,31.012120466966127,"2022-05-12"
"松江区","上海市松江区古楼公路1876弄",121.256427445614,31.11096801638375,"2022-05-12"
"松江区","上海市松江区沪亭南路501弄",121.33904172878904,31.125506560096127,"2022-05-12"
"松江区","上海市松江区江川南二路118弄",121.28518975075467,31.111135203714465,"2022-05-12"
"松江区","上海市松江区九亭大街704弄",121.32874157815051,31.133435775959036,"2022-05-12"
"松江区","上海市松江区九新公路28弄",121.23447959624146,31.037135176464492,"2022-05-12"
"松江区","上海市松江区联阳路12弄",121.29172968435896,31.02969829238405,"2022-05-12"
"松江区","上海市松江区虬泾路549号",121.3425057744966,31.13212702426454,"2022-05-12"
"松江区","上海市松江区影振路299号",121.31533301026172,31.011512848744893,"2022-05-12"
"松江区","上海市松江区中山二路182弄",121.23709582120871,31.016153264977557,"2022-05-12"
"青浦区","上海市青浦区福泉山路111弄",121.19576199994755,31.20600490013842,"2022-05-12"
"青浦区","上海市青浦区光联村",121.31758085083345,31.16595443656359,"2022-05-12"
"青浦区","上海市青浦区沪青平公路2095号",121.26934804325566,31.16419182933247,"2022-05-12"
"青浦区","上海市青浦区龙联路58弄",121.3036756205223,31.204284588875726,"2022-05-12"
"青浦区","上海市青浦区龙联路59弄",121.30450637345793,31.202863854656485,"2022-05-12"
"青浦区","上海市青浦区胜利路738号",121.11084967161689,31.176678226338424,"2022-05-12"
"青浦区","上海市青浦区崧泽大道333号",121.3086175584549,31.196205058244473,"2022-05-12"
"青浦区","上海市青浦区盈港东路1888弄",121.27650547206751,31.17799176360057,"2022-05-12"
"青浦区","上海市青浦区宅东新区",121.30722410694781,31.176939761215593,"2022-05-12"
"崇明区","上海市崇明区花博园北P1P2集中隔离点",121.48784792295845,31.70267693678262,"2022-05-12"
"崇明区","上海市崇明区花博园北P3保障点",121.48784792295845,31.70267693678262,"2022-05-12"
"崇明区","上海市崇明区长凯路128号",121.75031231160838,31.374132347703352,"2022-05-12"
"崇明区","上海市崇明区已对相关居住地落实终末消毒等措施",121.40355686271847,31.62856998440405,"2022-05-12"
"崇明区","上海市崇明区资料各区卫健委新闻办",121.40355686271847,31.62856998440405,"2022-05-12"
"崇明区","上海市崇明区编辑黄景源",121.40355686271847,31.62856998440405,"2022-05-12"
