"district","address","lng","lat","date"
"浦东新区","上海市浦东新区永泰路630弄",121.52411305538,31.1453658573196,2022-03-22
"浦东新区","上海市浦东新区华夏东路1668弄",121.687788990486,31.2033819900195,2022-03-22
"浦东新区","上海市浦东新区鹤驰路99弄",121.599741665756,31.0849672715556,2022-03-22
"浦东新区","上海市浦东新区莱阳路451弄",121.58929185742,31.2821589973274,2022-03-22
"浦东新区","上海市浦东新区北艾路1765弄",121.528398601476,31.1842654537065,2022-03-22
"浦东新区","上海市浦东新区孙耀路128弄",121.64091451067,31.1902130497072,2022-03-22
"浦东新区","上海市浦东新区东波路58弄",121.583778687013,31.2898925863562,2022-03-22
"浦东新区","上海市浦东新区长元村沈家宅",121.636122679588,31.1744137487032,2022-03-22
"浦东新区","上海市浦东新区华夏东路860弄",121.672341549276,31.2003301237338,2022-03-22
"浦东新区","上海市浦东新区南门大街70弄",121.763427572054,31.049802582764,2022-03-22
"浦东新区","上海市浦东新区下南路500弄",121.543720818899,31.1779675877605,2022-03-22
"浦东新区","上海市浦东新区果园银杏村",121.550454606832,31.2273482924363,2022-03-22
"浦东新区","上海市浦东新区微山新村",121.521887593309,31.2152305232925,2022-03-22
"浦东新区","上海市浦东新区栖山路1700弄",121.575841349358,31.2653833149665,2022-03-22
"浦东新区","上海市浦东新区三三公路5020弄",121.879902942444,30.9812557067702,2022-03-22
"浦东新区","上海市浦东新区拱为路2600弄",121.745418253359,31.0635577630424,2022-03-22
"浦东新区","上海市浦东新区博山东路440弄",121.575265715187,31.258583187629,2022-03-22
"浦东新区","上海市浦东新区下南路339弄",121.550641274717,31.1767910741702,2022-03-22
"浦东新区","上海市浦东新区博山东路811弄",121.57981814785,31.2654428107137,2022-03-22
"浦东新区","上海市浦东新区和佳路105弄",121.520302084084,31.1332973749386,2022-03-22
"浦东新区","上海市浦东新区浦三路635弄",121.525132182981,31.1951443021741,2022-03-22
"浦东新区","上海市浦东新区乳山四村",121.526978200804,31.2395235417085,2022-03-22
"浦东新区","上海市浦东新区浦东大道1585弄",121.547254752775,31.2507606428061,2022-03-22
"浦东新区","上海市浦东新区联勤村麦家宅",121.553913442368,31.1692634940545,2022-03-22
"浦东新区","上海市浦东新区下南路309弄",121.529696185109,31.2072012517119,2022-03-22
"浦东新区","上海市浦东新区鹏飞路411弄",121.562375031119,31.1774448319688,2022-03-22
"浦东新区","上海市浦东新区莲溪路1099弄",121.569863395681,31.1817477483468,2022-03-22
"浦东新区","上海市浦东新区北蔡镇顾家宅",121.567395660614,31.1910144518823,2022-03-22
"浦东新区","上海市浦东新区沪南路577弄",121.536884264815,31.1897022555378,2022-03-22
"浦东新区","上海市浦东新区莲园路8弄",121.550454606832,31.2273482924363,2022-03-22
"浦东新区","上海市浦东新区绿林路320弄",121.554834744499,31.1761626467343,2022-03-22
"浦东新区","上海市浦东新区联勤村李家宅",121.55718596934,31.1732310110799,2022-03-22
"浦东新区","上海市浦东新区海阳路1065弄",121.512534975323,31.1647564512598,2022-03-22
"浦东新区","上海市浦东新区丁香路1299弄",121.569359985273,31.2360168859408,2022-03-22
"浦东新区","上海市浦东新区国展路1765号工地",121.495190797435,31.1879542561222,2022-03-22
"浦东新区","上海市浦东新区浦东南路2054弄",121.523561405966,31.2166297607002,2022-03-22
"浦东新区","上海市浦东新区柳杉路99弄",121.576397220807,31.2305088190269,2022-03-22
"浦东新区","上海市浦东新区东绣路1086弄",121.54294171853,31.2052691831155,2022-03-22
"浦东新区","上海市浦东新区环林西路608弄",121.526498146339,31.1465056005873,2022-03-22
"浦东新区","上海市浦东新区杨莲路张家宅",121.529586520682,31.1678359718402,2022-03-22
"浦东新区","上海市浦东新区法赛路518号",121.628157763953,31.3193614678611,2022-03-22
"浦东新区","上海市浦东新区申城佳苑二期",121.643042506593,31.1884429437166,2022-03-22
"浦东新区","上海市浦东新区康弘路508弄",121.606984613253,31.1269347261659,2022-03-22
"浦东新区","上海市浦东新区御桥路269弄",121.54130976691,31.1573226212839,2022-03-22
"浦东新区","上海市浦东新区三杨新村一街坊",121.495522865575,31.160347149561,2022-03-22
"浦东新区","上海市浦东新区新雅东路51弄",121.693518572146,31.2438690195239,2022-03-22
"浦东新区","上海市浦东新区上南路5588号",121.534100685531,31.1291441675857,2022-03-22
"浦东新区","上海市浦东新区新营村顾家宅",121.748263007248,31.2024852511027,2022-03-22
"浦东新区","上海市浦东新区中界村周家宅",121.574173735009,31.1954461740634,2022-03-22
"浦东新区","上海市浦东新区中界村庄家队蔡家宅",121.578579474383,31.194413133383,2022-03-22
"浦东新区","上海市浦东新区下南路526弄",121.544402003967,31.1780418917603,2022-03-22
"浦东新区","上海市浦东新区鹏岳路70弄",121.558803637903,31.1809368440621,2022-03-22
"浦东新区","上海市浦东新区三彩路52弄",121.525530311983,31.1391594184198,2022-03-22
"浦东新区","上海市浦东新区寿光路78弄",121.592102026547,31.2793908554345,2022-03-22
"浦东新区","上海市浦东新区杨南路689弄",121.507104628684,31.1569177210953,2022-03-22
"浦东新区","上海市浦东新区瑞浦路77弄",121.592640920022,31.1039600259099,2022-03-22
"浦东新区","上海市浦东新区康沈路400弄",121.584859707864,31.1200779398788,2022-03-22
"浦东新区","上海市浦东新区沈家弄路901弄",121.552898267311,31.2449719550083,2022-03-22
"浦东新区","上海市浦东新区明纶园",121.570535238371,31.1519296029948,2022-03-22
"浦东新区","上海市浦东新区周东南路599弄",121.598845965332,31.1044148581235,2022-03-22
"浦东新区","上海市浦东新区陈春路299号",121.556168009537,31.1779532212839,2022-03-22
"浦东新区","上海市浦东新区鹏岳路152弄",121.560933340606,31.1772149667974,2022-03-22
"浦东新区","上海市浦东新区御水路555弄",121.582327025309,31.1603052008317,2022-03-22
"浦东新区","上海市浦东新区五星村陈家队陈家宅",121.578579474383,31.194413133383,2022-03-22
"浦东新区","上海市浦东新区周康路868弄",121.580275026033,31.1075858680056,2022-03-22
"浦东新区","上海市浦东新区秀龙村",121.569139900423,31.1326056758834,2022-03-22
"浦东新区","上海市浦东新区中界村沈家宅",121.574173735009,31.1954461740634,2022-03-22
"浦东新区","上海市浦东新区陈春路620弄",121.552907609688,31.1780781941088,2022-03-22
"浦东新区","上海市浦东新区博兴路1185弄",121.600830861187,31.2741607274057,2022-03-22
"浦东新区","上海市浦东新区紫叶路81弄",121.557722167899,31.1897187054085,2022-03-22
"浦东新区","上海市浦东新区康杉路151弄",121.567301338536,31.1577240432149,2022-03-22
"浦东新区","上海市浦东新区御衡路68弄",121.588337407815,31.159592610344,2022-03-22
"浦东新区","上海市浦东新区阳光二村",121.557040084526,31.2526465719219,2022-03-22
"浦东新区","上海市浦东新区金杨路220弄",121.581187165448,31.2530563837015,2022-03-22
"浦东新区","上海市浦东新区花墙村",121.55274169266,31.1563281752622,2022-03-22
"浦东新区","上海市浦东新区顾家宅98号",121.575682888266,31.3470740581649,2022-03-22
"浦东新区","上海市浦东新区碧云路333弄",121.583328007139,31.2439878555643,2022-03-22
"浦东新区","上海市浦东新区南新村东钟家宅",121.548654941573,31.1732516349633,2022-03-22
"浦东新区","上海市浦东新区庆丰村六队顾家宅",121.693393249071,31.110387612011,2022-03-22
"浦东新区","上海市浦东新区华夏东路858弄",121.671063080874,31.2002403932523,2022-03-22
"浦东新区","上海市浦东新区杨高南路3288弄",121.525582413702,31.1746251599369,2022-03-22
"浦东新区","上海市浦东新区环林西路618弄",121.529071701795,31.145718962096,2022-03-22
"浦东新区","上海市浦东新区下南路西钟家宅",121.548654941573,31.1732516349633,2022-03-22
"浦东新区","上海市浦东新区玉盘北路281弄",121.680041285124,31.2317424769606,2022-03-22
"浦东新区","上海市浦东新区唐四村黄家东宅",121.673744882143,31.2241561610778,2022-03-22
"浦东新区","上海市浦东新区上钢一村",121.500968393576,31.1782390828587,2022-03-22
"浦东新区","上海市浦东新区凌兆路127弄",121.500027777877,31.1477960721254,2022-03-22
"浦东新区","上海市浦东新区浦东大道501弄",121.525107120257,31.2485129292745,2022-03-22
"浦东新区","上海市浦东新区乳山路200弄",121.535521715017,31.2435075340906,2022-03-22
"浦东新区","上海市浦东新区康安路御北路交叉口北侧工地",121.563785999583,31.1639392972324,2022-03-22
"浦东新区","上海市浦东新区御北路385号",121.563990004765,31.1644658363209,2022-03-22
"浦东新区","上海市浦东新区宣中路621弄",121.710959164166,31.0304685727415,2022-03-22
"浦东新区","上海市浦东新区牡丹路259弄",121.555825036493,31.2146547012618,2022-03-22
"浦东新区","上海市浦东新区绿林路51弄",121.555202959927,31.1808524243444,2022-03-22
"浦东新区","上海市浦东新区新浦路477弄",121.539522767759,31.1770136798304,2022-03-22
"浦东新区","上海市浦东新区锦绣路3841弄",121.553378142114,31.1742762577656,2022-03-22
"浦东新区","上海市浦东新区鹏飞路51弄",121.560521198038,31.1814926374874,2022-03-22
"浦东新区","上海市浦东新区张杨路1133弄",121.535679816787,31.2376776410372,2022-03-22
"浦东新区","上海市浦东新区御桥村姚家宅",121.564117833639,31.1623293022053,2022-03-22
"浦东新区","上海市浦东新区浦东大道580号",121.528508913393,31.2460980608033,2022-03-22
"浦东新区","上海市浦东新区下南路551弄",121.54679904239,31.1790168752743,2022-03-22
"浦东新区","上海市浦东新区天花庵村卫家队",121.531269675716,31.1327837206808,2022-03-22
"浦东新区","上海市浦东新区杨莲路和博华路交界工地生活区",121.553966711884,31.1884742220576,2022-03-22
"浦东新区","上海市浦东新区莲溪路477弄",121.568933829139,31.188689385869,2022-03-22
"浦东新区","上海市浦东新区新浦路350弄",121.54104081424,31.1778039179317,2022-03-22
"浦东新区","上海市浦东新区新浦路673弄",121.536884264815,31.1897022555378,2022-03-22
"浦东新区","上海市浦东新区陈春东路99弄",121.565897017532,31.1818564965736,2022-03-22
"浦东新区","上海市浦东新区浦建路1086弄",121.544957426264,31.2129164044776,2022-03-22
"浦东新区","上海市浦东新区芳华路310弄",121.564018211558,31.2013345278281,2022-03-22
"浦东新区","上海市浦东新区牡丹路343号",121.556367882512,31.2144245413178,2022-03-22
"浦东新区","上海市浦东新区五星路239弄",121.569954483859,31.1817814232373,2022-03-22
"浦东新区","上海市浦东新区芳华路411弄",121.565570303818,31.2023994608537,2022-03-22
"浦东新区","上海市浦东新区博华路980弄",121.556426811354,31.1772710428287,2022-03-22
"浦东新区","上海市浦东新区五星村徐家队奚家宅",121.567395660614,31.1910144518823,2022-03-22
"浦东新区","上海市浦东新区浦东大道1539号",121.544904156747,31.2500850918283,2022-03-22
"浦东新区","上海市浦东新区金高路1051弄",121.617557489444,31.2887032071264,2022-03-22
"浦东新区","上海市浦东新区博华路1018弄",121.557501993219,31.1768508579768,2022-03-22
"浦东新区","上海市浦东新区莲溪二村",121.565941214163,31.1913004280832,2022-03-22
"浦东新区","上海市浦东新区中界村苏家宅",121.577029627886,31.1916104985113,2022-03-22
"浦东新区","上海市浦东新区下南路370弄",121.536884264815,31.1897022555378,2022-03-22
"浦东新区","上海市浦东新区康士路31号",121.570060034757,31.1570861400084,2022-03-22
"浦东新区","上海市浦东新区严民路40弄",121.535360828501,31.1982091563279,2022-03-22
"浦东新区","上海市浦东新区昌里东路411弄",121.519301551407,31.1855112286687,2022-03-22
"浦东新区","上海市浦东新区顾全路381号",121.546006377608,31.1777502366373,2022-03-22
"浦东新区","上海市浦东新区严杨路60弄",121.536194994997,31.2003668807737,2022-03-22
"浦东新区","上海市浦东新区北蔡姚家宅",121.560954450785,31.1881757258589,2022-03-22
"浦东新区","上海市浦东新区卫行村",121.587201410668,31.1666652020159,2022-03-22
"浦东新区","上海市浦东新区绿林路50弄",121.554947032687,31.1785308909384,2022-03-22
"浦东新区","上海市浦东新区顾全路379号",121.545935321642,31.1777286868716,2022-03-22
"浦东新区","上海市浦东新区陈春东路88弄",121.565995831138,31.1814471453478,2022-03-22
"浦东新区","上海市浦东新区严杨路30弄",121.532512930542,31.1982761081556,2022-03-22
"浦东新区","上海市浦东新区御桥村东印家圈",121.564637683037,31.1740750417323,2022-03-22
"浦东新区","上海市浦东新区崂山新村",121.526081152921,31.2441861427874,2022-03-22
"浦东新区","上海市浦东新区赵家厍",121.543435157746,31.1767913831306,2022-03-22
"浦东新区","上海市浦东新区御山路360弄",121.574682445419,31.1620356669102,2022-03-22
"浦东新区","上海市浦东新区银峰路549弄",121.695687880666,31.2724371167393,2022-03-22
"浦东新区","上海市浦东新区民同路176弄",121.657803642394,31.2786100391049,2022-03-22
"浦东新区","上海市浦东新区御青路918弄",121.581132278981,31.1587678403555,2022-03-22
"浦东新区","上海市浦东新区御青路999弄",121.579524761271,31.1602976299725,2022-03-22
"浦东新区","上海市浦东新区华夏西路5778号",121.586719020609,31.1726628869663,2022-03-22
"浦东新区","上海市浦东新区和平村朱家宅",121.736251135461,31.2055576639467,2022-03-22
"浦东新区","上海市浦东新区新舒苑北苑",121.870743549973,30.9845182453125,2022-03-22
"浦东新区","上海市浦东新区福缘路219弄",121.759684602486,31.0341203756928,2022-03-22
"浦东新区","上海市浦东新区新振村",121.838837445039,30.9490543121241,2022-03-22
"浦东新区","上海市浦东新区永宁东路540弄",121.753954221807,30.974154156671,2022-03-22
"浦东新区","上海市浦东新区外灶村",121.87608729996,30.9560593452321,2022-03-22
"浦东新区","上海市浦东新区海沈村",121.804622335622,31.0323420675899,2022-03-22
"浦东新区","上海市浦东新区拱海路78弄",121.774859587635,31.0609104552718,2022-03-22
"浦东新区","上海市浦东新区拱极路2368弄29支弄",121.774859587635,31.0609104552718,2022-03-22
"浦东新区","上海市浦东新区万祥馨苑",121.824278966961,30.9736518643614,2022-03-22
"浦东新区","上海市浦东新区康锦路88弄",121.772471352606,31.0435719674693,2022-03-22
"浦东新区","上海市浦东新区已对相关居住地落实终末消毒措施",121.550454606832,31.2273482924363,2022-03-22
"黄浦区","上海市黄浦区斜土路486弄",121.483998234695,31.2084093757901,2022-03-22
"黄浦区","上海市黄浦区斜土路460弄",121.483998234695,31.2084093757901,2022-03-22
"黄浦区","上海市黄浦区吉安路157号",121.48724003962,31.2251148386815,2022-03-22
"黄浦区","上海市黄浦区丽园路842弄33号",121.482390537324,31.2123751586396,2022-03-22
"黄浦区","上海市黄浦区马当路306弄27号",121.481265230012,31.2232404750637,2022-03-22
"黄浦区","上海市黄浦区兴安路98弄",121.477351402735,31.2272654585094,2022-03-22
"黄浦区","上海市黄浦区蒙自西路28弄3号",121.482570108596,31.2129158640054,2022-03-22
"黄浦区","上海市黄浦区丽园路873号",121.482543249261,31.2127752639244,2022-03-22
"黄浦区","上海市黄浦区顺昌路550弄",121.485579971037,31.2177418472914,2022-03-22
"黄浦区","上海市黄浦区顺昌路580号",121.486125961126,31.2172935862628,2022-03-22
"黄浦区","上海市黄浦区顺昌路590号",121.486152910292,31.2171541508583,2022-03-22
"黄浦区","上海市黄浦区顺昌路612弄23号",121.485565328658,31.2203313890076,2022-03-22
"黄浦区","上海市黄浦区顺昌路612弄40号",121.485565328658,31.2203313890076,2022-03-22
"黄浦区","上海市黄浦区五里桥路235弄",121.486606644405,31.2096501197617,2022-03-22
"黄浦区","上海市黄浦区中山南一路1109弄1号",121.502638343519,31.2278469156163,2022-03-22
"黄浦区","上海市黄浦区蒙自西路10号",121.483200449572,31.2134559099648,2022-03-22
"黄浦区","上海市黄浦区蒙自西路14号",121.483121308857,31.2134690742459,2022-03-22
"黄浦区","上海市黄浦区蒙自西路72弄1号",121.481087096029,31.2129525388957,2022-03-22
"黄浦区","上海市黄浦区打浦路316弄2号",121.477099248379,31.2054004512698,2022-03-22
"黄浦区","上海市黄浦区丽园路875号",121.482479379739,31.2126450098444,2022-03-22
"黄浦区","上海市黄浦区安澜路41号",121.492952094866,31.2215670339893,2022-03-22
"黄浦区","上海市黄浦区新昌路477弄",121.473272736398,31.2445516879245,2022-03-22
"黄浦区","上海市黄浦区建国东路37弄3号",121.483243568237,31.218282598869,2022-03-22
"黄浦区","上海市黄浦区局门路1弄1号",121.491585592524,31.2372471520636,2022-03-22
"黄浦区","上海市黄浦区斜土路460弄19号",121.483998234695,31.2084093757901,2022-03-22
"黄浦区","上海市黄浦区瑞金二路410弄11号",121.473478807682,31.212652808108,2022-03-22
"黄浦区","上海市黄浦区中山南路200号10号楼",121.508621148046,31.2284519915471,2022-03-22
"黄浦区","上海市黄浦区中山南一路247弄",121.492960718599,31.2063049610685,2022-03-22
"黄浦区","上海市黄浦区大吉路310弄1号",121.468393051037,31.2230778107397,2022-03-22
"黄浦区","上海市黄浦区牌楼路43弄",121.492934437111,31.2195398425116,2022-03-22
"黄浦区","上海市黄浦区思南路82弄",121.476642639688,31.2154736522338,2022-03-22
"黄浦区","上海市黄浦区黄陂南路783号",121.484188226311,31.2182709407797,2022-03-22
"黄浦区","上海市黄浦区永年路149弄",121.485099287759,31.2170759403217,2022-03-22
"黄浦区","上海市黄浦区顺昌路612弄44号",121.485565328658,31.2203313890076,2022-03-22
"黄浦区","上海市黄浦区顺昌路594号",121.486170966232,31.2170928486269,2022-03-22
"黄浦区","上海市黄浦区复兴东路740号",121.497387478322,31.22725781586,2022-03-22
"黄浦区","上海市黄浦区丽园路871号",121.48247138482,31.2126784419996,2022-03-22
"黄浦区","上海市黄浦区已对相关居住地落实终末消毒措施",121.491585592524,31.2372471520636,2022-03-22
"静安区","上海市静安区芷江西路593弄",121.461343239225,31.2631274644782,2022-03-22
"静安区","上海市静安区场中路1011弄",121.471962198489,31.3147642425747,2022-03-22
"静安区","上海市静安区余姚路321弄",121.444438566816,31.2410680680527,2022-03-22
"静安区","上海市静安区中山北路899弄",121.462151804015,31.2686750473735,2022-03-22
"静安区","上海市静安区柳营路1085号",121.455621302619,31.2668755587259,2022-03-22
"静安区","上海市静安区康定东路63弄",121.462947073883,31.243546280989,2022-03-22
"静安区","上海市静安区普善路铁路新村18号",121.461289071403,31.26237653114,2022-03-22
"静安区","上海市静安区普善路128弄",121.462973753557,31.2617262215432,2022-03-22
"静安区","上海市静安区普善路铁路新村12号",121.461043564507,31.2620678526503,2022-03-22
"静安区","上海市静安区中华新路836号",121.463570497907,31.2601469234943,2022-03-22
"静安区","上海市静安区中华新路939弄",121.461998014112,31.2618919826249,2022-03-22
"静安区","上海市静安区中山北路814弄",121.464484433933,31.2658025624015,2022-03-22
"静安区","上海市静安区永兴小马路70号",121.470868781023,31.257513568894,2022-03-22
"静安区","上海市静安区西藏北路853弄",121.4736235247,31.2624819446106,2022-03-22
"静安区","上海市静安区会文路3号",121.480183041364,31.2564538934147,2022-03-22
"静安区","上海市静安区芷江西路285弄",121.46675184687,31.2636787572939,2022-03-22
"静安区","上海市静安区芷江西路521弄",121.462757261929,31.2630793110879,2022-03-22
"静安区","上海市静安区普善路239弄",121.463956948937,31.2632953066303,2022-03-22
"静安区","上海市静安区大统路938弄",121.465017937575,31.2604427207575,2022-03-22
"静安区","上海市静安区原平路917弄",121.435884272937,31.3013655335827,2022-03-22
"静安区","上海市静安区已对相关居住地落实终末消毒措施",121.453431772769,31.2338449304017,2022-03-22
"徐汇区","上海市徐汇区龙吴路1343弄",121.457336167837,31.1425782918706,2022-03-22
"徐汇区","上海市徐汇区龙吴路2588弄",121.462948960325,31.1201446383344,2022-03-22
"徐汇区","上海市徐汇区斜土路2200弄",121.457232593212,31.1974553078788,2022-03-22
"徐汇区","上海市徐汇区天钥桥南路1249弄",121.463243155379,31.157037314006,2022-03-22
"徐汇区","上海市徐汇区桂林东街28弄",121.430221714324,31.1616973787523,2022-03-22
"徐汇区","上海市徐汇区冠生园路403弄",121.430477461903,31.1685218495378,2022-03-22
"徐汇区","上海市徐汇区大木桥路599弄",121.471063084505,31.200345104546,2022-03-22
"徐汇区","上海市徐汇区汇成一村",121.438515858928,31.1532893789645,2022-03-22
"徐汇区","上海市徐汇区老沪闵路1039弄",121.433693036306,31.1538631830606,2022-03-22
"徐汇区","上海市徐汇区梅陇四村",121.427773562318,31.1427824343782,2022-03-22
"徐汇区","上海市徐汇区龙州路425弄",121.433107303322,31.1354737615493,2022-03-22
"徐汇区","上海市徐汇区罗秀路930弄",121.432818895214,31.1375055711784,2022-03-22
"徐汇区","上海市徐汇区凯旋一村",121.431102233385,31.1995708096388,2022-03-22
"徐汇区","上海市徐汇区康健路100弄",121.434161322968,31.1710799228616,2022-03-22
"徐汇区","上海市徐汇区钦州南路8弄",121.443396352764,31.1945567728227,2022-03-22
"徐汇区","上海市徐汇区华济路2弄",121.443396352764,31.1945567728227,2022-03-22
"徐汇区","上海市徐汇区龙吴路2418弄",121.469078008989,31.1253760301988,2022-03-22
"徐汇区","上海市徐汇区龙吴路2388弄",121.46634913651,31.1289552194858,2022-03-22
"徐汇区","上海市徐汇区龙吴路1323弄",121.456191996109,31.1473358868488,2022-03-22
"徐汇区","上海市徐汇区长桥七村",121.44386203434,31.1374483122908,2022-03-22
"徐汇区","上海市徐汇区龙吴路555弄",121.456033085864,31.1632289746332,2022-03-22
"徐汇区","上海市徐汇区梅陇十一村",121.433632041362,31.1387218313397,2022-03-22
"徐汇区","上海市徐汇区宾南路36弄",121.442653004954,31.166843877453,2022-03-22
"徐汇区","上海市徐汇区龙南五村",121.460453018465,31.1614279215894,2022-03-22
"徐汇区","上海市徐汇区桂林西街30弄",121.423684385806,31.161511895278,2022-03-22
"徐汇区","上海市徐汇区天钥新村",121.452930158972,31.1920618943491,2022-03-22
"徐汇区","上海市徐汇区梅陇路130号",121.432109323692,31.1475741697686,2022-03-22
"徐汇区","上海市徐汇区五原路84弄",121.453817684816,31.2195752480697,2022-03-22
"徐汇区","上海市徐汇区乐山路10弄",121.439489801762,31.2029471734872,2022-03-22
"徐汇区","上海市徐汇区老沪闵路666弄",121.435401164233,31.1517966374804,2022-03-22
"徐汇区","上海市徐汇区清真路99弄",121.464942479912,31.2047359236506,2022-03-22
"徐汇区","上海市徐汇区化工二三村",121.42406167412,31.1444072909172,2022-03-22
"徐汇区","上海市徐汇区龙吴路1717弄",121.45670573703,31.1382707196565,2022-03-22
"徐汇区","上海市徐汇区龙吴路1727弄",121.460257367525,31.137798046868,2022-03-22
"徐汇区","上海市徐汇区长桥四村",121.446028028586,31.1399378439366,2022-03-22
"徐汇区","上海市徐汇区龙华路2373弄",121.458604036234,31.1881678483267,2022-03-22
"徐汇区","上海市徐汇区古宜路180弄",121.431529018333,31.193157360065,2022-03-22
"徐汇区","上海市徐汇区天等路259弄",121.434106256841,31.1424098469238,2022-03-22
"徐汇区","上海市徐汇区田林三村",121.428606471186,31.1773578601994,2022-03-22
"徐汇区","上海市徐汇区田林十三村",121.431878818498,31.1799641976388,2022-03-22
"徐汇区","上海市徐汇区已对相关居住地落实终末消毒措施",121.443396352764,31.1945567728227,2022-03-22
"长宁区","上海市长宁区玉屏南路725号",121.407587918864,31.2205725746014,2022-03-22
"长宁区","上海市长宁区愚园路1240弄",121.432722417203,31.2261784204697,2022-03-22
"长宁区","上海市长宁区娄山关路988号",121.411756775075,31.2220800476853,2022-03-22
"长宁区","上海市长宁区新华路569弄106支弄",121.426745451661,31.209618616851,2022-03-22
"长宁区","上海市长宁区天山西路350弄",121.373067744896,31.2236542757715,2022-03-22
"长宁区","上海市长宁区绥宁路628号公寓",121.351000510721,31.2225301386499,2022-03-22
"长宁区","上海市长宁区华山路1615号",121.441072616071,31.2098850014236,2022-03-22
"长宁区","上海市长宁区金钟路333弄",121.370157594366,31.225717384686,2022-03-22
"长宁区","上海市长宁区昭化路518弄",121.426547285466,31.2171740702145,2022-03-22
"长宁区","上海市长宁区金钟路255弄",121.373102778811,31.2250967738214,2022-03-22
"长宁区","上海市长宁区新华路84弄",121.437209902378,31.2081470793748,2022-03-22
"长宁区","上海市长宁区古北路181弄",121.406717101503,31.2197937374509,2022-03-22
"长宁区","上海市长宁区金钟路68弄",121.376952017921,31.2252768818641,2022-03-22
"长宁区","上海市长宁区东诸安浜路103号",121.440812556625,31.2236424639483,2022-03-22
"长宁区","上海市长宁区已对相关居住地落实终末消毒措施",121.430454375451,31.2268479682254,2022-03-22
"普陀区","上海市普陀区梅川路141弄",121.408923968649,31.2436922377871,2022-03-22
"普陀区","上海市普陀区真金路250弄",121.412026985372,31.2738260077583,2022-03-22
"普陀区","上海市普陀区真南路744弄",121.392748360992,31.2758340761753,2022-03-22
"普陀区","上海市普陀区真南路1111号",121.38461276731,31.2766809627111,2022-03-22
"普陀区","上海市普陀区华联路130弄",121.353964918904,31.2826047100351,2022-03-22
"普陀区","上海市普陀区真北路3725弄",121.40954038589,31.2906612735426,2022-03-22
"普陀区","上海市普陀区新村路424号",121.434678207959,31.2714861002832,2022-03-22
"普陀区","上海市普陀区曹杨路1021号",121.415655420988,31.2500155529437,2022-03-22
"普陀区","上海市普陀区南大街东江海小区",121.407540308672,31.2512098240058,2022-03-22
"普陀区","上海市普陀区新村路1388弄",121.419854280603,31.2722922850813,2022-03-22
"普陀区","上海市普陀区雪松路458弄",121.358834183921,31.293714358781,2022-03-22
"普陀区","上海市普陀区梅川路1333弄",121.384232694249,31.250347425068,2022-03-22
"普陀区","上海市普陀区宜川三村",121.447419503821,31.263551892326,2022-03-22
"普陀区","上海市普陀区金迈路358弄",121.335278008363,31.2932537331798,2022-03-22
"普陀区","上海市普陀区靖边路199弄",121.373309478909,31.2670268806969,2022-03-22
"普陀区","上海市普陀区绿杨路51弄",121.353013972691,31.2920878488443,2022-03-22
"普陀区","上海市普陀区武威路1087弄",121.360823840795,31.2867637697834,2022-03-22
"普陀区","上海市普陀区已对相关居住地落实终末消毒措施",121.403569349165,31.2549733682796,2022-03-22
"虹口区","上海市虹口区水电路680号",121.482440483111,31.2891238156924,2022-03-22
"虹口区","上海市虹口区水电路1381弄",121.483893582104,31.3037050008256,2022-03-22
"虹口区","上海市虹口区运光路71弄",121.502083011053,31.2959918416394,2022-03-22
"虹口区","上海市虹口区虹湾路55号",121.481127609608,31.3184413634383,2022-03-22
"虹口区","上海市虹口区四川北路1774弄",121.490027122295,31.2654067737352,2022-03-22
"虹口区","上海市虹口区广中五村",121.482915327403,31.2836281361308,2022-03-22
"虹口区","上海市虹口区花园路118弄",121.480143965074,31.2769288700081,2022-03-22
"虹口区","上海市虹口区四川北路1545弄",121.488676879283,31.2614879973508,2022-03-22
"虹口区","上海市虹口区奎照路786弄",121.476364614133,31.3060038372237,2022-03-22
"虹口区","上海市虹口区天宝西路252弄",121.499073058781,31.2790654132163,2022-03-22
"虹口区","上海市虹口区已对相关居住地落实终末消毒措施",121.511586454535,31.2697466989314,2022-03-22
"杨浦区","上海市杨浦区怀德路201弄",121.534425782295,31.2600529287597,2022-03-22
"杨浦区","上海市杨浦区国权北路1450弄",121.506765787846,31.342222216477,2022-03-22
"杨浦区","上海市杨浦区包头路186号",121.545262580645,31.316867450367,2022-03-22
"杨浦区","上海市杨浦区已对相关居住地落实终末消毒措施",121.532519937325,31.2655241446571,2022-03-22
"宝山区","上海市宝山区城银路655弄",121.356097765676,31.322042743755,2022-03-22
"宝山区","上海市宝山区顾陈路231弄",121.400554366382,31.3470392862983,2022-03-22
"宝山区","上海市宝山区宝荻路535弄",121.401101344607,31.3663057679309,2022-03-22
"宝山区","上海市宝山区白杨村",121.402885648841,31.347963164987,2022-03-22
"宝山区","上海市宝山区泗塘五村",121.466571377294,31.3401410930935,2022-03-22
"宝山区","上海市宝山区新沪路475弄",121.425124369538,31.2771439076441,2022-03-22
"宝山区","上海市宝山区羌家村",121.396827296821,31.3663309742464,2022-03-22
"宝山区","上海市宝山区朱家弄村",121.395986662525,31.3476683389689,2022-03-22
"宝山区","上海市宝山区沙浦路518弄",121.388102684216,31.3637188853256,2022-03-22
"宝山区","上海市宝山区沪太路3717弄",121.407111547452,31.3514957618926,2022-03-22
"宝山区","上海市宝山区陈家行村",121.357130457691,31.3333699304568,2022-03-22
"宝山区","上海市宝山区沪太路4332号",121.40210942305,31.3450601211867,2022-03-22
"宝山区","上海市宝山区已对相关居住地落实终末消毒措施",121.496563013525,31.4102794734761,2022-03-22
"闵行区","上海市闵行区报春路816弄",121.381806281236,31.1277695131836,2022-03-22
"闵行区","上海市闵行区报春路817弄",121.38467636734,31.1261658530938,2022-03-22
"闵行区","上海市闵行区报春路863弄",121.38187545076,31.1251585572496,2022-03-22
"闵行区","上海市闵行区碧江路401弄",121.407748985042,31.0170161148224,2022-03-22
"闵行区","上海市闵行区曹家塘路220弄",121.451655373623,31.0473576912157,2022-03-22
"闵行区","上海市闵行区曹中村",121.439423866138,31.0943308879524,2022-03-22
"闵行区","上海市闵行区漕宝路1467弄",121.385570989798,31.1662838257658,2022-03-22
"闵行区","上海市闵行区昌林路430弄",121.524240974084,31.0706351874553,2022-03-22
"闵行区","上海市闵行区东川路500号",121.460499011707,31.0313668770882,2022-03-22
"闵行区","上海市闵行区东川路800号",121.443283974745,31.0320288411515,2022-03-22
"闵行区","上海市闵行区放鹤路2323弄",121.42838369142,31.0512885136958,2022-03-22
"闵行区","上海市闵行区放鹤路2号",121.48357351585,31.0568031606467,2022-03-22
"闵行区","上海市闵行区富国路355弄",121.383506324414,31.0299338563429,2022-03-22
"闵行区","上海市闵行区富卓路789弄",121.387161170211,31.0308084162379,2022-03-22
"闵行区","上海市闵行区共和村",121.471171240488,31.0558263670524,2022-03-22
"闵行区","上海市闵行区顾戴路1325弄",121.39214802342,31.1411741626431,2022-03-22
"闵行区","上海市闵行区光继村",121.540925920965,31.0086885726333,2022-03-22
"闵行区","上海市闵行区虹井路618弄",121.376637700823,31.1880258981718,2022-03-22
"闵行区","上海市闵行区虹梅南路1008号",121.430922841774,31.1299197395269,2022-03-22
"闵行区","上海市闵行区虹梅南路1781弄",121.434077421234,31.1134784230578,2022-03-22
"闵行区","上海市闵行区虹梅南路2555弄",121.439274388101,31.103561775367,2022-03-22
"闵行区","上海市闵行区虹梅南路788号",121.429285140999,31.1322410848329,2022-03-22
"闵行区","上海市闵行区虹梅南路990号",121.430095861722,31.1307650098241,2022-03-22
"闵行区","上海市闵行区虹中路480弄",121.387655148411,31.1917780828486,2022-03-22
"闵行区","上海市闵行区沪光路39弄",121.429100898539,31.08452255101,2022-03-22
"闵行区","上海市闵行区沪闵路3131弄",121.416296990783,31.0613255133804,2022-03-22
"闵行区","上海市闵行区汇东村",121.571234659042,31.0245274185789,2022-03-22
"闵行区","上海市闵行区剑川路100弄",121.478637776226,31.0505601691542,2022-03-22
"闵行区","上海市闵行区剑川路121弄",121.476196720833,31.0483676765652,2022-03-22
"闵行区","上海市闵行区剑川路150弄",121.470592552078,31.0497402430716,2022-03-22
"闵行区","上海市闵行区剑川路198弄",121.468834969891,31.0463976706466,2022-03-22
"闵行区","上海市闵行区剑川路综合服务中心工地宿舍",121.452967887803,31.0406535211443,2022-03-22
"闵行区","上海市闵行区江川路241弄",121.429029034098,31.0077477260195,2022-03-22
"闵行区","上海市闵行区江川路248弄",121.427418731641,31.0110319433018,2022-03-22
"闵行区","上海市闵行区江柳路888弄",121.492541389587,31.1046892714643,2022-03-22
"闵行区","上海市闵行区金阳路116弄",121.429539990272,31.046002183834,2022-03-22
"闵行区","上海市闵行区景谷中路58弄",121.421333250794,31.0253378160295,2022-03-22
"闵行区","上海市闵行区老沪闵路1351弄",121.44156156376,31.1193879210966,2022-03-22
"闵行区","上海市闵行区老沪闵路1498弄",121.440319746223,31.115698615094,2022-03-22
"闵行区","上海市闵行区老沪闵路2259弄",121.421173262583,31.0976001836676,2022-03-22
"闵行区","上海市闵行区黎安路486号",121.378472759319,31.1358697768749,2022-03-22
"闵行区","上海市闵行区莲花南路1111弄",121.416683980797,31.1108208480019,2022-03-22
"闵行区","上海市闵行区莲花南路155弄",121.412508926278,31.13737096251,2022-03-22
"闵行区","上海市闵行区莲花南路988弄",121.413919984573,31.1169198722606,2022-03-22
"闵行区","上海市闵行区联航路2165弄",121.510098931217,31.0775782171848,2022-03-22
"闵行区","上海市闵行区龙吴路3355号",121.460786289809,31.1008087605209,2022-03-22
"闵行区","上海市闵行区龙吴路5511弄",121.472440995326,31.0503962773212,2022-03-22
"闵行区","上海市闵行区龙吴路5530弄",121.474678854013,31.0498352994843,2022-03-22
"闵行区","上海市闵行区龙州南路58弄",121.436858215771,31.1292331933073,2022-03-22
"闵行区","上海市闵行区芦胜村",121.487138261606,31.1135152141347,2022-03-22
"闵行区","上海市闵行区罗秀路1339弄",121.425458988341,31.1348168385096,2022-03-22
"闵行区","上海市闵行区罗秀路1501号",121.420035199332,31.133698822339,2022-03-22
"闵行区","上海市闵行区罗秀路1955弄",121.410518999912,31.1331688650425,2022-03-22
"闵行区","上海市闵行区罗秀路1980弄",121.409963667446,31.1340317248683,2022-03-22
"闵行区","上海市闵行区梅陇二村",121.417055519956,31.1407047498012,2022-03-22
"闵行区","上海市闵行区闵驰一路197弄",121.549803245507,31.0461606689846,2022-03-22
"闵行区","上海市闵行区瓶北路479弄",121.403689362781,31.0574727572452,2022-03-22
"闵行区","上海市闵行区浦驰南路238弄",121.511456559558,31.0745134634006,2022-03-22
"闵行区","上海市闵行区浦连路388弄",121.542460226776,31.0610436267144,2022-03-22
"闵行区","上海市闵行区浦涛路100弄",121.550041925281,31.0563183227168,2022-03-22
"闵行区","上海市闵行区普杰路69弄",121.428919530657,31.1226624510858,2022-03-22
"闵行区","上海市闵行区普乐路425弄",121.430913140075,31.1209862095661,2022-03-22
"闵行区","上海市闵行区普乐路665弄",121.427461940136,31.1241197189669,2022-03-22
"闵行区","上海市闵行区七莘路1818弄",121.368418025746,31.1444118496553,2022-03-22
"闵行区","上海市闵行区瑞丽路61弄",121.416264292463,31.0101424210394,2022-03-22
"闵行区","上海市闵行区山花路108弄",121.389809464685,31.1271660282923,2022-03-22
"闵行区","上海市闵行区上中西路1011弄",121.417756557576,31.1349224728854,2022-03-22
"闵行区","上海市闵行区上中西路738弄",121.423923694393,31.1376884748405,2022-03-22
"闵行区","上海市闵行区上中西路855弄",121.421174250719,31.136381250601,2022-03-22
"闵行区","上海市闵行区上中西路925弄",121.419584339797,31.135219206707,2022-03-22
"闵行区","上海市闵行区尚义路229弄",121.457448725517,31.048501484503,2022-03-22
"闵行区","上海市闵行区申滨路1058弄",121.316399040105,31.2168368303097,2022-03-22
"闵行区","上海市闵行区莘松路958弄",121.355414963658,31.1128708271611,2022-03-22
"闵行区","上海市闵行区莘朱路1760弄",121.426472456617,31.1282388361211,2022-03-22
"闵行区","上海市闵行区疏影路1111弄",121.365355522601,31.1230586886023,2022-03-22
"闵行区","上海市闵行区疏影路758弄",121.374611842237,31.1261992388076,2022-03-22
"闵行区","上海市闵行区曙建路185弄",121.425303401826,31.0982197058772,2022-03-22
"闵行区","上海市闵行区水清路1100弄",121.381340240337,31.1347850786265,2022-03-22
"闵行区","上海市闵行区塘口村",121.486407849395,31.0937820000194,2022-03-22
"闵行区","上海市闵行区塘湾村",121.449029087634,31.0616459892676,2022-03-22
"闵行区","上海市闵行区天山西路4178弄",121.31229477206,31.2214929189113,2022-03-22
"闵行区","上海市闵行区同乐路151弄",121.425035976276,31.1302898263519,2022-03-22
"闵行区","上海市闵行区吴河路328号",121.43789503999,31.0494853924113,2022-03-22
"闵行区","上海市闵行区西环二村",121.372508280224,31.1089329138449,2022-03-22
"闵行区","上海市闵行区向阳路228弄",121.441185263582,31.0812723624527,2022-03-22
"闵行区","上海市闵行区向阳路350号",121.440093882274,31.0808215677886,2022-03-22
"闵行区","上海市闵行区新建村",121.45240653669,31.0695304817161,2022-03-22
"闵行区","上海市闵行区新龙路1111弄",121.346440981444,31.159594464446,2022-03-22
"闵行区","上海市闵行区新镇路1060弄",121.369057978591,31.161241278789,2022-03-22
"闵行区","上海市闵行区许泾村",121.437103722666,31.0852414323746,2022-03-22
"闵行区","上海市闵行区许浦村",121.344134402386,31.2307916640076,2022-03-22
"闵行区","上海市闵行区盐铁塘路176弄",121.518004847403,31.0414611500673,2022-03-22
"闵行区","上海市闵行区杨家巷村",121.308534016042,31.2302145481777,2022-03-22
"闵行区","上海市闵行区业祥路111弄",121.44063064976,31.1298103128654,2022-03-22
"闵行区","上海市闵行区益文路101弄",121.417756557576,31.1349224728854,2022-03-22
"闵行区","上海市闵行区银春路2200弄",121.392444015085,31.030873862853,2022-03-22
"闵行区","上海市闵行区银都路2688弄",121.413185529988,31.1037732688777,2022-03-22
"闵行区","上海市闵行区银都路666弄",121.452268197641,31.1137412161483,2022-03-22
"闵行区","上海市闵行区银林路1002弄",121.377406111356,31.022098892305,2022-03-22
"闵行区","上海市闵行区银林路100弄",121.394775080496,31.027396064753,2022-03-22
"闵行区","上海市闵行区永德路228弄",121.468709344407,31.0488393293639,2022-03-22
"闵行区","上海市闵行区永德路700弄",121.458517170091,31.0485188099099,2022-03-22
"闵行区","上海市闵行区永颂路299弄",121.505818345024,31.0380258365917,2022-03-22
"闵行区","上海市闵行区永跃路550弄",121.516818455316,31.0366729024406,2022-03-22
"闵行区","上海市闵行区中春路255号",121.406823999858,31.0321478193581,2022-03-22
"闵行区","上海市闵行区颛兴路666弄",121.396099310036,31.0716843597939,2022-03-22
"闵行区","上海市闵行区紫光路801弄",121.454637029271,31.0177458790846,2022-03-22
"闵行区","上海市闵行区已对相关居住地落实终末消毒措施",121.38861193361,31.1188425800874,2022-03-22
"嘉定区","上海市嘉定区安虹路299弄",121.205274965468,31.2859832465553,2022-03-22
"嘉定区","上海市嘉定区墨玉路388弄",121.168648354909,31.3065306571687,2022-03-22
"嘉定区","上海市嘉定区城北路3980号",121.199496166122,31.4539019232277,2022-03-22
"嘉定区","上海市嘉定区大北街208号",121.220007624984,31.4364154886723,2022-03-22
"嘉定区","上海市嘉定区高台路560弄",121.249454885648,31.3527561156268,2022-03-22
"嘉定区","上海市嘉定区恒飞路488弄",121.167590959494,31.3719075688131,2022-03-22
"嘉定区","上海市嘉定区娄塘路864弄",121.221367412492,31.4398920428806,2022-03-22
"嘉定区","上海市嘉定区南新路626弄",121.22217357702,31.4334580821397,2022-03-22
"嘉定区","上海市嘉定区塔城路688弄",121.245270760672,31.3806257864098,2022-03-22
"嘉定区","上海市嘉定区嘉唐公路626号",121.24229179994,31.4141154153446,2022-03-22
"嘉定区","上海市嘉定区吴杨路100弄",121.303190176225,31.2758540601935,2022-03-22
"嘉定区","上海市嘉定区海波路333弄",121.346781978216,31.2726868871639,2022-03-22
"嘉定区","上海市嘉定区海川路58弄",121.354659219233,31.2718661222192,2022-03-22
"嘉定区","上海市嘉定区华江支路328弄",121.346255301695,31.2649744832432,2022-03-22
"嘉定区","上海市嘉定区华江支路677弄",121.345091007924,31.2726318713693,2022-03-22
"嘉定区","上海市嘉定区金园一路1115弄",121.326139366749,31.2535077919986,2022-03-22
"嘉定区","上海市嘉定区金园一路1118弄",121.319776040008,31.2538058483937,2022-03-22
"嘉定区","上海市嘉定区嘉涌路88号",121.343276520624,31.2753059255731,2022-03-22
"嘉定区","上海市嘉定区临夏路800弄",121.335220157488,31.2621959543473,2022-03-22
"嘉定区","上海市嘉定区环城路160弄",121.261500086998,31.3989975521174,2022-03-22
"嘉定区","上海市嘉定区环城路600弄",121.258598739862,31.400434720951,2022-03-22
"嘉定区","上海市嘉定区汇源路218弄",121.210750856195,31.422559353306,2022-03-22
"嘉定区","上海市嘉定区秋竹路801弄",121.225987195611,31.3890746169343,2022-03-22
"嘉定区","上海市嘉定区安亭镇老宅村",121.231937930632,31.2931742748409,2022-03-22
"嘉定区","上海市嘉定区嘉定镇街道桃园小区",121.251426399179,31.3937292071059,2022-03-22
"嘉定区","上海市嘉定区马陆镇马陆塘街马陆汽配城",121.296380211984,31.3455120869443,2022-03-22
"嘉定区","上海市嘉定区江桥镇五四村红光村增建村",121.296481181523,31.2492051625734,2022-03-22
"嘉定区","上海市嘉定区嘉定工业区草庵村灯塔村旺泾村陆渡村",121.246467483527,31.3615193081338,2022-03-22
"嘉定区","上海市嘉定区徐行镇徐行村",121.280896838553,31.4250875934311,2022-03-22
"嘉定区","上海市嘉定区华亭镇唐行石村",121.248062694197,31.4674750258459,2022-03-22
"嘉定区","上海市嘉定区已对相关居住地落实终末消毒措施",121.272595058352,31.3801553396772,2022-03-22
"金山区","上海市金山区清泉路79号",121.184289560619,30.8975337114534,2022-03-22
"金山区","上海市金山区金光村",121.396752378141,30.8030943804078,2022-03-22
"金山区","上海市金山区已对相关居住地落实终末消毒措施",121.348480045121,30.7478523765703,2022-03-22
"松江区","上海市松江区涞亭南路888弄",121.348647489268,31.1297277018338,2022-03-22
"松江区","上海市松江区影振路299弄",121.315064596786,31.010332420418,2022-03-22
"松江区","上海市松江区陈春公路911弄",121.335194196459,31.0762387828263,2022-03-22
"松江区","上海市松江区银都西路85号",121.376005114083,31.0883774474991,2022-03-22
"松江区","上海市松江区庄家村",121.326857921327,31.137603398023,2022-03-22
"松江区","上海市松江区涞坊路288弄",121.324261818403,31.1603824544623,2022-03-22
"松江区","上海市松江区涞亭北路600弄",121.33258084607,31.1626142071328,2022-03-22
"松江区","上海市松江区米筛浜路475弄",121.220549853956,31.1359194849685,2022-03-22
"松江区","上海市松江区崇南公路599弄",121.145220996362,31.0311098106746,2022-03-22
"松江区","上海市松江区陈春公路555弄",121.36140666141,31.0819806760689,2022-03-22
"松江区","上海市松江区盛龙路817号",121.316853942015,31.1263002459762,2022-03-22
"松江区","上海市松江区九亭大街254号",121.342268891334,31.1389104507073,2022-03-22
"松江区","上海市松江区新南路1259弄",121.341389899392,31.0923194686203,2022-03-22
"松江区","上海市松江区长敬",121.29298201207,30.9708520912223,2022-03-22
"松江区","上海市松江区莘松路1500弄",121.343283347746,31.0998437097891,2022-03-22
"松江区","上海市松江区已对相关居住地落实终末消毒措施",121.234479596241,31.0371351764645,2022-03-22
"青浦区","上海市青浦区诸光路1588弄",121.307840973342,31.1903978585839,2022-03-22
"青浦区","上海市青浦区诸光路1355弄",121.306263998019,31.1876238336174,2022-03-22
"青浦区","上海市青浦区赵巷村",121.198879389559,31.1517091783641,2022-03-22
"青浦区","上海市青浦区赵华路89弄",121.212629752,31.1587412646565,2022-03-22
"青浦区","上海市青浦区育才路42弄",121.27654714061,31.1730705109872,2022-03-22
"青浦区","上海市青浦区盈港东路8300弄",121.14859548101,31.170199328131,2022-03-22
"青浦区","上海市青浦区新府中路1331弄",121.236908973663,31.2311418996342,2022-03-22
"青浦区","上海市青浦区外青松公路6161弄",121.137745926722,31.1610238889002,2022-03-22
"青浦区","上海市青浦区华腾路555弄",121.229985171656,31.2428002964701,2022-03-22
"青浦区","上海市青浦区沪青平公路2103弄",121.268656707335,31.1634802726287,2022-03-22
"青浦区","上海市青浦区光联村",121.317580850833,31.1659544365636,2022-03-22
"青浦区","上海市青浦区已对相关居住地落实终末消毒措施",121.130553104673,31.1554543179807,2022-03-22
"奉贤区","上海市奉贤区运河路200弄",121.476004752945,30.928573020372,2022-03-22
"奉贤区","上海市奉贤区西闸路1118弄",121.49997783209,31.0102610399675,2022-03-22
"奉贤区","上海市奉贤区西闸路75号",121.49997783209,31.0102610399675,2022-03-22
"奉贤区","上海市奉贤区新奉公路6328号",121.644750005706,30.9287378207143,2022-03-22
"奉贤区","上海市奉贤区海滨新一村",121.575572037366,30.8673774344048,2022-03-22
"奉贤区","上海市奉贤区南奉公路3111弄",121.581473994397,30.9300738700421,2022-03-22
"奉贤区","上海市奉贤区已对相关居住地落实终末消毒措施",121.480503736431,30.9237201102854,2022-03-22
"崇明区","上海市崇明区南海村",121.695488995826,31.5263080816658,2022-03-22
"崇明区","上海市崇明区四村",121.663316543308,31.5326054376205,2022-03-22
"崇明区","上海市崇明区小漾村",121.679459272984,31.5544991444903,2022-03-22
"崇明区","上海市崇明区江南大道",121.765440867838,31.3589637803225,2022-03-22
"崇明区","上海市崇明区已对相关居住地落实终末消毒措施",121.403556862718,31.628569984404,2022-03-22
"崇明区","上海市崇明区资料各区卫健委新闻办",121.403556862718,31.628569984404,2022-03-22
"崇明区","上海市崇明区编辑黄景源",121.403556862718,31.628569984404,2022-03-22
