"district","address","lng","lat","date"
"浦东新区","上海市浦东新区光明村",121.664900525414,31.296640292705,2022-03-28
"浦东新区","上海市浦东新区通济路328弄",121.752532473676,31.0577488542489,2022-03-28
"浦东新区","上海市浦东新区工农南路201弄",121.774859587635,31.0609104552718,2022-03-28
"浦东新区","上海市浦东新区佳乐路225弄",121.5896261169,31.2815848989426,2022-03-28
"浦东新区","上海市浦东新区松林路333弄",121.540645649646,31.232864650767,2022-03-28
"浦东新区","上海市浦东新区五莲路1047弄",121.601390415689,31.2777458097831,2022-03-28
"浦东新区","上海市浦东新区微山二村",121.519896858468,31.2144186734285,2022-03-28
"浦东新区","上海市浦东新区环龙路263弄",121.532363272844,31.20891389088,2022-03-28
"浦东新区","上海市浦东新区张杨路1050弄",121.537039761499,31.2368178189678,2022-03-28
"浦东新区","上海市浦东新区羽山路1445弄",121.567132277439,31.2467778856191,2022-03-28
"浦东新区","上海市浦东新区北洋泾路601号",121.557255318526,31.2495756276143,2022-03-28
"浦东新区","上海市浦东新区陈春东路99弄",121.565897017532,31.1818564965736,2022-03-28
"浦东新区","上海市浦东新区下南路370弄",121.536884264815,31.1897022555378,2022-03-28
"浦东新区","上海市浦东新区沪南路2518弄",121.536884264815,31.1897022555378,2022-03-28
"浦东新区","上海市浦东新区浦电路328号",121.533476273371,31.226282793962,2022-03-28
"浦东新区","上海市浦东新区御衡路68弄",121.588337407815,31.159592610344,2022-03-28
"浦东新区","上海市浦东新区浦三路741弄",121.526881722792,31.1921087714312,2022-03-28
"浦东新区","上海市浦东新区下南路551弄",121.54679904239,31.1790168752743,2022-03-28
"浦东新区","上海市浦东新区浦东南路1700弄",121.525060767693,31.2237849777418,2022-03-28
"浦东新区","上海市浦东新区东明路560号",121.51612945499,31.1852465511453,2022-03-28
"浦东新区","上海市浦东新区浦电路29弄",121.521798301741,31.2219827721666,2022-03-28
"浦东新区","上海市浦东新区成山路300弄",121.507887861258,31.1768400443712,2022-03-28
"浦东新区","上海市浦东新区东建新村",121.526861421087,31.2227134169234,2022-03-28
"浦东新区","上海市浦东新区齐河路438弄",121.514954830705,31.1854956276215,2022-03-28
"浦东新区","上海市浦东新区五莲路108弄",121.588773624971,31.2771578731139,2022-03-28
"浦东新区","上海市浦东新区昌里东路80弄",121.512747873728,31.1803744049484,2022-03-28
"浦东新区","上海市浦东新区峨山路500弄",121.530728716138,31.2194978888096,2022-03-28
"浦东新区","上海市浦东新区下南路339弄",121.550641274717,31.1767910741702,2022-03-28
"浦东新区","上海市浦东新区上南路3300号",121.505045802286,31.1643609304413,2022-03-28
"浦东新区","上海市浦东新区下南路320弄",121.547891741212,31.1755488136572,2022-03-28
"浦东新区","上海市浦东新区云台路183弄",121.510618530348,31.1833989622759,2022-03-28
"浦东新区","上海市浦东新区下南路500弄",121.543720818899,31.1779675877605,2022-03-28
"浦东新区","上海市浦东新区德州路230弄",121.497516205501,31.1719416617704,2022-03-28
"浦东新区","上海市浦东新区杨莲路311弄",121.536884264815,31.1897022555378,2022-03-28
"浦东新区","上海市浦东新区新浦路673弄",121.536884264815,31.1897022555378,2022-03-28
"浦东新区","上海市浦东新区崂山路644弄",121.531738321701,31.2287727465936,2022-03-28
"浦东新区","上海市浦东新区浦电路53弄",121.522901151416,31.2221458244072,2022-03-28
"浦东新区","上海市浦东新区昌里东路71弄",121.51070692361,31.1826643807287,2022-03-28
"浦东新区","上海市浦东新区下南路276弄",121.536884264815,31.1897022555378,2022-03-28
"浦东新区","上海市浦东新区博华路999弄",121.557113925239,31.1768062904657,2022-03-28
"浦东新区","上海市浦东新区东明路355弄",121.51669511797,31.1894556615896,2022-03-28
"浦东新区","上海市浦东新区下南路526弄",121.544402003967,31.1780418917603,2022-03-28
"浦东新区","上海市浦东新区蓝村路471弄",121.53360158699,31.2179022047027,2022-03-28
"浦东新区","上海市浦东新区德州路255弄",121.497632266573,31.1762287646668,2022-03-28
"浦东新区","上海市浦东新区下南路50弄",121.536884264815,31.1897022555378,2022-03-28
"浦东新区","上海市浦东新区洪山路237弄",121.506882477732,31.1789855165391,2022-03-28
"浦东新区","上海市浦东新区板泉路2101弄",121.539604693221,31.1688158507634,2022-03-28
"浦东新区","上海市浦东新区上南路929弄",121.507678825566,31.1860937173936,2022-03-28
"浦东新区","上海市浦东新区昌里路80弄",121.536884264815,31.1897022555378,2022-03-28
"浦东新区","上海市浦东新区下南路501弄",121.536884264815,31.1897022555378,2022-03-28
"浦东新区","上海市浦东新区三旋路506弄",121.525530311983,31.1391594184198,2022-03-28
"浦东新区","上海市浦东新区上南路6500弄",121.584859707864,31.1200779398788,2022-03-28
"浦东新区","上海市浦东新区云莲路398弄",121.536884264815,31.1897022555378,2022-03-28
"浦东新区","上海市浦东新区博兴路616弄",121.590505647825,31.2688501329907,2022-03-28
"浦东新区","上海市浦东新区东明路660弄",121.529696185109,31.2072012517119,2022-03-28
"浦东新区","上海市浦东新区莱阳路350弄",121.588321507808,31.2804560573812,2022-03-28
"浦东新区","上海市浦东新区张杨路1734弄",121.554515217229,31.2428223596905,2022-03-28
"浦东新区","上海市浦东新区东靖路669弄",121.5896261169,31.2815848989426,2022-03-28
"浦东新区","上海市浦东新区德平路100弄",121.568682662918,31.2539399811791,2022-03-28
"浦东新区","上海市浦东新区周园路1800弄",121.602734101071,31.0995266106954,2022-03-28
"浦东新区","上海市浦东新区金高路988弄",121.61620527016,31.292764484741,2022-03-28
"浦东新区","上海市浦东新区浦城路580弄",121.521080555639,31.230158967011,2022-03-28
"浦东新区","上海市浦东新区卫民村",121.747808195169,31.1040113531087,2022-03-28
"浦东新区","上海市浦东新区高青路4567弄",121.536884264815,31.1897022555378,2022-03-28
"浦东新区","上海市浦东新区潍坊路168弄",121.53400923803,31.2319187124804,2022-03-28
"浦东新区","上海市浦东新区南码头路1120弄",121.520170572157,31.1914465435909,2022-03-28
"浦东新区","上海市浦东新区五星村陈家队陈家宅",121.578579474383,31.194413133383,2022-03-28
"浦东新区","上海市浦东新区崂山路502号",121.52356526868,31.2427278844216,2022-03-28
"浦东新区","上海市浦东新区康沈路400弄",121.584859707864,31.1200779398788,2022-03-28
"浦东新区","上海市浦东新区南团公路858弄",121.768831328849,31.0299764821392,2022-03-28
"浦东新区","上海市浦东新区立新村",121.763918136693,31.1774717113271,2022-03-28
"浦东新区","上海市浦东新区鹿溪村",121.702793387419,31.1246797904009,2022-03-28
"浦东新区","上海市浦东新区国展路1776号工地生活区",121.496566767973,31.1889226474886,2022-03-28
"浦东新区","上海市浦东新区懿行路971弄",121.51939497518,31.1311335477655,2022-03-28
"浦东新区","上海市浦东新区上南路2779号",121.503728976239,31.173002834929,2022-03-28
"浦东新区","上海市浦东新区潍坊路606号",121.528018797906,31.2292048956976,2022-03-28
"浦东新区","上海市浦东新区张杨路1000弄",121.536220866196,31.2355781298217,2022-03-28
"浦东新区","上海市浦东新区成山路475弄",121.513497240185,31.178313077688,2022-03-28
"浦东新区","上海市浦东新区绿林路320弄",121.554834744499,31.1761626467343,2022-03-28
"浦东新区","上海市浦东新区赵家厍",121.543435157746,31.1767913831306,2022-03-28
"浦东新区","上海市浦东新区浦电路218弄",121.53039158208,31.2260317415484,2022-03-28
"浦东新区","上海市浦东新区杨思路855弄",121.506597265732,31.1689656319057,2022-03-28
"浦东新区","上海市浦东新区上南路5588号",121.534100685531,31.1291441675857,2022-03-28
"浦东新区","上海市浦东新区张杨路310弄",121.519739385513,31.2308058679906,2022-03-28
"浦东新区","上海市浦东新区耀华路200弄",121.500795020613,31.1775285595996,2022-03-28
"浦东新区","上海市浦东新区联勤村张家队张家宅",121.691947606014,31.2362337931142,2022-03-28
"浦东新区","上海市浦东新区林展路267弄",121.513993014996,31.133678885242,2022-03-28
"浦东新区","上海市浦东新区上南路5600号",121.533819246415,31.1318717011893,2022-03-28
"浦东新区","上海市浦东新区杨高南路5055弄",121.537526104102,31.1561531881371,2022-03-28
"浦东新区","上海市浦东新区南新村吴家宅",121.526625615891,31.3601914545598,2022-03-28
"浦东新区","上海市浦东新区庆利路185弄",121.731212180533,31.2414790883826,2022-03-28
"浦东新区","上海市浦东新区成山路350弄",121.510295409856,31.1773702957771,2022-03-28
"浦东新区","上海市浦东新区成山路1728弄",121.535534201464,31.1818249843163,2022-03-28
"浦东新区","上海市浦东新区成山路210号",121.500842001991,31.1766267071257,2022-03-28
"浦东新区","上海市浦东新区康士路15弄",121.569516739584,31.1556683987021,2022-03-28
"浦东新区","上海市浦东新区昌里路98弄",121.509564638323,31.1806719991486,2022-03-28
"浦东新区","上海市浦东新区天花庵村",121.531939542135,31.1285359001772,2022-03-28
"浦东新区","上海市浦东新区祝西村",121.757781632093,31.1116433338875,2022-03-28
"浦东新区","上海市浦东新区耀华路421弄",121.489669776363,31.1813858197461,2022-03-28
"浦东新区","上海市浦东新区五星村徐家队奚家宅",121.567395660614,31.1910144518823,2022-03-28
"浦东新区","上海市浦东新区莱阳路451弄",121.58929185742,31.2821589973274,2022-03-28
"浦东新区","上海市浦东新区东方路1523号",121.533517325933,31.2149954234141,2022-03-28
"浦东新区","上海市浦东新区康沈路465弄",121.584859707864,31.1200779398788,2022-03-28
"浦东新区","上海市浦东新区巨野路大陆家宅",121.553185994566,31.2448978584695,2022-03-28
"浦东新区","上海市浦东新区南码头路1696弄",121.521437362588,31.1826299338027,2022-03-28
"浦东新区","上海市浦东新区康桥路90弄",121.584859707864,31.1200779398788,2022-03-28
"浦东新区","上海市浦东新区高科西路961号",121.518744961313,31.1923368238538,2022-03-28
"浦东新区","上海市浦东新区崂山路640号",121.5312734486,31.2290828473587,2022-03-28
"浦东新区","上海市浦东新区曹路镇顾家宅",121.673574204096,31.2875780004637,2022-03-28
"浦东新区","上海市浦东新区新浦路587弄",121.532965137536,31.1927229594364,2022-03-28
"浦东新区","上海市浦东新区上南路1251弄",121.502606274012,31.1785212361064,2022-03-28
"浦东新区","上海市浦东新区一六村金桥队南赵家宅",121.602726734966,31.1731882956816,2022-03-28
"浦东新区","上海市浦东新区浦电路330弄",121.534528817937,31.2266271793415,2022-03-28
"浦东新区","上海市浦东新区昌里东路550弄",121.521399004942,31.1835358991941,2022-03-28
"浦东新区","上海市浦东新区卫行村朱家队朱家宅",121.587201410668,31.1666652020159,2022-03-28
"浦东新区","上海市浦东新区上南路3521号",121.511585466399,31.1615953281232,2022-03-28
"浦东新区","上海市浦东新区上南新村",121.510094818235,31.1788326618643,2022-03-28
"浦东新区","上海市浦东新区羽山路780号",121.557249389709,31.2412510784546,2022-03-28
"浦东新区","上海市浦东新区三灶村",121.712526347959,31.0750539581203,2022-03-28
"浦东新区","上海市浦东新区蓝村路470弄",121.531604025027,31.2174828969005,2022-03-28
"浦东新区","上海市浦东新区齐河路909弄",121.523275116,31.1892696151779,2022-03-28
"浦东新区","上海市浦东新区浦电路305弄",121.531913940428,31.2253816423621,2022-03-28
"浦东新区","上海市浦东新区牌楼村",121.565577580092,31.0591482746553,2022-03-28
"浦东新区","上海市浦东新区昌里路340弄",121.500968393576,31.1782390828587,2022-03-28
"浦东新区","上海市浦东新区通济路47弄",121.752185907411,31.0488845763516,2022-03-28
"浦东新区","上海市浦东新区昌里东路650弄",121.521399004942,31.1835358991941,2022-03-28
"浦东新区","上海市浦东新区御桥村姚家队姚家宅",121.564117833639,31.1623293022053,2022-03-28
"浦东新区","上海市浦东新区浦电路155号",121.528051406396,31.2244299927658,2022-03-28
"浦东新区","上海市浦东新区沪南路2000号",121.567875804909,31.1700081452879,2022-03-28
"浦东新区","上海市浦东新区芳华路916弄",121.574598004701,31.2028538934567,2022-03-28
"浦东新区","上海市浦东新区光辉村",121.718709384784,31.0698578892064,2022-03-28
"浦东新区","上海市浦东新区浦电路331弄",121.535182335196,31.225922581402,2022-03-28
"浦东新区","上海市浦东新区康桥路1633弄",121.584859707864,31.1200779398788,2022-03-28
"浦东新区","上海市浦东新区周市路66号",121.589299852339,31.1163489339985,2022-03-28
"浦东新区","上海市浦东新区龙居路179号",121.56974095664,31.2581880629419,2022-03-28
"浦东新区","上海市浦东新区浦东南路1475弄",121.525751744291,31.2285494147365,2022-03-28
"浦东新区","上海市浦东新区黄路村",121.771168540125,31.036297341805,2022-03-28
"浦东新区","上海市浦东新区鹤驰路99弄",121.599741665756,31.0849672715556,2022-03-28
"浦东新区","上海市浦东新区苗圃路266号",121.554695147822,31.2475071790209,2022-03-28
"浦东新区","上海市浦东新区南泉路1300弄",121.528930308507,31.217418043381,2022-03-28
"浦东新区","上海市浦东新区御山路360弄",121.574682445419,31.1620356669102,2022-03-28
"浦东新区","上海市浦东新区川沙路326弄",121.672769322359,31.2863483196138,2022-03-28
"浦东新区","上海市浦东新区南新村",121.526625615891,31.3601914545598,2022-03-28
"浦东新区","上海市浦东新区南新村西钟家宅",121.548654941573,31.1732516349633,2022-03-28
"浦东新区","上海市浦东新区京浦路82弄",121.573340197326,31.1596915729849,2022-03-28
"浦东新区","上海市浦东新区耀华路579弄",121.48605966618,31.17881049444,2022-03-28
"浦东新区","上海市浦东新区康山路608弄",121.550454606832,31.2273482924363,2022-03-28
"浦东新区","上海市浦东新区海阳路815弄",121.508424958123,31.1642453638873,2022-03-28
"浦东新区","上海市浦东新区秀沿路2501弄",121.607210087936,31.1446754834221,2022-03-28
"浦东新区","上海市浦东新区德州路380弄",121.493341150983,31.1714543276073,2022-03-28
"浦东新区","上海市浦东新区新陈路303弄",121.536884264815,31.1897022555378,2022-03-28
"浦东新区","上海市浦东新区南泉路1350弄",121.527360429798,31.215168447717,2022-03-28
"浦东新区","上海市浦东新区康桥路1055号",121.573922928111,31.1553093825056,2022-03-28
"浦东新区","上海市浦东新区新浦路543弄",121.536926664835,31.1758010055361,2022-03-28
"浦东新区","上海市浦东新区高青路2861弄",121.536884264815,31.1897022555378,2022-03-28
"浦东新区","上海市浦东新区浦电路56号",121.52421097068,31.2234516217356,2022-03-28
"浦东新区","上海市浦东新区汤巷中心村",121.618456872921,31.1498058407497,2022-03-28
"浦东新区","上海市浦东新区秀沿西路68弄",121.543756032475,31.1375878662796,2022-03-28
"浦东新区","上海市浦东新区环桥路1136弄",121.584859707864,31.1200779398788,2022-03-28
"浦东新区","上海市浦东新区永泰路775弄",121.52441470637,31.1479803464903,2022-03-28
"浦东新区","上海市浦东新区霍山路201弄",121.518055691495,31.2366490029875,2022-03-28
"浦东新区","上海市浦东新区北蔡镇黄家队黄家宅",121.560954450785,31.1881757258589,2022-03-28
"浦东新区","上海市浦东新区黄楼村谢家宅",121.674378457019,31.1723260275217,2022-03-28
"浦东新区","上海市浦东新区浦三路635弄",121.525132182981,31.1951443021741,2022-03-28
"浦东新区","上海市浦东新区花木路500弄",121.549098435004,31.2178118734071,2022-03-28
"浦东新区","上海市浦东新区高宝路379弄",121.5896261169,31.2815848989426,2022-03-28
"浦东新区","上海市浦东新区南码头路1136弄",121.519727887202,31.1898749404218,2022-03-28
"浦东新区","上海市浦东新区幸福村幸福公寓",121.784732683834,31.0330645963296,2022-03-28
"浦东新区","上海市浦东新区团结村",121.614929586505,31.2240920841927,2022-03-28
"浦东新区","上海市浦东新区英雄村",121.759684602486,31.0341203756928,2022-03-28
"浦东新区","上海市浦东新区通济路365弄",121.752221031156,31.0577992012623,2022-03-28
"浦东新区","上海市浦东新区听悦路960号",121.746609047143,31.066772527193,2022-03-28
"浦东新区","上海市浦东新区靖海路547弄",121.773875323388,31.0625256396981,2022-03-28
"浦东新区","上海市浦东新区西门路121弄",121.751872039465,31.0520247415615,2022-03-28
"浦东新区","上海市浦东新区西门村",121.748019117303,31.0603939308044,2022-03-28
"浦东新区","上海市浦东新区栖山路400弄",121.557578978001,31.2520178816585,2022-03-28
"浦东新区","上海市浦东新区扶栏村",121.758401552726,31.0007529466085,2022-03-28
"浦东新区","上海市浦东新区羽山路1446弄",121.568582951007,31.2459944040648,2022-03-28
"浦东新区","上海市浦东新区洋泾镇路117号",121.557453035569,31.2483270002024,2022-03-28
"浦东新区","上海市浦东新区桃林路189号",121.541948551958,31.2465369991215,2022-03-28
"浦东新区","上海市浦东新区迎春路1355弄",121.569082498701,31.235478938542,2022-03-28
"浦东新区","上海市浦东新区博山路50弄",121.562882933054,31.2522236381075,2022-03-28
"浦东新区","上海市浦东新区羽山路998弄",121.563115773842,31.2432627027196,2022-03-28
"浦东新区","上海市浦东新区栖山路99号",121.549614511519,31.2490640767511,2022-03-28
"浦东新区","上海市浦东新区浦东大道2894号",121.582823967917,31.2789444329845,2022-03-28
"浦东新区","上海市浦东新区金桥路1250弄",121.5896261169,31.2815848989426,2022-03-28
"浦东新区","上海市浦东新区德平路1189弄",121.576813136258,31.2458715286161,2022-03-28
"浦东新区","上海市浦东新区成山路648弄",121.515115986714,31.1776118237191,2022-03-28
"浦东新区","上海市浦东新区昌里东路320弄",121.517463438673,31.1821394112912,2022-03-28
"浦东新区","上海市浦东新区东园三村",121.520245131515,31.2362402771643,2022-03-28
"浦东新区","上海市浦东新区羽山路308弄",121.548396409248,31.2379660219991,2022-03-28
"浦东新区","上海市浦东新区浦东南路3905弄",121.508197686829,31.1889342827717,2022-03-28
"浦东新区","上海市浦东新区齐河路26号",121.50705333544,31.1838967382144,2022-03-28
"浦东新区","上海市浦东新区东明路383弄",121.51666089253,31.1885680570182,2022-03-28
"浦东新区","上海市浦东新区东环龙路299号",121.531993170974,31.20685797872,2022-03-28
"浦东新区","上海市浦东新区崂山路571弄",121.529543491848,31.2323093937171,2022-03-28
"浦东新区","上海市浦东新区果园村",121.737440132634,30.9836647732627,2022-03-28
"浦东新区","上海市浦东新区华夏二路350弄",121.69105999034,31.1985758849567,2022-03-28
"浦东新区","上海市浦东新区严杨路165弄",121.535772517227,31.2010332805955,2022-03-28
"浦东新区","上海市浦东新区御北路235号工地生活区",121.56552717232,31.1648308871202,2022-03-28
"浦东新区","上海市浦东新区华夏二路728弄",121.692337740097,31.1933740576524,2022-03-28
"浦东新区","上海市浦东新区德州路300弄",121.536884264815,31.1897022555378,2022-03-28
"浦东新区","上海市浦东新区南阜村东汤家宅队",121.526167659742,31.1360516018922,2022-03-28
"浦东新区","上海市浦东新区历城路100弄",121.4979155023,31.1798977733905,2022-03-28
"浦东新区","上海市浦东新区五莲路758弄",121.597115379767,31.2759334561154,2022-03-28
"浦东新区","上海市浦东新区荷泽路287弄",121.599586618225,31.2744750757472,2022-03-28
"浦东新区","上海市浦东新区长岛路1267弄",121.601522825921,31.268319782292,2022-03-28
"浦东新区","上海市浦东新区长岛路1201弄",121.596729737212,31.2693476089323,2022-03-28
"浦东新区","上海市浦东新区博兴路916弄",121.597995000523,31.2704201787296,2022-03-28
"浦东新区","上海市浦东新区海霞路493弄",121.749863608006,31.1754006650947,2022-03-28
"浦东新区","上海市浦东新区通源东路16号",121.895334393817,31.0113782016579,2022-03-28
"浦东新区","上海市浦东新区连民村",121.691012110656,31.096250888207,2022-03-28
"浦东新区","上海市浦东新区会龙村",121.720019383709,31.1007360187369,2022-03-28
"浦东新区","上海市浦东新区吉灿路17弄",121.712895731185,31.1165153388616,2022-03-28
"浦东新区","上海市浦东新区锦绣路300弄",121.57156047445,31.231704265536,2022-03-28
"浦东新区","上海市浦东新区华夏东路860弄",121.672341549276,31.2003301237338,2022-03-28
"浦东新区","上海市浦东新区永泰路133弄",121.509215736463,31.1415938891426,2022-03-28
"浦东新区","上海市浦东新区瓦南村",121.659544468641,31.1047808712322,2022-03-28
"浦东新区","上海市浦东新区千汇路580弄",121.774441695912,31.1180387837147,2022-03-28
"浦东新区","上海市浦东新区星火村",121.708317606984,31.2618230698832,2022-03-28
"浦东新区","上海市浦东新区千汇路280弄",121.773919960072,31.1148449391051,2022-03-28
"浦东新区","上海市浦东新区金星村",121.779087462518,31.1192198982828,2022-03-28
"浦东新区","上海市浦东新区三八村",121.763625019605,31.1147768456479,2022-03-28
"浦东新区","上海市浦东新区华星村",121.721645137021,31.2063762311893,2022-03-28
"浦东新区","上海市浦东新区祝城路77弄",121.768478474445,31.114892704974,2022-03-28
"浦东新区","上海市浦东新区红三村",121.800614815081,31.0910897742916,2022-03-28
"浦东新区","上海市浦东新区先进村",121.81000857546,31.1038277654838,2022-03-28
"浦东新区","上海市浦东新区星光村",121.755200800363,31.1255442738515,2022-03-28
"浦东新区","上海市浦东新区千汇一村",121.775260770876,31.1157832480086,2022-03-28
"浦东新区","上海市浦东新区南祝路258弄",121.761885989968,31.1259748896737,2022-03-28
"浦东新区","上海市浦东新区金亭公路619号",121.774519938322,31.11811970468,2022-03-28
"浦东新区","上海市浦东新区美容新村",121.844011145793,31.0452132347557,2022-03-28
"浦东新区","上海市浦东新区千汇路1000弄",121.771261784237,31.1267973202228,2022-03-28
"浦东新区","上海市浦东新区永春东路70号",121.747580923875,30.9780993303596,2022-03-28
"浦东新区","上海市浦东新区千汇三村",121.771959318466,31.1196532481387,2022-03-28
"浦东新区","上海市浦东新区杨思北街",121.499143935085,31.1698540400458,2022-03-28
"浦东新区","上海市浦东新区洪山路300弄",121.507182062619,31.175607516881,2022-03-28
"浦东新区","上海市浦东新区成山路668弄",121.519473037929,31.1758708312841,2022-03-28
"浦东新区","上海市浦东新区南码头路1127弄",121.521736139,31.191233162358,2022-03-28
"浦东新区","上海市浦东新区杨高南路2828号",121.525531210288,31.1821803461919,2022-03-28
"浦东新区","上海市浦东新区东明路511弄",121.517331836915,31.1861863190199,2022-03-28
"浦东新区","上海市浦东新区昌里东路333弄",121.517397503048,31.1827755994171,2022-03-28
"浦东新区","上海市浦东新区洪山路121弄",121.505002773452,31.1847097022013,2022-03-28
"浦东新区","上海市浦东新区德州路223弄",121.536884264815,31.1897022555378,2022-03-28
"浦东新区","上海市浦东新区德州路465弄",121.536884264815,31.1897022555378,2022-03-28
"浦东新区","上海市浦东新区济阳路65弄",121.488308933346,31.1730161980026,2022-03-28
"浦东新区","上海市浦东新区耀华路550弄",121.487451231245,31.1759876966065,2022-03-28
"浦东新区","上海市浦东新区牛肚村",121.835494131592,31.0588987083613,2022-03-28
"浦东新区","上海市浦东新区康悦路325弄",121.538534631698,31.36524316521,2022-03-28
"浦东新区","上海市浦东新区东滨村纪家宅",121.772191081287,31.2129513807415,2022-03-28
"浦东新区","上海市浦东新区晚霞路551号",121.75692851135,31.184025178652,2022-03-28
"浦东新区","上海市浦东新区卫东村周家宅",121.762228334198,31.1823433904965,2022-03-28
"浦东新区","上海市浦东新区航昌路376弄",121.615217673082,31.0849722970713,2022-03-28
"浦东新区","上海市浦东新区瑞和路269弄",121.595639912967,31.0935069363829,2022-03-28
"浦东新区","上海市浦东新区王楼村",121.624150692565,31.0742551228397,2022-03-28
"浦东新区","上海市浦东新区瑞和路168弄",121.596005433479,31.0917933754093,2022-03-28
"浦东新区","上海市浦东新区航瑞路388弄",121.598209066726,31.0806847387713,2022-03-28
"浦东新区","上海市浦东新区鹤沙路188弄",121.613093989026,31.0876663987478,2022-03-28
"浦东新区","上海市浦东新区沈庄西街",121.591210560735,31.0920807543257,2022-03-28
"浦东新区","上海市浦东新区百曲村",121.554663071129,31.1179027476089,2022-03-28
"浦东新区","上海市浦东新区浦电路311号",121.533171747803,31.2257702665013,2022-03-28
"浦东新区","上海市浦东新区浦东南路1466弄",121.522425139326,31.226964847165,2022-03-28
"浦东新区","上海市浦东新区潍坊西路100弄",121.522905283621,31.2282278869475,2022-03-28
"浦东新区","上海市浦东新区潍坊路335弄",121.538270619708,31.2337883478814,2022-03-28
"浦东新区","上海市浦东新区源深路600弄2支弄",121.541346866927,31.2360064651209,2022-03-28
"浦东新区","上海市浦东新区北张家浜路28弄",121.526166761436,31.2215797725124,2022-03-28
"浦东新区","上海市浦东新区福山路102弄",121.53400762108,31.2373708107451,2022-03-28
"浦东新区","上海市浦东新区张杨路951弄",121.53298364263,31.2369143843504,2022-03-28
"浦东新区","上海市浦东新区张杨路1269弄",121.538690487704,31.238534367636,2022-03-28
"浦东新区","上海市浦东新区松林路111号",121.537130131033,31.2382563318072,2022-03-28
"浦东新区","上海市浦东新区东昌路490弄",121.519723575336,31.2375223348617,2022-03-28
"浦东新区","上海市浦东新区张杨路981弄",121.5896261169,31.2815848989426,2022-03-28
"浦东新区","上海市浦东新区钦殿街58号",121.538196868826,31.23906396108,2022-03-28
"浦东新区","上海市浦东新区福山路100弄",121.533774690462,31.2384178890954,2022-03-28
"浦东新区","上海市浦东新区东方路573弄",121.531333545238,31.2376845881265,2022-03-28
"浦东新区","上海市浦东新区杨思镇后长街",121.502212007724,31.1684649185582,2022-03-28
"浦东新区","上海市浦东新区商城路1177弄",121.533303080069,31.2409195599813,2022-03-28
"浦东新区","上海市浦东新区唐港路1059弄",121.870669260107,30.9829726711955,2022-03-28
"浦东新区","上海市浦东新区齐河路259弄",121.510827925362,31.1867545156535,2022-03-28
"浦东新区","上海市浦东新区祝家港路155弄",121.592181436754,31.1164185721122,2022-03-28
"浦东新区","上海市浦东新区成山路226弄",121.503720083014,31.1763904289944,2022-03-28
"浦东新区","上海市浦东新区成山路558号",121.515106015523,31.1779565425663,2022-03-28
"浦东新区","上海市浦东新区云台路453弄",121.536884264815,31.1897022555378,2022-03-28
"浦东新区","上海市浦东新区川沙镇郭家宅",121.754754252694,31.1174722577179,2022-03-28
"浦东新区","上海市浦东新区其成村",121.692090616251,31.1200929335103,2022-03-28
"浦东新区","上海市浦东新区新陈路150弄",121.536884264815,31.1897022555378,2022-03-28
"浦东新区","上海市浦东新区齐河路27弄",121.506599870818,31.1845674378742,2022-03-28
"浦东新区","上海市浦东新区环桥路1488弄",121.584859707864,31.1200779398788,2022-03-28
"浦东新区","上海市浦东新区陈行村",121.71962493776,31.1720064695306,2022-03-28
"浦东新区","上海市浦东新区华路村",121.742779301263,31.2001365312709,2022-03-28
"浦东新区","上海市浦东新区浦东大道2511弄",121.566406266925,31.265127505972,2022-03-28
"浦东新区","上海市浦东新区金沪路1218弄",121.610691291278,31.246915347325,2022-03-28
"浦东新区","上海市浦东新区永乐村",121.762237676576,31.0810016694205,2022-03-28
"浦东新区","上海市浦东新区鹤立西路88弄",121.591231748169,31.06555502677,2022-03-28
"浦东新区","上海市浦东新区航昌路199弄",121.615016362817,31.0849217326394,2022-03-28
"浦东新区","上海市浦东新区梓康路258号",121.573691883934,31.1283197483023,2022-03-28
"浦东新区","上海市浦东新区秀龙村",121.569139900423,31.1326056758834,2022-03-28
"浦东新区","上海市浦东新区沿江村",121.608037966294,31.0602733641974,2022-03-28
"浦东新区","上海市浦东新区周市路1321号",121.589701664393,31.1193185943326,2022-03-28
"浦东新区","上海市浦东新区沈西村",121.572071969607,31.0966482420378,2022-03-28
"浦东新区","上海市浦东新区施镇路385弄",121.763791295955,31.1503483750958,2022-03-28
"浦东新区","上海市浦东新区迅建村",121.699225138273,31.2840908923215,2022-03-28
"浦东新区","上海市浦东新区龚华路50弄",121.691832533078,31.2705828378796,2022-03-28
"浦东新区","上海市浦东新区群乐村付家圈",121.688635284107,31.287960888559,2022-03-28
"浦东新区","上海市浦东新区民建村",121.667798908142,31.2822498065456,2022-03-28
"浦东新区","上海市浦东新区民区路176弄",121.657984650954,31.2776793777543,2022-03-28
"浦东新区","上海市浦东新区民春路501弄",121.652778790863,31.290487771739,2022-03-28
"浦东新区","上海市浦东新区海松路398弄",121.687490753057,31.2839344288311,2022-03-28
"浦东新区","上海市浦东新区建新村周家宅",121.682639184659,31.3011430694013,2022-03-28
"浦东新区","上海市浦东新区古棕路168弄",121.923877781905,30.8902665107794,2022-03-28
"浦东新区","上海市浦东新区民区路260弄",121.662034391854,31.2795043510196,2022-03-28
"浦东新区","上海市浦东新区启明村",121.699185882322,31.2841232959702,2022-03-28
"浦东新区","上海市浦东新区海鸣路98弄",121.677548217842,31.2886278337477,2022-03-28
"浦东新区","上海市浦东新区顾唐路138弄",121.652778790863,31.290487771739,2022-03-28
"浦东新区","上海市浦东新区顾东村",121.668134784572,31.29938100167,2022-03-28
"浦东新区","上海市浦东新区海容路99弄",121.680835027872,31.2869618891018,2022-03-28
"浦东新区","上海市浦东新区永和村",121.702053992154,31.2700965571685,2022-03-28
"浦东新区","上海市浦东新区康沈路1758弄",121.58452158567,31.1196864815925,2022-03-28
"浦东新区","上海市浦东新区北庄村",121.663919575797,31.1001957488276,2022-03-28
"浦东新区","上海市浦东新区康沈路1527弄",121.582648798343,31.1249531399078,2022-03-28
"浦东新区","上海市浦东新区金银花路凌霄花路南侧工地生活区",121.630529829483,31.1049588141549,2022-03-28
"浦东新区","上海市浦东新区韵浦路167弄",121.583000754442,31.1177055926451,2022-03-28
"浦东新区","上海市浦东新区繁荣东路159号",121.593668401864,31.1137037295318,2022-03-28
"浦东新区","上海市浦东新区周星路500弄",121.585699803177,31.1080593111742,2022-03-28
"浦东新区","上海市浦东新区瑞阳路693弄",121.5976750241,31.0945438710696,2022-03-28
"浦东新区","上海市浦东新区周南村",121.589970886555,31.111919735761,2022-03-28
"浦东新区","上海市浦东新区周东路418弄",121.59321448809,31.1228451517984,2022-03-28
"浦东新区","上海市浦东新区周泰路32弄",121.607434035499,31.107255809072,2022-03-28
"浦东新区","上海市浦东新区年家浜路339弄",121.583280127455,31.1206381899771,2022-03-28
"浦东新区","上海市浦东新区周东路508弄",121.592406462284,31.1249777931038,2022-03-28
"浦东新区","上海市浦东新区年家浜路28弄",121.592127538423,31.1211568569416,2022-03-28
"浦东新区","上海市浦东新区周阳路258弄",121.609184832938,31.0995118456945,2022-03-28
"浦东新区","上海市浦东新区坦南村",121.65884962933,31.0724938878595,2022-03-28
"浦东新区","上海市浦东新区唐陆路1190号",121.642206453654,31.2483373424685,2022-03-28
"浦东新区","上海市浦东新区金湘路201弄",121.619764626082,31.261871069581,2022-03-28
"浦东新区","上海市浦东新区佳乐路255弄",121.62239890699,31.2744935168664,2022-03-28
"浦东新区","上海市浦东新区碧云路1198号",121.596007679243,31.2488803870134,2022-03-28
"浦东新区","上海市浦东新区碧云路86弄",121.580076859837,31.2413684025222,2022-03-28
"浦东新区","上海市浦东新区长岛路1398弄",121.605978421251,31.2697987842173,2022-03-28
"浦东新区","上海市浦东新区博兴路1268弄",121.603268092365,31.2733805728167,2022-03-28
"浦东新区","上海市浦东新区东后老街",121.654777969775,31.0275480188022,2022-03-28
"浦东新区","上海市浦东新区新环北路1333弄",121.641548355038,31.0355285788294,2022-03-28
"浦东新区","上海市浦东新区仁义村",121.647293378096,31.0643146974948,2022-03-28
"浦东新区","上海市浦东新区众安村",121.656744719859,31.0039427689734,2022-03-28
"浦东新区","上海市浦东新区新卫村",121.64761515113,31.044082628274,2022-03-28
"浦东新区","上海市浦东新区王桥村",121.701828427641,31.21255135342,2022-03-28
"浦东新区","上海市浦东新区坦西村",121.653310677555,31.0918883120652,2022-03-28
"浦东新区","上海市浦东新区合庆镇奚家队杨家宅",121.729988508767,31.243208518641,2022-03-28
"浦东新区","上海市浦东新区合庆镇庆丰村邬家宅",121.723719504105,31.2470521913717,2022-03-28
"浦东新区","上海市浦东新区庆利路425号",121.732170492851,31.2375058161976,2022-03-28
"浦东新区","上海市浦东新区前哨路231弄",121.729274724713,31.2444427797586,2022-03-28
"浦东新区","上海市浦东新区博兴路799弄",121.59697731021,31.27188533547,2022-03-28
"浦东新区","上海市浦东新区荷泽路418弄",121.599695133531,31.2729046351942,2022-03-28
"浦东新区","上海市浦东新区张杨北路512弄",121.595559065471,31.2713992930251,2022-03-28
"浦东新区","上海市浦东新区川沙路4850弄",121.652778790863,31.290487771739,2022-03-28
"浦东新区","上海市浦东新区南桥路983弄",121.69942851464,31.1934602422984,2022-03-28
"浦东新区","上海市浦东新区新德路558弄",121.698400942967,31.2030046240558,2022-03-28
"浦东新区","上海市浦东新区绣川路1130号",121.716324653147,31.1917227877732,2022-03-28
"浦东新区","上海市浦东新区妙栏路353弄",121.696058341858,31.1925650301754,2022-03-28
"浦东新区","上海市浦东新区城南路627弄",121.70162621907,31.1955905841654,2022-03-28
"浦东新区","上海市浦东新区江晖路296弄",121.743787020384,31.179845869759,2022-03-28
"浦东新区","上海市浦东新区新东路5号",121.747132938917,31.1987375107422,2022-03-28
"浦东新区","上海市浦东新区南桥路1060弄",121.697408764531,31.193551137668,2022-03-28
"浦东新区","上海市浦东新区妙境路124弄",121.695108922765,31.2023247128499,2022-03-28
"浦东新区","上海市浦东新区华夏二路1255弄",121.69800191566,31.1828119771678,2022-03-28
"浦东新区","上海市浦东新区城南路677号",121.70060454627,31.1958477417103,2022-03-28
"浦东新区","上海市浦东新区妙境路600弄",121.69771337993,31.1953209154952,2022-03-28
"浦东新区","上海市浦东新区小湾村",121.696076936782,31.2397902271145,2022-03-28
"浦东新区","上海市浦东新区妙境路395弄",121.697778417249,31.1991786789898,2022-03-28
"浦东新区","上海市浦东新区川环南路921弄",121.701443773221,31.1918384749188,2022-03-28
"浦东新区","上海市浦东新区新吉村",121.725028425063,31.1167471303745,2022-03-28
"浦东新区","上海市浦东新区银峰路676弄",121.652778790863,31.290487771739,2022-03-28
"浦东新区","上海市浦东新区妙南路265弄",121.694842215859,31.1919764806927,2022-03-28
"浦东新区","上海市浦东新区华夏二路200弄",121.690606435888,31.2000575343113,2022-03-28
"浦东新区","上海市浦东新区五莲路1168号",121.602929392689,31.2784563440545,2022-03-28
"浦东新区","上海市浦东新区柳埠路135弄",121.588934241996,31.2688910299805,2022-03-28
"浦东新区","上海市浦东新区金桥路2552弄",121.609184383785,31.2399130333655,2022-03-28
"浦东新区","上海市浦东新区瑞浦路77弄",121.592640920022,31.1039600259099,2022-03-28
"浦东新区","上海市浦东新区川化新村",121.694199927419,31.224799243531,2022-03-28
"浦东新区","上海市浦东新区桂江路77弄",121.435059628478,31.1721788780382,2022-03-28
"浦东新区","上海市浦东新区康安路御北路交界口工地生活区",121.563785999583,31.1639392972324,2022-03-28
"浦东新区","上海市浦东新区莲安西路125弄",121.559745780722,31.1853271824863,2022-03-28
"浦东新区","上海市浦东新区御青路56弄",121.578469072636,31.1650319243446,2022-03-28
"浦东新区","上海市浦东新区杨南路689弄",121.507104628684,31.1569177210953,2022-03-28
"浦东新区","上海市浦东新区闵家浜路70弄",121.550454606832,31.2273482924363,2022-03-28
"浦东新区","上海市浦东新区张家桥村",121.693207659153,31.0432861601919,2022-03-28
"浦东新区","上海市浦东新区新安村",121.687760154879,31.0293322194091,2022-03-28
"浦东新区","上海市浦东新区南六公路699弄1支弄",121.715779291872,31.0779089404687,2022-03-28
"浦东新区","上海市浦东新区闵家浜路60弄",121.728511604678,31.0807775217017,2022-03-28
"浦东新区","上海市浦东新区永业路218弄",121.622881566541,31.2722620378447,2022-03-28
"浦东新区","上海市浦东新区永宁路136弄",121.616396968556,31.2715431229627,2022-03-28
"浦东新区","上海市浦东新区佳林路115弄",121.615851786942,31.2749779228704,2022-03-28
"浦东新区","上海市浦东新区韵涛路36弄",121.584859707864,31.1200779398788,2022-03-28
"浦东新区","上海市浦东新区顾三村",121.682658228735,31.3010551326507,2022-03-28
"浦东新区","上海市浦东新区上川路中虹家园",121.678870254061,31.2888780237561,2022-03-28
"浦东新区","上海市浦东新区永丰村陈家宅",121.683246259522,31.2574924233498,2022-03-28
"浦东新区","上海市浦东新区日新村杨薛家宅",121.674955438648,31.2654722113219,2022-03-28
"浦东新区","上海市浦东新区永春南路407弄",121.745271615474,30.9745549533931,2022-03-28
"浦东新区","上海市浦东新区永春西二路86弄",121.743658562696,30.9803491852659,2022-03-28
"浦东新区","上海市浦东新区柴场村",121.732663662576,31.1867538977984,2022-03-28
"浦东新区","上海市浦东新区赵桥村",121.653830886276,31.2972341236684,2022-03-28
"浦东新区","上海市浦东新区严楼村",121.754048813377,31.0228818454831,2022-03-28
"浦东新区","上海市浦东新区浦东大道2970弄",121.585274365688,31.2829352319847,2022-03-28
"浦东新区","上海市浦东新区五莲路100弄",121.585797359155,31.2816781004793,2022-03-28
"浦东新区","上海市浦东新区兰城路115弄",121.585504152237,31.272452471814,2022-03-28
"浦东新区","上海市浦东新区寿光路75弄",121.589577991099,31.2796470691226,2022-03-28
"浦东新区","上海市浦东新区柳埠路142弄",121.588915647072,31.2693304014172,2022-03-28
"浦东新区","上海市浦东新区浦东大道3080弄",121.584325575408,31.2886102440457,2022-03-28
"浦东新区","上海市浦东新区莱阳路201弄",121.586405332325,31.2794549715842,2022-03-28
"浦东新区","上海市浦东新区浦东大道2920弄",121.583602619133,31.2809363432894,2022-03-28
"浦东新区","上海市浦东新区东波路258号",121.587683441404,31.2899489806232,2022-03-28
"浦东新区","上海市浦东新区长岛路85弄",121.584693431514,31.2745390409527,2022-03-28
"浦东新区","上海市浦东新区张杨北路555弄",121.593490267882,31.2720642731454,2022-03-28
"浦东新区","上海市浦东新区向东新村",121.584945585871,31.2793191008466,2022-03-28
"浦东新区","上海市浦东新区长岛路99号",121.583231618958,31.2736681381861,2022-03-28
"浦东新区","上海市浦东新区长岛路259弄",121.583252369815,31.2731793272369,2022-03-28
"浦东新区","上海市浦东新区博兴路250弄",121.586387276384,31.274900995229,2022-03-28
"浦东新区","上海市浦东新区莱阳路218号",121.5896261169,31.2815848989426,2022-03-28
"浦东新区","上海市浦东新区博兴路456弄",121.5896261169,31.2815848989426,2022-03-28
"浦东新区","上海市浦东新区川周公路8288弄",121.711194969363,31.1835088671054,2022-03-28
"浦东新区","上海市浦东新区翔川路458弄",121.701523183428,31.1890314381616,2022-03-28
"浦东新区","上海市浦东新区川周公路8682号",121.716118941185,31.1904397938529,2022-03-28
"浦东新区","上海市浦东新区华戴路299弄",121.704312422037,31.1875211933501,2022-03-28
"浦东新区","上海市浦东新区华戴路599弄",121.705983000794,31.1821038828723,2022-03-28
"浦东新区","上海市浦东新区民生路818弄",121.552762623179,31.2376617399197,2022-03-28
"浦东新区","上海市浦东新区羽山路100弄",121.544430480251,31.2354932190051,2022-03-28
"浦东新区","上海市浦东新区区巨野路1700弄",121.550454606832,31.2273482924363,2022-03-28
"浦东新区","上海市浦东新区苗圃路218弄",121.554079718717,31.2486647440626,2022-03-28
"浦东新区","上海市浦东新区栖山路450弄",121.557953122246,31.2538112507536,2022-03-28
"浦东新区","上海市浦东新区巨野路482弄",121.55494415811,31.2421741524547,2022-03-28
"浦东新区","上海市浦东新区巨野路197弄",121.551977683824,31.2480848056137,2022-03-28
"浦东新区","上海市浦东新区栖山路465弄",121.557328440594,31.2538809411679,2022-03-28
"浦东新区","上海市浦东新区灵山路701弄",121.552045146568,31.2362148041078,2022-03-28
"浦东新区","上海市浦东新区沈家弄路900弄",121.551370339469,31.2449460212264,2022-03-28
"浦东新区","上海市浦东新区浦东大道1700弄",121.550423794953,31.2513819323816,2022-03-28
"浦东新区","上海市浦东新区栖山路130弄",121.551266405521,31.2493071177862,2022-03-28
"浦东新区","上海市浦东新区北项湾",121.560166996175,31.367679309467,2022-03-28
"浦东新区","上海市浦东新区季景路370弄",121.595858650359,31.342088287629,2022-03-28
"浦东新区","上海市浦东新区新德路341弄",121.705113980043,31.2035723326185,2022-03-28
"浦东新区","上海市浦东新区进贤路155弄",121.698322341235,31.1980032038658,2022-03-28
"浦东新区","上海市浦东新区川沙路4650弄",121.703112735028,31.2041578749919,2022-03-28
"浦东新区","上海市浦东新区新虹村赵家宅",121.655033627523,31.2487133679639,2022-03-28
"浦东新区","上海市浦东新区川沙路4028号",121.69813396657,31.2152020333879,2022-03-28
"浦东新区","上海市浦东新区虹四村",121.661870451098,31.2465755132171,2022-03-28
"浦东新区","上海市浦东新区周秀路168弄",121.613096863604,31.1040554140853,2022-03-28
"浦东新区","上海市浦东新区红桥村",121.639952155977,31.1081102496522,2022-03-28
"浦东新区","上海市浦东新区姚桥村",121.604918420749,31.1203519983522,2022-03-28
"浦东新区","上海市浦东新区梅林村",121.56865355782,31.0925725798678,2022-03-28
"浦东新区","上海市浦东新区康达路118弄",121.584859707864,31.1200779398788,2022-03-28
"浦东新区","上海市浦东新区瑞福路196弄",121.609276999084,31.1021978781586,2022-03-28
"浦东新区","上海市浦东新区瑞安路211弄",121.597322259526,31.0967757195941,2022-03-28
"浦东新区","上海市浦东新区祝家港路399弄",121.598346597299,31.1175235002507,2022-03-28
"浦东新区","上海市浦东新区瑞阳路81弄",121.594743853221,31.1053716682663,2022-03-28
"浦东新区","上海市浦东新区周市路39弄",121.588218292505,31.1162047110595,2022-03-28
"浦东新区","上海市浦东新区周汇路158弄",121.584859707864,31.1200779398788,2022-03-28
"浦东新区","上海市浦东新区安阁苑",121.597518629111,31.0932663516772,2022-03-28
"浦东新区","上海市浦东新区城丰路70弄",121.695835112939,31.1976201789603,2022-03-28
"浦东新区","上海市浦东新区新春村朱家宅",121.69129974808,31.1717721108629,2022-03-28
"浦东新区","上海市浦东新区城丰路212弄",121.693195891351,31.1965687829905,2022-03-28
"浦东新区","上海市浦东新区芙蓉路81弄",121.675170582818,31.1705906530908,2022-03-28
"浦东新区","上海市浦东新区创新西路199弄",121.660810450597,31.2075822554859,2022-03-28
"浦东新区","上海市浦东新区民丰村李家宅",121.648615953299,31.2142128338184,2022-03-28
"浦东新区","上海市浦东新区民丰村龚家宅",121.644742190448,31.2076757624511,2022-03-28
"浦东新区","上海市浦东新区唐镇新街",121.662458122563,31.2165182733681,2022-03-28
"浦东新区","上海市浦东新区吕三村南蒋家宅",121.644956975295,31.2192186383339,2022-03-28
"浦东新区","上海市浦东新区民丰村北黄家宅",121.652439860194,31.2119659407365,2022-03-28
"浦东新区","上海市浦东新区行南路900弄",121.592957033731,31.3358871017378,2022-03-28
"浦东新区","上海市浦东新区北新园路460弄",121.634743151816,31.3261917171778,2022-03-28
"浦东新区","上海市浦东新区高宝路68弄",121.62729152795,31.2973706625996,2022-03-28
"浦东新区","上海市浦东新区陆凌村宋家宅",121.570109621221,31.3523997058498,2022-03-28
"浦东新区","上海市浦东新区清溪路260弄",121.580223283635,31.3489553432852,2022-03-28
"浦东新区","上海市浦东新区望三村东唐家宅",121.770959953586,31.159674808829,2022-03-28
"浦东新区","上海市浦东新区航城三路86弄",121.750784281323,31.1544220727579,2022-03-28
"浦东新区","上海市浦东新区航城三路288弄",121.753723986105,31.1562748679606,2022-03-28
"浦东新区","上海市浦东新区施湾二路766弄",121.753094902756,31.1521468594324,2022-03-28
"浦东新区","上海市浦东新区航城五路151弄",121.754215359219,31.1483316643714,2022-03-28
"浦东新区","上海市浦东新区金高路1620号",121.61615640234,31.2778442618084,2022-03-28
"浦东新区","上海市浦东新区金高路2131弄",121.61704653327,31.2674719711318,2022-03-28
"浦东新区","上海市浦东新区祥安路149弄",121.819506629109,30.9654551975615,2022-03-28
"浦东新区","上海市浦东新区博兴路1676弄",121.608179449411,31.2814973295333,2022-03-28
"浦东新区","上海市浦东新区长岛路1338弄",121.603227719949,31.268323872015,2022-03-28
"浦东新区","上海市浦东新区荷泽路828弄",121.603706696447,31.2661755853185,2022-03-28
"浦东新区","上海市浦东新区凌河路38弄",121.600753606913,31.2825696826637,2022-03-28
"浦东新区","上海市浦东新区营前村",121.754400859307,31.1955092666327,2022-03-28
"浦东新区","上海市浦东新区晚霞路715弄",121.760628991068,31.184636677841,2022-03-28
"浦东新区","上海市浦东新区大沟村",121.764966099901,31.1783879220854,2022-03-28
"浦东新区","上海市浦东新区清溪路299弄",121.579437445975,31.3479769656591,2022-03-28
"浦东新区","上海市浦东新区冬融路25弄",121.59625992343,31.3402761042122,2022-03-28
"浦东新区","上海市浦东新区秋霞路300弄",121.593594201829,31.340699641535,2022-03-28
"浦东新区","上海市浦东新区春晖路446弄",121.586944944444,31.3446391480376,2022-03-28
"浦东新区","上海市浦东新区行泰路150弄",121.614337782835,31.2952456467756,2022-03-28
"浦东新区","上海市浦东新区荷泽路25弄",121.5969184712,31.279466390581,2022-03-28
"浦东新区","上海市浦东新区长岛路1203弄",121.60099758669,31.2700940107856,2022-03-28
"浦东新区","上海市浦东新区双桥路220弄",121.5896261169,31.2815848989426,2022-03-28
"浦东新区","上海市浦东新区平度路388弄",121.598954121316,31.2590625055881,2022-03-28
"浦东新区","上海市浦东新区双桥路180弄",121.600158299852,31.2903926503377,2022-03-28
"浦东新区","上海市浦东新区荷泽路58弄",121.59689080339,31.2787808625239,2022-03-28
"浦东新区","上海市浦东新区台儿庄路663弄",121.600337960954,31.264978881782,2022-03-28
"浦东新区","上海市浦东新区东陆路1018弄",121.599020955246,31.2779119282265,2022-03-28
"浦东新区","上海市浦东新区博兴路760弄",121.594819310884,31.2704315216681,2022-03-28
"浦东新区","上海市浦东新区东陆路898弄",121.598981609464,31.2808977661992,2022-03-28
"浦东新区","上海市浦东新区金工路172弄",121.59656480832,31.2624665878972,2022-03-28
"浦东新区","上海市浦东新区长岛路1560弄",121.608314285069,31.2706988133719,2022-03-28
"浦东新区","上海市浦东新区金工路133弄",121.5896261169,31.2815848989426,2022-03-28
"浦东新区","上海市浦东新区五莲路959弄",121.598657680497,31.2773239154459,2022-03-28
"浦东新区","上海市浦东新区向城路19号",121.536425051038,31.2304518485098,2022-03-28
"浦东新区","上海市浦东新区向城路29号",121.536260930622,31.2309637327656,2022-03-28
"浦东新区","上海市浦东新区崂山路551弄",121.528755677916,31.2325728575384,2022-03-28
"浦东新区","上海市浦东新区潍坊西路1弄",121.550454606832,31.2273482924363,2022-03-28
"浦东新区","上海市浦东新区张杨路1338号",121.539192460823,31.238133832139,2022-03-28
"浦东新区","上海市浦东新区潍坊西路2弄",121.550454606832,31.2273482924363,2022-03-28
"浦东新区","上海市浦东新区张杨路1308号",121.537850931374,31.2372635163929,2022-03-28
"浦东新区","上海市浦东新区潍坊路89弄",121.526387025948,31.2297083723614,2022-03-28
"浦东新区","上海市浦东新区潍坊路126弄",121.53066547543,31.2296456116188,2022-03-28
"浦东新区","上海市浦东新区福山路519号",121.538800889451,31.228370239363,2022-03-28
"浦东新区","上海市浦东新区崂山路645弄",121.531348816432,31.2278054602837,2022-03-28
"浦东新区","上海市浦东新区浦电路48弄",121.523018290455,31.2247743849636,2022-03-28
"浦东新区","上海市浦东新区浦东南路1200号",121.522643607226,31.232223939573,2022-03-28
"浦东新区","上海市浦东新区商城路48弄",121.601942065103,31.0343118350013,2022-03-28
"浦东新区","上海市浦东新区海桥村",121.617062972261,31.0160679234997,2022-03-28
"浦东新区","上海市浦东新区福善村",121.618555596696,31.0319771652647,2022-03-28
"浦东新区","上海市浦东新区环镇东路185弄",121.610847955759,31.0264618393061,2022-03-28
"浦东新区","上海市浦东新区丰桥村",121.599384858808,31.0188960664722,2022-03-28
"浦东新区","上海市浦东新区航鹤路1858弄",121.590976180251,31.0561511926496,2022-03-28
"浦东新区","上海市浦东新区鹤东村",121.602978260509,31.061148957304,2022-03-28
"浦东新区","上海市浦东新区莱阳路301弄",121.585947196514,31.2803576852639,2022-03-28
"浦东新区","上海市浦东新区博兴路465弄",121.58987225261,31.2720666651517,2022-03-28
"浦东新区","上海市浦东新区利津路555弄",121.593699573066,31.2803885471158,2022-03-28
"浦东新区","上海市浦东新区寿光路161弄",121.590525320716,31.2803961854226,2022-03-28
"浦东新区","上海市浦东新区利津路53弄",121.584910282464,31.2856925449248,2022-03-28
"浦东新区","上海市浦东新区周东路191弄",121.593915615541,31.1186181360998,2022-03-28
"浦东新区","上海市浦东新区周东南路388弄",121.595945421387,31.1037488647553,2022-03-28
"浦东新区","上海市浦东新区高博路210弄",121.586636825654,31.3024851744878,2022-03-28
"浦东新区","上海市浦东新区凌河路618弄",121.608152859568,31.276965751274,2022-03-28
"浦东新区","上海市浦东新区民义村",121.705067896971,31.1343239022766,2022-03-28
"浦东新区","上海市浦东新区灵山路1840弄",121.578033843616,31.24805447336,2022-03-28
"浦东新区","上海市浦东新区灵山路1726弄",121.574996852348,31.2465115288693,2022-03-28
"浦东新区","上海市浦东新区栖山路1861弄",121.577100953344,31.2677848758461,2022-03-28
"浦东新区","上海市浦东新区万德路45弄",121.563916613204,31.2576476191856,2022-03-28
"浦东新区","上海市浦东新区栖山路1578弄",121.572054901803,31.2637503695598,2022-03-28
"浦东新区","上海市浦东新区德平路1065弄",121.57423419097,31.2492630478328,2022-03-28
"浦东新区","上海市浦东新区银山路72弄",121.584909024837,31.2482473492788,2022-03-28
"浦东新区","上海市浦东新区张杨路2999弄",121.573700687328,31.253982428223,2022-03-28
"浦东新区","上海市浦东新区栖山路1855号",121.577797499436,31.2671923237136,2022-03-28
"浦东新区","上海市浦东新区德平路1134弄",121.576286010585,31.2456409051647,2022-03-28
"浦东新区","上海市浦东新区金台路200弄",121.594221578397,31.2570844831908,2022-03-28
"浦东新区","上海市浦东新区栖山路1689弄",121.57390154844,31.2651031982935,2022-03-28
"浦东新区","上海市浦东新区居家桥路1030弄",121.577173536429,31.2510949820075,2022-03-28
"浦东新区","上海市浦东新区金台路115弄",121.590903956488,31.2556534372616,2022-03-28
"浦东新区","上海市浦东新区金台路1490弄",121.59235849277,31.2561955903897,2022-03-28
"浦东新区","上海市浦东新区羽山路1950弄",121.574344233395,31.2507513041362,2022-03-28
"浦东新区","上海市浦东新区博山东路459弄",121.573680385623,31.2598821482651,2022-03-28
"浦东新区","上海市浦东新区栖山路1558弄",121.57216036287,31.2630398005953,2022-03-28
"浦东新区","上海市浦东新区云山路839弄",121.581552236807,31.2600507679601,2022-03-28
"浦东新区","上海市浦东新区栖山路1899弄",121.580127614099,31.2679922952123,2022-03-28
"浦东新区","上海市浦东新区德平路1060弄",121.573486710955,31.2482496647136,2022-03-28
"浦东新区","上海市浦东新区德平路58弄",121.565028176443,31.2583109222033,2022-03-28
"浦东新区","上海市浦东新区博山东路20弄",121.566038859972,31.2533910234004,2022-03-28
"浦东新区","上海市浦东新区灵山路1671弄",121.572311008704,31.2457713448707,2022-03-28
"浦东新区","上海市浦东新区罗山四村",121.568072443985,31.2558730771854,2022-03-28
"浦东新区","上海市浦东新区德平路1066弄",121.573972784066,31.2468356951989,2022-03-28
"浦东新区","上海市浦东新区川周路8828弄",121.716261861592,31.1932060900366,2022-03-28
"浦东新区","上海市浦东新区妙川路800弄",121.710073524764,31.1843022942824,2022-03-28
"浦东新区","上海市浦东新区妙栏路200弄",121.694430971596,31.1906697810534,2022-03-28
"浦东新区","上海市浦东新区长桥村南乔家宅",121.735381036744,31.1425908865954,2022-03-28
"浦东新区","上海市浦东新区六团周家宅",121.478736410171,31.1240123722048,2022-03-28
"浦东新区","上海市浦东新区普庆路115弄",121.726343364669,31.1605833136041,2022-03-28
"浦东新区","上海市浦东新区凌空路55弄",121.723712407491,31.2084341614893,2022-03-28
"浦东新区","上海市浦东新区庆星村顾家宅",121.725707094876,31.2404364439951,2022-03-28
"浦东新区","上海市浦东新区东风村",121.705700034558,31.2324508135927,2022-03-28
"浦东新区","上海市浦东新区创业路798号",121.703206428293,31.2213490891708,2022-03-28
"浦东新区","上海市浦东新区合庆庆星村西圈夏家宅",121.729119308356,31.2388018277518,2022-03-28
"浦东新区","上海市浦东新区合庆镇前哨村马家宅",121.744203834141,31.2472226093968,2022-03-28
"浦东新区","上海市浦东新区庆丰村",121.723719504105,31.2470521913717,2022-03-28
"浦东新区","上海市浦东新区庆滨路155弄",121.729511418711,31.2385518123883,2022-03-28
"浦东新区","上海市浦东新区海塘村南海唐宅",121.765364678056,31.2184347715439,2022-03-28
"浦东新区","上海市浦东新区前哨村三队顾家宅",121.744203834141,31.2472226093968,2022-03-28
"浦东新区","上海市浦东新区博兴路986弄",121.597262971363,31.270671034824,2022-03-28
"浦东新区","上海市浦东新区勤益村顾家宅",121.716810366936,31.2151954706716,2022-03-28
"浦东新区","上海市浦东新区康弘路580弄",121.606076785704,31.132845541712,2022-03-28
"浦东新区","上海市浦东新区德爱路380弄",121.5896261169,31.2815848989426,2022-03-28
"浦东新区","上海市浦东新区潍坊路335弄2支弄",121.537886953425,31.2356150274071,2022-03-28
"浦东新区","上海市浦东新区浦电路57号",121.523011912485,31.2231763203498,2022-03-28
"浦东新区","上海市浦东新区浦东南路1550弄",121.524828106566,31.2264879122391,2022-03-28
"浦东新区","上海市浦东新区潍坊路335弄3支弄",121.537886953425,31.2356150274071,2022-03-28
"浦东新区","上海市浦东新区源深路600弄",121.540367174938,31.2377605429358,2022-03-28
"浦东新区","上海市浦东新区永新村",121.796911999769,31.0758994124495,2022-03-28
"浦东新区","上海市浦东新区踊跃村",121.658710302145,31.3122942432693,2022-03-28
"浦东新区","上海市浦东新区高宝路300弄",121.5896261169,31.2815848989426,2022-03-28
"浦东新区","上海市浦东新区高东二路118弄",121.632030269176,31.3299086703681,2022-03-28
"浦东新区","上海市浦东新区德平路155弄",121.567954047319,31.2566018365944,2022-03-28
"浦东新区","上海市浦东新区金浜村金家浜",121.568920624048,31.2633738643707,2022-03-28
"浦东新区","上海市浦东新区德平路764弄",121.571776247433,31.2502070355853,2022-03-28
"浦东新区","上海市浦东新区云山路1395弄",121.584226761802,31.251544007244,2022-03-28
"浦东新区","上海市浦东新区德平路730弄",121.571500018489,31.2516361582547,2022-03-28
"浦东新区","上海市浦东新区板泉路2000弄",121.536884264815,31.1897022555378,2022-03-28
"浦东新区","上海市浦东新区新村路59弄",121.503186399711,31.1700145566784,2022-03-28
"浦东新区","上海市浦东新区长清路967弄",121.500661262922,31.1580997373579,2022-03-28
"浦东新区","上海市浦东新区鹤鸣村",121.600562088179,31.0502001326859,2022-03-28
"浦东新区","上海市浦东新区严中路300弄",121.538876616606,31.1961560209361,2022-03-28
"浦东新区","上海市浦东新区牡丹路258弄",121.55563055335,31.2139727127711,2022-03-28
"浦东新区","上海市浦东新区丁香路901弄",121.557128298127,31.2331400008442,2022-03-28
"浦东新区","上海市浦东新区新川路995弄",121.693385164322,31.1950271518338,2022-03-28
"浦东新区","上海市浦东新区严民路251弄",121.537399982008,31.1948828953138,2022-03-28
"浦东新区","上海市浦东新区芳华路310弄",121.564018211558,31.2013345278281,2022-03-28
"浦东新区","上海市浦东新区芳华路630弄",121.556559041925,31.2002051033578,2022-03-28
"浦东新区","上海市浦东新区海阳路1125弄",121.515260254579,31.1655971592099,2022-03-28
"浦东新区","上海市浦东新区东三街15弄",121.513798352192,31.2069744193285,2022-03-28
"浦东新区","上海市浦东新区黄楼村张家宅",121.657988244176,31.1753357824389,2022-03-28
"浦东新区","上海市浦东新区药师新村",121.689184148774,31.2090166621391,2022-03-28
"浦东新区","上海市浦东新区合庆镇庆丰村龚家宅",121.723719504105,31.2470521913717,2022-03-28
"浦东新区","上海市浦东新区祝潘公路301弄",121.766842749942,31.1140887975279,2022-03-28
"浦东新区","上海市浦东新区运通路728弄",121.708932407275,31.2091959517742,2022-03-28
"浦东新区","上海市浦东新区妙明北路116弄",121.696256058901,31.2078279523658,2022-03-28
"浦东新区","上海市浦东新区妙境路162弄",121.695020439672,31.2023335930395,2022-03-28
"浦东新区","上海市浦东新区妙境北路451号",121.692776652169,31.2136740661847,2022-03-28
"浦东新区","上海市浦东新区妙境北路323号",121.693462238934,31.2109856635578,2022-03-28
"浦东新区","上海市浦东新区妙境北路65号",121.69461898694,31.2069758864175,2022-03-28
"浦东新区","上海市浦东新区跃进新村",121.709297568464,31.2141929138321,2022-03-28
"浦东新区","上海市浦东新区利川路501弄",121.690322032363,31.2101178749682,2022-03-28
"浦东新区","上海市浦东新区东川公路5979号",121.726290723966,31.2405835634588,2022-03-28
"浦东新区","上海市浦东新区祝城路85弄",121.771000107842,31.1164641730689,2022-03-28
"浦东新区","上海市浦东新区广益路9弄",121.550454606832,31.2273482924363,2022-03-28
"浦东新区","上海市浦东新区栖山路100弄",121.550437449197,31.2475527934367,2022-03-28
"浦东新区","上海市浦东新区崮山路1445弄",121.560926075922,31.250388688666,2022-03-28
"浦东新区","上海市浦东新区苗圃路400弄",121.557724952646,31.2456136594517,2022-03-28
"浦东新区","上海市浦东新区灵山路1390弄",121.569665768468,31.2431500121506,2022-03-28
"浦东新区","上海市浦东新区园艺村",121.763258331296,30.9856535903493,2022-03-28
"浦东新区","上海市浦东新区镇南村",121.585893837167,31.3452678314131,2022-03-28
"浦东新区","上海市浦东新区丁香路999弄",121.560513831933,31.2333260373034,2022-03-28
"浦东新区","上海市浦东新区牡丹路340弄",121.556393753711,31.214141338034,2022-03-28
"浦东新区","上海市浦东新区唐陆路139号",121.602138614349,31.2442502059109,2022-03-28
"浦东新区","上海市浦东新区佳林路962弄",121.619364161486,31.269439665226,2022-03-28
"浦东新区","上海市浦东新区唐四村",121.667689494531,31.2210198162809,2022-03-28
"浦东新区","上海市浦东新区前进村顾家宅",121.758661702001,31.1245035850386,2022-03-28
"浦东新区","上海市浦东新区中界村沈家队沈家宅",121.574173735009,31.1954461740634,2022-03-28
"浦东新区","上海市浦东新区新虹村东包家宅",121.654887203725,31.2451490146246,2022-03-28
"浦东新区","上海市浦东新区荷泽路825弄",121.603786555807,31.2669893010156,2022-03-28
"浦东新区","上海市浦东新区南泉路1261号",121.529201237449,31.2170771756318,2022-03-28
"浦东新区","上海市浦东新区南泉路1200弄",121.528831405071,31.2192987772065,2022-03-28
"浦东新区","上海市浦东新区南泉路1250弄",121.527931123289,31.2177477149724,2022-03-28
"浦东新区","上海市浦东新区川沙路688号",121.677192399029,31.2799191372465,2022-03-28
"浦东新区","上海市浦东新区龚路支路473弄",121.695481180568,31.2694697590493,2022-03-28
"浦东新区","上海市浦东新区新星村",121.708279428999,31.2618387353821,2022-03-28
"浦东新区","上海市浦东新区航梅路526弄",121.58752462099,31.028592642453,2022-03-28
"浦东新区","上海市浦东新区航头路1027弄",121.601636012416,31.0386291971914,2022-03-28
"浦东新区","上海市浦东新区清溪路430号",121.577138502514,31.3470042060207,2022-03-28
"浦东新区","上海市浦东新区张杨北路4555弄",121.593513444164,31.3375571075808,2022-03-28
"浦东新区","上海市浦东新区和龙路241号",121.578223386079,31.3486302208282,2022-03-28
"浦东新区","上海市浦东新区和龙路295弄",121.577540943383,31.3492056027673,2022-03-28
"浦东新区","上海市浦东新区云台路98号",121.506424252091,31.1878999346063,2022-03-28
"浦东新区","上海市浦东新区成山路963弄",121.522241615511,31.1792667406839,2022-03-28
"浦东新区","上海市浦东新区行德路141弄",121.617842431952,31.3000275778643,2022-03-28
"浦东新区","上海市浦东新区东高路26弄",121.582672064456,31.2940973759933,2022-03-28
"浦东新区","上海市浦东新区高博路188弄",121.5896261169,31.2815848989426,2022-03-28
"浦东新区","上海市浦东新区洲海路1088弄",121.652778790863,31.290487771739,2022-03-28
"浦东新区","上海市浦东新区民生路423弄",121.549737040391,31.2461150410473,2022-03-28
"浦东新区","上海市浦东新区商城路918弄",121.528749479608,31.2378278524308,2022-03-28
"浦东新区","上海市浦东新区北中路354弄",121.566413902522,31.1901497991136,2022-03-28
"浦东新区","上海市浦东新区银城中路8号",121.514082755716,31.2471907332228,2022-03-28
"浦东新区","上海市浦东新区昌邑路607弄",121.5896261169,31.2815848989426,2022-03-28
"浦东新区","上海市浦东新区浦明路233弄",121.517192869053,31.2325821208295,2022-03-28
"浦东新区","上海市浦东新区江绣路633弄",121.704637698462,31.1956847208981,2022-03-28
"浦东新区","上海市浦东新区江绣路300弄",121.742084112428,31.177161110323,2022-03-28
"浦东新区","上海市浦东新区双桥路1108弄",121.5896261169,31.2815848989426,2022-03-28
"浦东新区","上海市浦东新区南桥路1152弄",121.694983788807,31.1928942486714,2022-03-28
"浦东新区","上海市浦东新区城丰路288弄",121.691273517559,31.1960282149172,2022-03-28
"浦东新区","上海市浦东新区城丰路245号",121.693058989591,31.1957329862084,2022-03-28
"浦东新区","上海市浦东新区新德西路99弄",121.684706275468,31.1976592537502,2022-03-28
"浦东新区","上海市浦东新区祝家港路225号",121.592450748746,31.1155315904608,2022-03-28
"浦东新区","上海市浦东新区浦电路108弄",121.526721914242,31.2244347020154,2022-03-28
"浦东新区","上海市浦东新区卫行村顾家宅",121.587201410668,31.1666652020159,2022-03-28
"浦东新区","上海市浦东新区年家浜路159弄",121.599578533476,31.1202853773304,2022-03-28
"浦东新区","上海市浦东新区上南路7718弄",121.584859707864,31.1200779398788,2022-03-28
"浦东新区","上海市浦东新区祝家港路138弄",121.594791104091,31.1163357174362,2022-03-28
"浦东新区","上海市浦东新区年家浜路366弄",121.582870140821,31.1216140018031,2022-03-28
"浦东新区","上海市浦东新区川周公路4293弄",121.588499731621,31.126402180415,2022-03-28
"浦东新区","上海市浦东新区康沈路1602弄",121.581599487677,31.1237764252909,2022-03-28
"浦东新区","上海市浦东新区沈梅东路300弄",121.599445314769,31.0976181184832,2022-03-28
"浦东新区","上海市浦东新区周园路1680弄",121.584859707864,31.1200779398788,2022-03-28
"浦东新区","上海市浦东新区周市路148号",121.591025676885,31.1183045782953,2022-03-28
"浦东新区","上海市浦东新区周邓公路6600弄",121.609428902545,31.1210675917091,2022-03-28
"浦东新区","上海市浦东新区周康路869弄",121.581217079021,31.1074874688241,2022-03-28
"浦东新区","上海市浦东新区年家浜路461弄",121.576889312566,31.1200151830037,2022-03-28
"浦东新区","上海市浦东新区川周公路4003弄",121.594664892167,31.1322307297464,2022-03-28
"浦东新区","上海市浦东新区关岳路229弄",121.594448041217,31.1273752275532,2022-03-28
"浦东新区","上海市浦东新区窑港路188号",121.672267978054,31.1119448561371,2022-03-28
"浦东新区","上海市浦东新区陈春路620弄",121.552907609688,31.1780781941088,2022-03-28
"浦东新区","上海市浦东新区环林东路271弄",121.533164112206,31.1552989527053,2022-03-28
"浦东新区","上海市浦东新区世博家园大道站路94弄",121.545610314708,31.1654593463491,2022-03-28
"浦东新区","上海市浦东新区灵山路785弄",121.5568321268,31.2383432470385,2022-03-28
"浦东新区","上海市浦东新区浦东大道1851弄",121.552497443392,31.2531016867014,2022-03-28
"浦东新区","上海市浦东新区民生路369弄",121.548666709375,31.2466026042849,2022-03-28
"浦东新区","上海市浦东新区桃林路815弄",121.546474215117,31.2393110419102,2022-03-28
"浦东新区","上海市浦东新区杨高中路2168弄",121.558189286765,31.2355690212105,2022-03-28
"浦东新区","上海市浦东新区灵山路600弄",121.550404750876,31.2341249863555,2022-03-28
"浦东新区","上海市浦东新区苗圃路600弄",121.559706973924,31.2406130490738,2022-03-28
"浦东新区","上海市浦东新区羽山路851弄",121.559807853632,31.2435604058504,2022-03-28
"浦东新区","上海市浦东新区博山路199号",121.560581384507,31.250001814956,2022-03-28
"浦东新区","上海市浦东新区高青路2878弄",121.534383741597,31.1661478678863,2022-03-28
"浦东新区","上海市浦东新区南码头路260弄",121.514783344183,31.2019764543187,2022-03-28
"浦东新区","上海市浦东新区兰陵路24弄",121.522661573337,31.2007156086114,2022-03-28
"浦东新区","上海市浦东新区华丰路51弄",121.515210847776,31.1993223111234,2022-03-28
"浦东新区","上海市浦东新区东方路3521号",121.51853251206,31.19510808366,2022-03-28
"浦东新区","上海市浦东新区沪南公路3150弄",121.571774899975,31.1279297926786,2022-03-28
"浦东新区","上海市浦东新区西泰林路901弄",121.54507097208,31.1494599367676,2022-03-28
"浦东新区","上海市浦东新区东波路585弄",121.592860016736,31.2899795307181,2022-03-28
"浦东新区","上海市浦东新区金桥路715号",121.584339229652,31.2668237804736,2022-03-28
"浦东新区","上海市浦东新区寿光路78弄",121.592102026547,31.2793908554345,2022-03-28
"浦东新区","上海市浦东新区龙阳路1629号",121.554470751106,31.2069345762719,2022-03-28
"浦东新区","上海市浦东新区民丰村龚家祠堂",121.647223489928,31.2168663234084,2022-03-28
"浦东新区","上海市浦东新区潍坊路333弄",121.526092202079,31.2293004653799,2022-03-28
"浦东新区","上海市浦东新区鹤韵路549弄",121.603665015071,31.0807518517668,2022-03-28
"浦东新区","上海市浦东新区周秀路118弄",121.611806088416,31.105759862334,2022-03-28
"浦东新区","上海市浦东新区东陆路429弄",121.59239119109,31.2862846710958,2022-03-28
"浦东新区","上海市浦东新区金家村陈家宅",121.740394030642,31.2551728670129,2022-03-28
"浦东新区","上海市浦东新区新川路922弄",121.694525473336,31.1967990640424,2022-03-28
"浦东新区","上海市浦东新区益江路126弄",121.641426005827,31.2061100682836,2022-03-28
"浦东新区","上海市浦东新区浦电路221号",121.530044566662,31.2249883073877,2022-03-28
"浦东新区","上海市浦东新区浦东大道2311号",121.560531977704,31.2602648412215,2022-03-28
"浦东新区","上海市浦东新区杨南路1899弄",121.525480006874,31.1614217413702,2022-03-28
"浦东新区","上海市浦东新区浦电路307号",121.532363272844,31.2256313069229,2022-03-28
"浦东新区","上海市浦东新区浦电路489号工地生活区",121.541418012724,31.2285413862049,2022-03-28
"浦东新区","上海市浦东新区秀沿路1028弄2支弄",121.584429060203,31.1376254206398,2022-03-28
"浦东新区","上海市浦东新区东三里桥路160弄",121.516139875334,31.2060282193702,2022-03-28
"浦东新区","上海市浦东新区大同路668弄",121.505741719564,30.8342823372086,2022-03-28
"浦东新区","上海市浦东新区牡丹路145弄",121.551781493901,31.2135657409336,2022-03-28
"浦东新区","上海市浦东新区临沂路81弄",121.525886040965,31.2013416320549,2022-03-28
"浦东新区","上海市浦东新区芳华路713弄",121.536884264815,31.1897022555378,2022-03-28
"浦东新区","上海市浦东新区华夏东路2026弄",121.697008479596,31.2054389822991,2022-03-28
"浦东新区","上海市浦东新区唐陆公路3312号",121.662401978469,31.2147508262638,2022-03-28
"浦东新区","上海市浦东新区直属村",121.760273172256,31.2235614795779,2022-03-28
"浦东新区","上海市浦东新区浦东南路1533号",121.527644653661,31.2273723011377,2022-03-28
"浦东新区","上海市浦东新区中林街33弄",121.506225007929,31.1425668561682,2022-03-28
"浦东新区","上海市浦东新区康杉路359弄",121.536884264815,31.1897022555378,2022-03-28
"浦东新区","上海市浦东新区北蔡镇北中路周家宅",121.567637214966,31.1905232781907,2022-03-28
"浦东新区","上海市浦东新区鹏飞路426弄",121.561569161246,31.1777109990674,2022-03-28
"浦东新区","上海市浦东新区红旗村江湖宅",121.500206271181,31.126931789483,2022-03-28
"浦东新区","上海市浦东新区五莲路1424弄",121.606921013223,31.281810881647,2022-03-28
"浦东新区","上海市浦东新区栖山路401弄",121.556033443371,31.2539878305727,2022-03-28
"浦东新区","上海市浦东新区高宝路229弄",121.627287216084,31.2976695818787,2022-03-28
"浦东新区","上海市浦东新区北张家浜路58号",121.527623453651,31.2221730769557,2022-03-28
"浦东新区","上海市浦东新区利津路385弄",121.590995673481,31.2827648790811,2022-03-28
"浦东新区","上海市浦东新区创新中路593弄",121.675777028868,31.2168388376937,2022-03-28
"浦东新区","上海市浦东新区砖桥路180弄",121.706138756189,31.1261021425312,2022-03-28
"浦东新区","上海市浦东新区三林路910号",121.516948350293,31.1474338579799,2022-03-28
"浦东新区","上海市浦东新区航瑞路175弄",121.598873812803,31.0769578821106,2022-03-28
"浦东新区","上海市浦东新区大瞿家宅",121.532611205165,31.1270776188598,2022-03-28
"浦东新区","上海市浦东新区华绣路393号",121.539080981109,31.1915780627985,2022-03-28
"浦东新区","上海市浦东新区张杨路370弄",121.521538421957,31.2321643454895,2022-03-28
"浦东新区","上海市浦东新区营房村",121.572398952813,31.142485338114,2022-03-28
"浦东新区","上海市浦东新区长岛路800弄",121.593834768045,31.2653075369301,2022-03-28
"浦东新区","上海市浦东新区云仿1189弄",121.550454606832,31.2273482924363,2022-03-28
"浦东新区","上海市浦东新区瑞意路399弄",121.59268628445,31.1027918607619,2022-03-28
"浦东新区","上海市浦东新区尚博路799弄",121.530770397514,31.1561646994414,2022-03-28
"浦东新区","上海市浦东新区陈春东路88弄",121.565995831138,31.1814471453478,2022-03-28
"浦东新区","上海市浦东新区杨高南路2772弄",121.525876698587,31.183477278169,2022-03-28
"浦东新区","上海市浦东新区源深路600弄3支弄",121.541346866927,31.2360064651209,2022-03-28
"浦东新区","上海市浦东新区五星村家务队顾家宅",121.57836549801,31.1799884502015,2022-03-28
"浦东新区","上海市浦东新区浦三路629弄",121.523456573713,31.1943398462937,2022-03-28
"浦东新区","上海市浦东新区高科西路2111弄",121.5423303318,31.1941812247261,2022-03-28
"浦东新区","上海市浦东新区玉盘北路281弄",121.680041285124,31.2317424769606,2022-03-28
"浦东新区","上海市浦东新区御水路199弄",121.580638210951,31.1665548139514,2022-03-28
"浦东新区","上海市浦东新区浦三路32号",121.518203642413,31.2026000755525,2022-03-28
"浦东新区","上海市浦东新区昌里东路675弄",121.524150963872,31.1867623933045,2022-03-28
"浦东新区","上海市浦东新区新浦路251弄",121.541342016078,31.1742258958661,2022-03-28
"浦东新区","上海市浦东新区东书房路560弄",121.543073679609,31.1677333099084,2022-03-28
"浦东新区","上海市浦东新区下南路225弄",121.552785889291,31.1753995837175,2022-03-28
"浦东新区","上海市浦东新区东书房路390弄",121.541617795869,31.1696664870587,2022-03-28
"浦东新区","上海市浦东新区博华路980弄",121.556426811354,31.1772710428287,2022-03-28
"浦东新区","上海市浦东新区鹤沙村",121.550454606832,31.2273482924363,2022-03-28
"浦东新区","上海市浦东新区东陆路1350弄",121.5896261169,31.2815848989426,2022-03-28
"浦东新区","上海市浦东新区南陈路108弄",121.554392003848,30.9739368166877,2022-03-28
"浦东新区","上海市浦东新区龙东大道2895弄",121.64040094941,31.2308981166323,2022-03-28
"浦东新区","上海市浦东新区东沟路585弄",121.5896261169,31.2815848989426,2022-03-28
"浦东新区","上海市浦东新区南曹路901弄",121.670398694119,31.2084526156349,2022-03-28
"浦东新区","上海市浦东新区德平路215弄",121.569868066869,31.2545184941405,2022-03-28
"浦东新区","上海市浦东新区夹浦路25号",121.549655025098,31.2524548627439,2022-03-28
"浦东新区","上海市浦东新区杨高中路10弄1支弄",121.606724733469,31.263505745537,2022-03-28
"浦东新区","上海市浦东新区博华路930弄",121.556749213201,31.1803200299912,2022-03-28
"浦东新区","上海市浦东新区海阳路443弄",121.498488172063,31.1603554156989,2022-03-28
"浦东新区","上海市浦东新区浦兴路1293号",121.5896261169,31.2815848989426,2022-03-28
"浦东新区","上海市浦东新区瑞浦路8弄",121.550454606832,31.2273482924363,2022-03-28
"浦东新区","上海市浦东新区康沈路1620弄",121.580895575479,31.1234400086369,2022-03-28
"浦东新区","上海市浦东新区周东路243弄",121.592340077507,31.122621335648,2022-03-28
"浦东新区","上海市浦东新区福山路307号",121.535684847298,31.2356087748884,2022-03-28
"浦东新区","上海市浦东新区南塘村顾家宅",121.5746809183,31.345394276907,2022-03-28
"浦东新区","上海市浦东新区浦东北路2300号",121.584935345188,31.3268208334931,2022-03-28
"浦东新区","上海市浦东新区下沙街54号",121.60428277977,31.0551269054642,2022-03-28
"浦东新区","上海市浦东新区上浦路165弄",121.49894576889,31.1519805176887,2022-03-28
"浦东新区","上海市浦东新区临江村太保队",121.485179506441,31.1293456345277,2022-03-28
"浦东新区","上海市浦东新区德州路420弄",121.490352488551,31.1723887494362,2022-03-28
"浦东新区","上海市浦东新区高科西路2907弄",121.564936369619,31.1955708146672,2022-03-28
"浦东新区","上海市浦东新区新德路939弄",121.692047767078,31.2009453389289,2022-03-28
"浦东新区","上海市浦东新区勤奋村",121.732136986056,31.2630338585862,2022-03-28
"浦东新区","上海市浦东新区青艺路181弄",121.686341999971,31.2025052507985,2022-03-28
"浦东新区","上海市浦东新区川环南路1049弄",121.700530016856,31.1900890970386,2022-03-28
"浦东新区","上海市浦东新区城丰路650号",121.684536226235,31.1934952258283,2022-03-28
"浦东新区","上海市浦东新区佳林路919弄",121.61825789825,31.270835776925,2022-03-28
"浦东新区","上海市浦东新区板泉路2076号",121.537706933001,31.1725554412166,2022-03-28
"浦东新区","上海市浦东新区栏杆村",121.672901912253,31.1797774372486,2022-03-28
"浦东新区","上海市浦东新区霞玉路436弄",121.696086997804,31.2622910273004,2022-03-28
"浦东新区","上海市浦东新区金口路411弄",121.586485461176,31.2531180482564,2022-03-28
"浦东新区","上海市浦东新区华夏西路85弄",121.542670969249,31.1625424402193,2022-03-28
"浦东新区","上海市浦东新区中界村高桥队秦家宅",121.578783479564,31.1800637566857,2022-03-28
"浦东新区","上海市浦东新区北蔡大街",121.559769406157,31.1936595632951,2022-03-28
"浦东新区","上海市浦东新区樱花路831号",121.56769820991,31.2143796056304,2022-03-28
"浦东新区","上海市浦东新区瑞和路900弄",121.609397192361,31.0937200759825,2022-03-28
"浦东新区","上海市浦东新区潍坊路716号",121.528397793001,31.229747279369,2022-03-28
"浦东新区","上海市浦东新区金港路333号",121.619450308984,31.2603792860984,2022-03-28
"浦东新区","上海市浦东新区万德路67弄",121.567109550309,31.2545921971755,2022-03-28
"浦东新区","上海市浦东新区羽山路951弄",121.55978620447,31.2428093925024,2022-03-28
"浦东新区","上海市浦东新区莱阳路111弄",121.589537813468,31.332463488478,2022-03-28
"浦东新区","上海市浦东新区南洋泾路287弄",121.560686935404,31.2448456821215,2022-03-28
"浦东新区","上海市浦东新区海霞路135弄",121.742196031495,31.173374837468,2022-03-28
"浦东新区","上海市浦东新区航鹤路1700弄",121.592181616415,31.0536196115076,2022-03-28
"浦东新区","上海市浦东新区沪东路67号",121.586816756248,31.2773934340112,2022-03-28
"浦东新区","上海市浦东新区龚路公路141号",121.652778790863,31.290487771739,2022-03-28
"浦东新区","上海市浦东新区灵山路1820号",121.577640745125,31.2479728154882,2022-03-28
"浦东新区","上海市浦东新区高桥村汤家宅",121.826345788278,30.9222774790088,2022-03-28
"浦东新区","上海市浦东新区川沙镇邱家宅",121.661712259498,31.1746955272532,2022-03-28
"浦东新区","上海市浦东新区金桥路1520弄",121.596087897925,31.255719421903,2022-03-28
"浦东新区","上海市浦东新区龙居路180弄",121.568971737631,31.2585512381558,2022-03-28
"浦东新区","上海市浦东新区博山东路111弄",121.570150763613,31.2571442157431,2022-03-28
"浦东新区","上海市浦东新区展凌路58弄",121.766842749942,31.1140887975279,2022-03-28
"浦东新区","上海市浦东新区花墙村",121.55274169266,31.1563281752622,2022-03-28
"浦东新区","上海市浦东新区联勤村麦家宅",121.553913442368,31.1692634940545,2022-03-28
"浦东新区","上海市浦东新区联勤村李家宅",121.55718596934,31.1732310110799,2022-03-28
"浦东新区","上海市浦东新区金桥路1498弄",121.595704770625,31.2565196459679,2022-03-28
"浦东新区","上海市浦东新区玉兰路81弄",121.554407959551,31.2099256153527,2022-03-28
"浦东新区","上海市浦东新区康桥路787号",121.555495358371,31.1523789493243,2022-03-28
"浦东新区","上海市浦东新区广兰路1155弄",121.62985277662,31.2086770764372,2022-03-28
"浦东新区","上海市浦东新区圆洲路189弄",121.652778790863,31.290487771739,2022-03-28
"浦东新区","上海市浦东新区沈家弄路936弄",121.553671079541,31.2460098406675,2022-03-28
"浦东新区","上海市浦东新区杨高北路446弄",121.593203708424,31.3530267949504,2022-03-28
"浦东新区","上海市浦东新区盛朱村",121.704742530715,31.2749675063931,2022-03-28
"浦东新区","上海市浦东新区石家街97弄",121.58701923431,31.3502242120563,2022-03-28
"浦东新区","上海市浦东新区秀浦路168号",121.558541781847,31.1300174969944,2022-03-28
"浦东新区","上海市浦东新区崮山路264号",121.559894989267,31.2518468549481,2022-03-28
"浦东新区","上海市浦东新区横沔江路250号",121.639454404894,31.1811703302229,2022-03-28
"浦东新区","上海市浦东新区鹤沙路588弄",121.601468029285,31.0880218851386,2022-03-28
"浦东新区","上海市浦东新区周秀路26弄",121.613149208927,31.1049366387275,2022-03-28
"浦东新区","上海市浦东新区成山路608弄",121.515115986714,31.1776118237191,2022-03-28
"浦东新区","上海市浦东新区崂山路648弄",121.525388353941,31.2422904858641,2022-03-28
"浦东新区","上海市浦东新区联勤村张家宅冯家队",121.641939387426,31.3298699592958,2022-03-28
"浦东新区","上海市浦东新区南塘村姚家宅",121.5746809183,31.345394276907,2022-03-28
"浦东新区","上海市浦东新区莱阳路880弄",121.590822300517,31.2883369089077,2022-03-28
"浦东新区","上海市浦东新区胡巷村金家宅",121.52500489309,31.1587157705195,2022-03-28
"浦东新区","上海市浦东新区申江南路7688号",121.659643282248,31.0392350292312,2022-03-28
"浦东新区","上海市浦东新区申江南路7777弄",121.661491905157,31.0383513423795,2022-03-28
"浦东新区","上海市浦东新区蔡路村东蔡家宅",121.751834430791,31.2301868682127,2022-03-28
"浦东新区","上海市浦东新区崮山路157弄",121.562976446658,31.2499913956942,2022-03-28
"浦东新区","上海市浦东新区五星村秦家宅",121.578783479564,31.1800637566857,2022-03-28
"浦东新区","上海市浦东新区沿南村",121.605619727861,31.1386417781057,2022-03-28
"浦东新区","上海市浦东新区长青路693弄",121.529696185109,31.2072012517119,2022-03-28
"浦东新区","上海市浦东新区洪山路1617号",121.514868503546,31.1603613642275,2022-03-28
"浦东新区","上海市浦东新区妙境路404弄",121.696681316729,31.198907553432,2022-03-28
"浦东新区","上海市浦东新区周市路380弄",121.587868043186,31.1226080426831,2022-03-28
"浦东新区","上海市浦东新区康沈路2262弄",121.58731262089,31.1071241716612,2022-03-28
"浦东新区","上海市浦东新区周汇路158号",121.584859707864,31.1200779398788,2022-03-28
"浦东新区","上海市浦东新区瑞安路80弄",121.592960267631,31.0952153638675,2022-03-28
"浦东新区","上海市浦东新区浦东南路599弄",121.519391112466,31.2407199536469,2022-03-28
"浦东新区","上海市浦东新区里仁村",121.575105367653,31.1138505842326,2022-03-28
"浦东新区","上海市浦东新区瑞意路428弄",121.594345544558,31.1001365346239,2022-03-28
"浦东新区","上海市浦东新区周东路123弄",121.589793111894,31.1273511932326,2022-03-28
"浦东新区","上海市浦东新区海关村",121.806924872305,30.9449216289033,2022-03-28
"浦东新区","上海市浦东新区张杨路1698弄",121.551694448097,31.2417697732193,2022-03-28
"浦东新区","上海市浦东新区巨野路246弄",121.551443281876,31.2461371925429,2022-03-28
"浦东新区","上海市浦东新区民生路260号",121.546196818376,31.2485106138463,2022-03-28
"浦东新区","上海市浦东新区南团公路105号",121.770532180502,31.0442321441599,2022-03-28
"浦东新区","上海市浦东新区杨高北路5291弄",121.61256156335,31.2706103849656,2022-03-28
"浦东新区","上海市浦东新区施镇路358弄",121.762890097901,31.1496614991983,2022-03-28
"浦东新区","上海市浦东新区邓二村储家宅",121.767960241996,31.1471819761588,2022-03-28
"浦东新区","上海市浦东新区逸仙路1511弄",121.492887057547,31.3239515258192,2022-03-28
"浦东新区","上海市浦东新区沈庄村",121.589114801404,31.0850414945296,2022-03-28
"浦东新区","上海市浦东新区鹤沙路688弄",121.596526809997,31.0876657802405,2022-03-28
"浦东新区","上海市浦东新区航春路169弄",121.612278417454,31.086974441178,2022-03-28
"浦东新区","上海市浦东新区鹤永路751弄",121.610426021661,31.0775687255746,2022-03-28
"浦东新区","上海市浦东新区新镇村石家观音堂",121.488082021374,31.1321938687201,2022-03-28
"浦东新区","上海市浦东新区唐镇路127弄",121.656604943521,31.2133554984813,2022-03-28
"浦东新区","上海市浦东新区创新中路199弄",121.668695686533,31.2141451212896,2022-03-28
"浦东新区","上海市浦东新区清溪路365弄",121.578081633469,31.347103664356,2022-03-28
"浦东新区","上海市浦东新区夏碧路80弄",121.594881473625,31.3475874621078,2022-03-28
"浦东新区","上海市浦东新区浦电路300号",121.531610582658,31.2256760828096,2022-03-28
"浦东新区","上海市浦东新区建港村",121.848000161241,31.0365178049753,2022-03-28
"浦东新区","上海市浦东新区康沈公路1300弄",121.578537793007,31.1439095371964,2022-03-28
"浦东新区","上海市浦东新区祝城路54号",121.767662633381,31.1143626415922,2022-03-28
"浦东新区","上海市浦东新区耀华路212号",121.495529962188,31.1818598177177,2022-03-28
"浦东新区","上海市浦东新区芳华路371弄",121.564425503276,31.2030206854988,2022-03-28
"浦东新区","上海市浦东新区环桥路1137弄",121.584859707864,31.1200779398788,2022-03-28
"浦东新区","上海市浦东新区浦东南路1288号",121.523559878847,31.2308961867454,2022-03-28
"浦东新区","上海市浦东新区普新路707号",121.766842749942,31.1140887975279,2022-03-28
"浦东新区","上海市浦东新区永利村龚家宅",121.702059022665,31.2701954030718,2022-03-28
"浦东新区","上海市浦东新区新华村顾家宅",121.667109279002,31.2712149527223,2022-03-28
"浦东新区","上海市浦东新区周浦中大街108弄",121.58371973821,31.1228359807051,2022-03-28
"浦东新区","上海市浦东新区张家浜路112号",121.606879233323,31.2359360990331,2022-03-28
"浦东新区","上海市浦东新区张杨路1328号",121.538887665763,31.2379901051656,2022-03-28
"浦东新区","上海市浦东新区康新公路79号",121.647301462846,31.034815583858,2022-03-28
"浦东新区","上海市浦东新区笋心路19弄29支弄",121.648454348137,31.0269325186236,2022-03-28
"浦东新区","上海市浦东新区庆利路425弄",121.732244782717,31.2375488882221,2022-03-28
"浦东新区","上海市浦东新区前哨路15号",121.723942553363,31.2440895077277,2022-03-28
"浦东新区","上海市浦东新区北海塘村",121.770343177023,31.2178443000361,2022-03-28
"浦东新区","上海市浦东新区奚家村",121.717943669167,31.2536196211407,2022-03-28
"浦东新区","上海市浦东新区勤益村赵家宅",121.716810366936,31.2151954706716,2022-03-28
"浦东新区","上海市浦东新区前哨路25号",121.724111794121,31.2441023203691,2022-03-28
"浦东新区","上海市浦东新区临沂北路210弄",121.525542798429,31.2106243111584,2022-03-28
"浦东新区","上海市浦东新区南泉路1241弄",121.530365890543,31.2182807459278,2022-03-28
"浦东新区","上海市浦东新区沪南公路4789弄",121.596470037089,31.0761268193467,2022-03-28
"浦东新区","上海市浦东新区顾高公路1018号",121.639285703119,31.298593332825,2022-03-28
"浦东新区","上海市浦东新区民雨路390号",121.669925556606,31.2809790866866,2022-03-28
"浦东新区","上海市浦东新区川沙路777弄",121.652778790863,31.290487771739,2022-03-28
"浦东新区","上海市浦东新区航头镇海桥村",121.617062972261,31.0160679234997,2022-03-28
"浦东新区","上海市浦东新区民生路423号",121.549549653861,31.2461534009509,2022-03-28
"浦东新区","上海市浦东新区严中路140弄",121.536105883091,31.1992723487879,2022-03-28
"浦东新区","上海市浦东新区荣成路17弄",121.524619340365,31.2464675347808,2022-03-28
"浦东新区","上海市浦东新区张杨路560号",121.525122930434,31.2331193901432,2022-03-28
"浦东新区","上海市浦东新区祝桥镇共和村李家宅",121.740163974601,31.1765980509996,2022-03-28
"浦东新区","上海市浦东新区新营村张朱家宅",121.75788215248,31.2022478798707,2022-03-28
"浦东新区","上海市浦东新区共和村陈家宅",121.683246259522,31.2574924233498,2022-03-28
"浦东新区","上海市浦东新区张杨北路558弄",121.594596261626,31.2736279377294,2022-03-28
"浦东新区","上海市浦东新区东葛路423号",121.579821471581,31.3009571679275,2022-03-28
"浦东新区","上海市浦东新区东靖路221号",121.583659571703,31.2980039074941,2022-03-28
"浦东新区","上海市浦东新区临江村",121.485179506441,31.1293456345277,2022-03-28
"浦东新区","上海市浦东新区荷泽路567弄",121.601167905414,31.2721412802845,2022-03-28
"浦东新区","上海市浦东新区东陆路1456弄",121.5896261169,31.2815848989426,2022-03-28
"浦东新区","上海市浦东新区博华路96号",121.553600562558,31.1904360096397,2022-03-28
"浦东新区","上海市浦东新区中界村沈家队姚家宅",121.574173735009,31.1954461740634,2022-03-28
"浦东新区","上海市浦东新区中界村沈家队杨家宅",121.574173735009,31.1954461740634,2022-03-28
"浦东新区","上海市浦东新区华夏一路55弄",121.692995748883,31.2030549704929,2022-03-28
"浦东新区","上海市浦东新区新德路201弄",121.697403105207,31.2025644776716,2022-03-28
"浦东新区","上海市浦东新区界龙村孙家宅",121.692611992769,31.1764367732319,2022-03-28
"浦东新区","上海市浦东新区华夏东路1152弄",121.680584131143,31.2026132027503,2022-03-28
"浦东新区","上海市浦东新区新德路908弄",121.691473121044,31.2031042358452,2022-03-28
"浦东新区","上海市浦东新区华夏二路1500弄",121.697079984715,31.1781718849987,2022-03-28
"浦东新区","上海市浦东新区新川路1100弄",121.691238483645,31.1948894594536,2022-03-28
"浦东新区","上海市浦东新区川环南路1223号",121.695581431463,31.189947227023,2022-03-28
"浦东新区","上海市浦东新区勤昌村杨家宅",121.744404964744,31.2099848375333,2022-03-28
"浦东新区","上海市浦东新区浦东南路1299号",121.52421420458,31.2307668070321,2022-03-28
"浦东新区","上海市浦东新区潍坊路280号",121.541086987143,31.2343116383973,2022-03-28
"浦东新区","上海市浦东新区潍坊路274号",121.540695595433,31.2340451689502,2022-03-28
"浦东新区","上海市浦东新区东陆路1168号",121.602685682404,31.27841344519,2022-03-28
"浦东新区","上海市浦东新区利津路1313弄",121.599145101067,31.2885047829117,2022-03-28
"浦东新区","上海市浦东新区凌河路777弄",121.5896261169,31.2815848989426,2022-03-28
"浦东新区","上海市浦东新区五莲路1769弄",121.60380012022,31.290088693223,2022-03-28
"浦东新区","上海市浦东新区长岛路1280弄",121.599642313167,31.266883120972,2022-03-28
"浦东新区","上海市浦东新区永泰路136弄",121.511141254324,31.1406678921009,2022-03-28
"浦东新区","上海市浦东新区东明路1628弄",121.529696185109,31.2072012517119,2022-03-28
"浦东新区","上海市浦东新区古莲路2弄",121.550454606832,31.2273482924363,2022-03-28
"浦东新区","上海市浦东新区钱堂村新立宅",121.599518706329,31.1638817454656,2022-03-28
"浦东新区","上海市浦东新区孙耀路128弄",121.64091451067,31.1902130497072,2022-03-28
"浦东新区","上海市浦东新区金杨路1155弄",121.595565712932,31.2637922719701,2022-03-28
"浦东新区","上海市浦东新区年家浜路213弄",121.587159908953,31.1214076492838,2022-03-28
"浦东新区","上海市浦东新区东八灶63弄",121.550454606832,31.2273482924363,2022-03-28
"浦东新区","上海市浦东新区年家浜路129弄",121.578721137162,31.1204141367105,2022-03-28
"浦东新区","上海市浦东新区周康路169弄",121.579222122145,31.1159988876931,2022-03-28
"浦东新区","上海市浦东新区年家浜路275号",121.586481778123,31.121361509726,2022-03-28
"浦东新区","上海市浦东新区文康路2号",121.587458865027,31.1258928162432,2022-03-28
"浦东新区","上海市浦东新区福山路309号",121.536006979654,31.2356138695333,2022-03-28
"浦东新区","上海市浦东新区源深路600弄1支弄",121.541346866927,31.2360064651209,2022-03-28
"浦东新区","上海市浦东新区张杨路1338号",121.539192460823,31.238133832139,2022-03-28
"浦东新区","上海市浦东新区新德路835弄",121.694507417395,31.2019665702439,2022-03-28
"浦东新区","上海市浦东新区小云台街343号",121.584245805879,31.1287846635535,2022-03-28
"浦东新区","上海市浦东新区康沈路1929弄",121.58702570211,31.1173485180928,2022-03-28
"浦东新区","上海市浦东新区横桥路69弄",121.586170425434,31.1142408301623,2022-03-28
"浦东新区","上海市浦东新区窑港村",121.672602866348,31.1082715675334,2022-03-28
"浦东新区","上海市浦东新区华鹏路300弄",121.53191420992,31.1787183489582,2022-03-28
"浦东新区","上海市浦东新区秀沿西路218弄",121.540521863147,31.1357646072078,2022-03-28
"浦东新区","上海市浦东新区卫行村张家队张家宅",121.584959240115,31.1722250698694,2022-03-28
"浦东新区","上海市浦东新区联勤村冯桥队",121.55718596934,31.1732310110799,2022-03-28
"浦东新区","上海市浦东新区秀沿路836弄",121.584859707864,31.1200779398788,2022-03-28
"浦东新区","上海市浦东新区康沈路633弄",121.584859707864,31.1200779398788,2022-03-28
"浦东新区","上海市浦东新区康达路688弄",121.584859707864,31.1200779398788,2022-03-28
"浦东新区","上海市浦东新区康达路508弄",121.584859707864,31.1200779398788,2022-03-28
"浦东新区","上海市浦东新区民生路999弄",121.556330063851,31.2366702304366,2022-03-28
"浦东新区","上海市浦东新区灵山路866弄",121.559390860215,31.2379329848248,2022-03-28
"浦东新区","上海市浦东新区康沈路2866弄",121.587833638085,31.1001439557271,2022-03-28
"浦东新区","上海市浦东新区上南路6392弄",121.584859707864,31.1200779398788,2022-03-28
"浦东新区","上海市浦东新区康沈路1938弄",121.582681317002,31.1147577547379,2022-03-28
"浦东新区","上海市浦东新区瑞安路120弄",121.584859707864,31.1200779398788,2022-03-28
"浦东新区","上海市浦东新区建设路85弄",121.651206037576,31.0792898137064,2022-03-28
"浦东新区","上海市浦东新区川周公路4058弄",121.591378261797,31.1321645808084,2022-03-28
"浦东新区","上海市浦东新区瑞和路555弄",121.601290254625,31.0945856945579,2022-03-28
"浦东新区","上海市浦东新区年家浜东路129弄",121.598925375539,31.1203651370632,2022-03-28
"浦东新区","上海市浦东新区关岳路39弄",121.588741285973,31.1252419451244,2022-03-28
"浦东新区","上海市浦东新区年家浜路428弄",121.580064822544,31.120667404196,2022-03-28
"浦东新区","上海市浦东新区东八灶643弄",121.589325723538,31.1209548314371,2022-03-28
"浦东新区","上海市浦东新区蓝靛路1688弄",121.646025869022,31.1037539438325,2022-03-28
"浦东新区","上海市浦东新区川周公路4005弄",121.596689223633,31.1313640667786,2022-03-28
"浦东新区","上海市浦东新区周市路1321号",121.589701664393,31.1193185943326,2022-03-28
"浦东新区","上海市浦东新区沈梅东路355弄",121.598985562009,31.0992824854087,2022-03-28
"浦东新区","上海市浦东新区上南路7788弄",121.584859707864,31.1200779398788,2022-03-28
"浦东新区","上海市浦东新区川周公路4055号",121.592983471253,31.131506660425,2022-03-28
"浦东新区","上海市浦东新区建设路105号",121.659089027748,31.1178866799353,2022-03-28
"浦东新区","上海市浦东新区康沈路1997号",121.58753764642,31.1141561185672,2022-03-28
"浦东新区","上海市浦东新区利津路185弄",121.587348373449,31.284879686517,2022-03-28
"浦东新区","上海市浦东新区博兴路341号",121.588372621391,31.2733672130425,2022-03-28
"浦东新区","上海市浦东新区东波路192弄",121.585327545374,31.2895771327072,2022-03-28
"浦东新区","上海市浦东新区浦东大道2748弄",121.568688412073,31.2656972298435,2022-03-28
"浦东新区","上海市浦东新区东波路49弄",121.583378042756,31.2907238390316,2022-03-28
"浦东新区","上海市浦东新区浦东大道2778弄",121.581374821469,31.2756511334779,2022-03-28
"浦东新区","上海市浦东新区环桥路1132号",121.611401042462,31.1417937067321,2022-03-28
"浦东新区","上海市浦东新区新虹村秋家宅",121.647419410359,31.2468640211081,2022-03-28
"浦东新区","上海市浦东新区东窑新村",121.617403699541,31.031492818488,2022-03-28
"浦东新区","上海市浦东新区红旗村毛家塘队毛家塘",121.507890556175,31.1336601072747,2022-03-28
"浦东新区","上海市浦东新区耀华路435号",121.489804971342,31.1791563674521,2022-03-28
"浦东新区","上海市浦东新区环镇东路200弄",121.610552413247,31.0265996238794,2022-03-28
"浦东新区","上海市浦东新区东灶路115弄",121.587998477147,31.1217012570953,2022-03-28
"浦东新区","上海市浦东新区瑞安路699弄",121.600951054464,31.0965824545837,2022-03-28
"浦东新区","上海市浦东新区瑞浦路287弄",121.590850597141,31.1004468290055,2022-03-28
"浦东新区","上海市浦东新区关岳路181弄",121.593389118681,31.1261347085398,2022-03-28
"浦东新区","上海市浦东新区康沈路2868号",121.588231587426,31.0996884071242,2022-03-28
"浦东新区","上海市浦东新区周浦顾家宅",121.566425849985,31.1134694571629,2022-03-28
"浦东新区","上海市浦东新区繁荣东路150弄",121.59321448809,31.1120169709024,2022-03-28
"浦东新区","上海市浦东新区周市路38弄",121.59005811202,31.1177637137425,2022-03-28
"浦东新区","上海市浦东新区韵浦路267弄",121.588291773896,31.1175046417653,2022-03-28
"浦东新区","上海市浦东新区周东路491号",121.59102495824,31.1243449226466,2022-03-28
"浦东新区","上海市浦东新区康桥路1100号",121.576109403722,31.1554732461046,2022-03-28
"浦东新区","上海市浦东新区浦东大道2250弄",121.559305700852,31.2578700326592,2022-03-28
"浦东新区","上海市浦东新区一六村南赵家宅",121.602726734966,31.1731882956816,2022-03-28
"浦东新区","上海市浦东新区上南路6620弄",121.584859707864,31.1200779398788,2022-03-28
"浦东新区","上海市浦东新区和龙路371弄",121.577359306009,31.3503693082344,2022-03-28
"浦东新区","上海市浦东新区欣河村",121.833766779927,31.0278422289443,2022-03-28
"浦东新区","上海市浦东新区周祝公路2558号",121.710728030158,31.1232548359881,2022-03-28
"浦东新区","上海市浦东新区中大街134弄",121.583441013972,31.1238192404643,2022-03-28
"浦东新区","上海市浦东新区东方路1381号",121.535008333418,31.2174639040887,2022-03-28
"浦东新区","上海市浦东新区绣川路581号",121.706016417759,31.1891844306661,2022-03-28
"浦东新区","上海市浦东新区上川路538号",121.652824694274,31.2786376609798,2022-03-28
"浦东新区","上海市浦东新区南桥路297弄",121.71286069727,31.1970505037396,2022-03-28
"浦东新区","上海市浦东新区合庆镇凤家宅",121.729988508767,31.243208518641,2022-03-28
"浦东新区","上海市浦东新区高桥村东顾家宅",121.733394883261,31.1693143220964,2022-03-28
"浦东新区","上海市浦东新区道新村东杜家宅",121.766139017405,31.167091303361,2022-03-28
"浦东新区","上海市浦东新区新德西路511弄",121.674150556911,31.1970359857411,2022-03-28
"浦东新区","上海市浦东新区秀沿路505弄",121.568278874591,31.1419436855484,2022-03-28
"浦东新区","上海市浦东新区秀浦路1011号",121.584859707864,31.1200779398788,2022-03-28
"浦东新区","上海市浦东新区已对相关居住地落实终末消毒措施",121.550454606832,31.2273482924363,2022-03-28
"黄浦区","上海市黄浦区顺昌路580号",121.486125961126,31.2172935862628,2022-03-28
"黄浦区","上海市黄浦区制造局路27号",121.489073121844,31.2162725220832,2022-03-28
"黄浦区","上海市黄浦区陆家浜路468弄",121.504498105416,31.2161071433814,2022-03-28
"黄浦区","上海市黄浦区西藏南路1717弄",121.49862291789,31.2053518048576,2022-03-28
"黄浦区","上海市黄浦区西藏南路1739弄",121.498159482077,31.2045029595054,2022-03-28
"黄浦区","上海市黄浦区中山南路1891号",121.497734044587,31.2074378638698,2022-03-28
"黄浦区","上海市黄浦区中山南路1711弄",121.500289544102,31.2096550613938,2022-03-28
"黄浦区","上海市黄浦区南车站路318弄",121.498673761981,31.213084182331,2022-03-28
"黄浦区","上海市黄浦区车站支路9弄",121.491585592524,31.2372471520636,2022-03-28
"黄浦区","上海市黄浦区制造局路455弄",121.491010407506,31.210925129407,2022-03-28
"黄浦区","上海市黄浦区海南西弄52号",121.503960559399,31.216539968628,2022-03-28
"黄浦区","上海市黄浦区斜土东路68弄",121.497270968097,31.2140800338297,2022-03-28
"黄浦区","上海市黄浦区丽园路875号",121.482479379739,31.2126450098444,2022-03-28
"黄浦区","上海市黄浦区海潮路240弄",121.503726910136,31.213442050793,2022-03-28
"黄浦区","上海市黄浦区海潮路256弄",121.50354920089,31.2128867884433,2022-03-28
"黄浦区","上海市黄浦区普育东路200弄",121.502308755228,31.2136236482467,2022-03-28
"黄浦区","上海市黄浦区普育东路7号",121.502789438506,31.2170727748396,2022-03-28
"黄浦区","上海市黄浦区瞿溪路57号",121.5027379656,31.2129256697143,2022-03-28
"黄浦区","上海市黄浦区海潮路93弄",121.505912038289,31.2149615288345,2022-03-28
"黄浦区","上海市黄浦区西藏南路1374弄",121.493515512082,31.2116939256578,2022-03-28
"黄浦区","上海市黄浦区瞿溪路120弄",121.50172216173,31.2120859266995,2022-03-28
"黄浦区","上海市黄浦区中山南路1358弄",121.506243782514,31.2161680602201,2022-03-28
"黄浦区","上海市黄浦区国货路236号",121.501919699111,31.2143285703991,2022-03-28
"黄浦区","上海市黄浦区延安东路8号",121.49044630159,31.2363624962788,2022-03-28
"黄浦区","上海市黄浦区瞿溪路1200弄",121.477917514868,31.2023023965439,2022-03-28
"黄浦区","上海市黄浦区中山南路1726弄",121.49944953862,31.2099897019351,2022-03-28
"黄浦区","上海市黄浦区建国中路18号",121.476397222623,31.2160795030283,2022-03-28
"黄浦区","上海市黄浦区静修路114弄",121.493029798293,31.2257417798045,2022-03-28
"黄浦区","上海市黄浦区复兴东路451弄",121.518304791613,31.2003641008301,2022-03-28
"黄浦区","上海市黄浦区庄家街10号",121.494789650651,31.2265261412338,2022-03-28
"黄浦区","上海市黄浦区西仓桥街1号",121.496341401555,31.2260280359727,2022-03-28
"黄浦区","上海市黄浦区瑞金二路410弄",121.473398499169,31.2133016831321,2022-03-28
"黄浦区","上海市黄浦区大兴街115弄",121.497558066538,31.2196088321597,2022-03-28
"黄浦区","上海市黄浦区打浦路339弄",121.478552257541,31.2052967494431,2022-03-28
"黄浦区","上海市黄浦区中山南一路500弄2号",121.492307830154,31.2049626326502,2022-03-28
"黄浦区","上海市黄浦区斜土路468号",121.483949277045,31.2093538529989,2022-03-28
"黄浦区","上海市黄浦区中山南路1586弄",121.501523995534,31.2111320572099,2022-03-28
"黄浦区","上海市黄浦区国货路8号",121.504192412051,31.2134020560684,2022-03-28
"黄浦区","上海市黄浦区斜土路330弄",121.485718399917,31.2101785640661,2022-03-28
"黄浦区","上海市黄浦区蒙自西路28弄3号",121.482570108596,31.2129158640054,2022-03-28
"黄浦区","上海市黄浦区斜土路486弄",121.483998234695,31.2084093757901,2022-03-28
"黄浦区","上海市黄浦区五里桥路269弄",121.48593902375,31.2095841026205,2022-03-28
"黄浦区","上海市黄浦区斜土路810弄",121.476500976909,31.2070910142224,2022-03-28
"黄浦区","上海市黄浦区永年路149弄",121.485099287759,31.2170759403217,2022-03-28
"黄浦区","上海市黄浦区四牌楼路114号",121.501915387245,31.2291967900253,2022-03-28
"黄浦区","上海市黄浦区复兴中路485弄",121.478455959191,31.2213538757787,2022-03-28
"黄浦区","上海市黄浦区四川中路126弄5号",121.496358379529,31.2401574103785,2022-03-28
"黄浦区","上海市黄浦区鲁班路168弄",121.480692470419,31.2107777316744,2022-03-28
"黄浦区","上海市黄浦区制造局路646弄",121.491508967064,31.2075514468122,2022-03-28
"黄浦区","上海市黄浦区迎勋路100弄",121.497986558266,31.2188419538317,2022-03-28
"黄浦区","上海市黄浦区吾园路142号",121.491585592524,31.2372471520636,2022-03-28
"黄浦区","上海市黄浦区尚文路133弄",121.497992576913,31.2215084367606,2022-03-28
"黄浦区","上海市黄浦区黄家阙路76弄",121.494053776744,31.2203405763063,2022-03-28
"黄浦区","上海市黄浦区蓬莱路358号",121.495035894158,31.2223538854476,2022-03-28
"黄浦区","上海市黄浦区曹家街40弄",121.492589808254,31.22466514615,2022-03-28
"黄浦区","上海市黄浦区东台路279号",121.48934800333,31.2238348497981,2022-03-28
"黄浦区","上海市黄浦区重庆南路298弄",121.477687009674,31.2173288697182,2022-03-28
"黄浦区","上海市黄浦区陕西南路213号",121.467739893101,31.2188328435914,2022-03-28
"黄浦区","上海市黄浦区瑞金二路129弄",121.473344421178,31.219376754271,2022-03-28
"黄浦区","上海市黄浦区梦花街191弄",121.492759049012,31.2240859081051,2022-03-28
"黄浦区","上海市黄浦区仪凤弄115弄",121.492940416895,31.2234303140857,2022-03-28
"黄浦区","上海市黄浦区东刘家弄15号",121.504204898498,31.2295702677933,2022-03-28
"黄浦区","上海市黄浦区黄家路55弄",121.503348004872,31.2215087455735,2022-03-28
"黄浦区","上海市黄浦区老道前街30弄",121.493790007825,31.2237331574592,2022-03-28
"黄浦区","上海市黄浦区蓬莱路421弄",121.493672715546,31.2220803564963,2022-03-28
"黄浦区","上海市黄浦区蒙自路490弄",121.485480618448,31.2072328582784,2022-03-28
"黄浦区","上海市黄浦区静修路126弄",121.486533342675,31.2255124191199,2022-03-28
"黄浦区","上海市黄浦区江阴街428弄",121.494337910776,31.2183499223762,2022-03-28
"黄浦区","上海市黄浦区复兴中路565弄",121.472679136117,31.2210827372157,2022-03-28
"黄浦区","上海市黄浦区陆家浜路1011号",121.495425489257,31.2180771537846,2022-03-28
"黄浦区","上海市黄浦区蓬莱路257弄",121.496494832136,31.2232906562171,2022-03-28
"黄浦区","上海市黄浦区永寿路50号",121.487560375365,31.2351964936914,2022-03-28
"黄浦区","上海市黄浦区梦花街163弄",121.493390198463,31.2243261576133,2022-03-28
"黄浦区","上海市黄浦区瑞金南路185弄",121.475441245899,31.2061065163511,2022-03-28
"黄浦区","上海市黄浦区蓬莱路257号",121.496475967721,31.2233218457205,2022-03-28
"黄浦区","上海市黄浦区迎勋北路8弄",121.491585592524,31.2372471520636,2022-03-28
"黄浦区","上海市黄浦区西藏南路688弄",121.489576891574,31.2227312506368,2022-03-28
"黄浦区","上海市黄浦区北孔家路23弄",121.491585592524,31.2372471520636,2022-03-28
"黄浦区","上海市黄浦区河南南路300弄",121.494459990495,31.2308638418338,2022-03-28
"黄浦区","上海市黄浦区河南南路398弄",121.495698843624,31.2285718019843,2022-03-28
"黄浦区","上海市黄浦区河南南路368弄",121.495119526401,31.229784565236,2022-03-28
"黄浦区","上海市黄浦区大境路50号",121.493632381629,31.231105849433,2022-03-28
"黄浦区","上海市黄浦区张家弄132号",121.498664599265,31.2286211311082,2022-03-28
"黄浦区","上海市黄浦区复兴东路663弄",121.498122382059,31.2279773029395,2022-03-28
"黄浦区","上海市黄浦区昼锦路180弄",121.497240695201,31.2287029602704,2022-03-28
"黄浦区","上海市黄浦区四牌楼路149号",121.502213894166,31.2285375263337,2022-03-28
"黄浦区","上海市黄浦区四牌楼路147号",121.502212007724,31.2286018317671,2022-03-28
"黄浦区","上海市黄浦区四牌楼路95弄",121.502076049185,31.2295805349371,2022-03-28
"黄浦区","上海市黄浦区聚奎新村",121.502708501179,31.2294960046602,2022-03-28
"黄浦区","上海市黄浦区学院路72号",121.50245104682,31.228808102919,2022-03-28
"黄浦区","上海市黄浦区打浦路316弄",121.477142906027,31.2052986798579,2022-03-28
"黄浦区","上海市黄浦区中山南一路1109弄",121.476887877092,31.2014854153116,2022-03-28
"黄浦区","上海市黄浦区瞿溪路1240弄",121.477558192664,31.2030009175686,2022-03-28
"黄浦区","上海市黄浦区梦花街234号",121.492374664084,31.2238618702509,2022-03-28
"黄浦区","上海市黄浦区黄家阙路68弄",121.493950022457,31.2207148614576,2022-03-28
"黄浦区","上海市黄浦区广东路610号",121.486418539231,31.2374360363883,2022-03-28
"黄浦区","上海市黄浦区河南南路555弄",121.497580883498,31.2262373235718,2022-03-28
"黄浦区","上海市黄浦区丽园路488弄",121.489286020249,31.2131418583115,2022-03-28
"黄浦区","上海市黄浦区中山南一路1048弄",121.476954711022,31.2005106655266,2022-03-28
"黄浦区","上海市黄浦区乔家路19弄3号",121.504296345999,31.2226111239127,2022-03-28
"黄浦区","上海市黄浦区黄家路99弄",121.502000636438,31.2221657427013,2022-03-28
"黄浦区","上海市黄浦区老太平弄209弄",121.505309544784,31.2286148781221,2022-03-28
"黄浦区","上海市黄浦区紫霞路199弄",121.505917158631,31.2245659433006,2022-03-28
"黄浦区","上海市黄浦区曹市弄48号",121.495654826654,31.2249117246057,2022-03-28
"黄浦区","上海市黄浦区静修路10弄",121.495086289097,31.2253866603638,2022-03-28
"黄浦区","上海市黄浦区静修路43号",121.494470410839,31.2258620569096,2022-03-28
"黄浦区","上海市黄浦区静修路12号",121.49489450087,31.2259079906798,2022-03-28
"黄浦区","上海市黄浦区吾园街10弄",121.499344077553,31.2228123901299,2022-03-28
"黄浦区","上海市黄浦区也是园弄68号",121.491585592524,31.2372471520636,2022-03-28
"黄浦区","上海市黄浦区静修路107号",121.493392444227,31.2254067323682,2022-03-28
"黄浦区","上海市黄浦区静修路66号",121.494139475089,31.2255961809968,2022-03-28
"黄浦区","上海市黄浦区龙华东路888弄",121.477730128338,31.1990606070333,2022-03-28
"黄浦区","上海市黄浦区梦花街73弄",121.494698310947,31.224742037936,2022-03-28
"黄浦区","上海市黄浦区静修路64弄",121.494219723715,31.2256019452523,2022-03-28
"黄浦区","上海市黄浦区静修路47号",121.494407529453,31.2258326438449,2022-03-28
"黄浦区","上海市黄浦区梦花街78弄",121.494903933078,31.2247357846907,2022-03-28
"黄浦区","上海市黄浦区庄家街72号",121.495082875536,31.2256539264683,2022-03-28
"黄浦区","上海市黄浦区梦花街57弄",121.495054893319,31.2250398772096,2022-03-28
"黄浦区","上海市黄浦区静修路83号",121.493806742728,31.2256442764923,2022-03-28
"黄浦区","上海市黄浦区静修路85号",121.493638759598,31.2255219919096,2022-03-28
"黄浦区","上海市黄浦区梦花街68号",121.495064370442,31.224805033569,2022-03-28
"黄浦区","上海市黄浦区学宫街23弄",121.495023048389,31.2243853706847,2022-03-28
"黄浦区","上海市黄浦区中华路88弄",121.505198604053,31.2289699853122,2022-03-28
"黄浦区","上海市黄浦区建国中路43号",121.476829217743,31.2159643090667,2022-03-28
"黄浦区","上海市黄浦区济南路260弄",121.486546188444,31.2091485427482,2022-03-28
"黄浦区","上海市黄浦区斜土路251弄",121.487102598877,31.2113163615509,2022-03-28
"黄浦区","上海市黄浦区局门路599弄",121.4896578289,31.2063988553875,2022-03-28
"黄浦区","上海市黄浦区四牌楼路71号",121.502079597492,31.2299703767784,2022-03-28
"黄浦区","上海市黄浦区黄家路88弄",121.50359063719,31.2212345193213,2022-03-28
"黄浦区","上海市黄浦区芝罘路45号",121.482515581451,31.243609418331,2022-03-28
"黄浦区","上海市黄浦区曹市弄42弄",121.495654826654,31.2249117246057,2022-03-28
"黄浦区","上海市黄浦区小桃园街50弄",121.496133264169,31.2267181969201,2022-03-28
"黄浦区","上海市黄浦区文庙路87弄",121.496424674476,31.2243110262358,2022-03-28
"黄浦区","上海市黄浦区高家弄46号",121.491585592524,31.2372471520636,2022-03-28
"黄浦区","上海市黄浦区文庙路31弄",121.497132988371,31.2250448952297,2022-03-28
"黄浦区","上海市黄浦区小桃园街40弄",121.496133264169,31.2268752194047,2022-03-28
"黄浦区","上海市黄浦区庄家街45弄",121.49519562571,31.2262336510896,2022-03-28
"黄浦区","上海市黄浦区瞿溪路1199弄",121.501473690425,31.2126581356342,2022-03-28
"黄浦区","上海市黄浦区西仓桥街112弄",121.496291276108,31.2259735331128,2022-03-28
"黄浦区","上海市黄浦区静修路37弄",121.494724990621,31.2259248201899,2022-03-28
"黄浦区","上海市黄浦区庄家街34号",121.494785446581,31.226400291201,2022-03-28
"黄浦区","上海市黄浦区庄家街103号",121.495495916409,31.2253974683667,2022-03-28
"黄浦区","上海市黄浦区柳江街16弄",121.496042714973,31.2251638608268,2022-03-28
"黄浦区","上海市黄浦区西仓桥街过街楼",121.495994655628,31.2260373771112,2022-03-28
"黄浦区","上海市黄浦区河南南路612弄",121.496863586548,31.2259670483512,2022-03-28
"黄浦区","上海市黄浦区鲁班路738弄",121.484940916498,31.1998880342562,2022-03-28
"黄浦区","上海市黄浦区斜土路520号",121.483011356262,31.209060442198,2022-03-28
"黄浦区","上海市黄浦区学宫街53弄",121.495240348492,31.2238629510689,2022-03-28
"黄浦区","上海市黄浦区静修路36弄",121.494629590575,31.2258165863148,2022-03-28
"黄浦区","上海市黄浦区静修路35弄",121.494677021106,31.2260008617462,2022-03-28
"黄浦区","上海市黄浦区静修路23号",121.494889739851,31.2261202893247,2022-03-28
"黄浦区","上海市黄浦区庄家街64号",121.495055926371,31.2259222726037,2022-03-28
"黄浦区","上海市黄浦区庄家街100弄",121.495154130027,31.2259040909421,2022-03-28
"黄浦区","上海市黄浦区西仓桥街155号",121.495735853811,31.2260430898732,2022-03-28
"黄浦区","上海市黄浦区龙华东路385号",121.485867608462,31.2016515920337,2022-03-28
"黄浦区","上海市黄浦区人民路885号",121.490139859637,31.2311591141794,2022-03-28
"黄浦区","上海市黄浦区光启南路307号",121.501774712602,31.222673812171,2022-03-28
"黄浦区","上海市黄浦区中山南路1701号",121.500555352703,31.2097859373362,2022-03-28
"黄浦区","上海市黄浦区昼锦路84号",121.499148785935,31.2302925933436,2022-03-28
"黄浦区","上海市黄浦区瞿溪路904弄",121.485646894798,31.2058076130278,2022-03-28
"黄浦区","上海市黄浦区陆家浜路431弄",121.506093230594,31.2177879850814,2022-03-28
"黄浦区","上海市黄浦区光启路119弄",121.501095324145,31.2294821864615,2022-03-28
"黄浦区","上海市黄浦区梦花街79号",121.494692382131,31.2248291201234,2022-03-28
"黄浦区","上海市黄浦区重庆南路205弄",121.477585501151,31.2205009292658,2022-03-28
"黄浦区","上海市黄浦区光启南路363号",121.501914399109,31.2219140616203,2022-03-28
"黄浦区","上海市黄浦区南昌路110弄",121.468393051037,31.2230778107397,2022-03-28
"黄浦区","上海市黄浦区陕西南路278弄",121.472959137944,31.2247298402473,2022-03-28
"黄浦区","上海市黄浦区梦花街93弄",121.494470680331,31.2247465155682,2022-03-28
"黄浦区","上海市黄浦区中山南路1667号",121.501570976912,31.2105118901275,2022-03-28
"黄浦区","上海市黄浦区已对相关居住地落实终末消毒措施",121.491585592524,31.2372471520636,2022-03-28
"静安区","上海市静安区淮安路687弄",121.458216686898,31.2455075323067,2022-03-28
"静安区","上海市静安区三泉路517弄",121.44732967327,31.3166272844836,2022-03-28
"静安区","上海市静安区宝昌路632弄",121.477998542025,31.2676679707548,2022-03-28
"静安区","上海市静安区柳营路1025弄",121.456559762385,31.2682738693517,2022-03-28
"静安区","上海市静安区平顺路721弄",121.457853861302,31.3236286296725,2022-03-28
"静安区","上海市静安区大统路938弄",121.465017937575,31.2604427207575,2022-03-28
"静安区","上海市静安区曲沃路66弄",121.452413543473,31.3133341575853,2022-03-28
"静安区","上海市静安区普善路239弄",121.463956948937,31.2632953066303,2022-03-28
"静安区","上海市静安区普善路铁路新村12号",121.461043564507,31.2620678526503,2022-03-28
"静安区","上海市静安区永和路1080弄",121.432787364691,31.2936241007197,2022-03-28
"静安区","上海市静安区康定路758弄",121.448983992697,31.2383558288992,2022-03-28
"静安区","上海市静安区康定东路19号",121.463812411581,31.2433525463362,2022-03-28
"静安区","上海市静安区柳营路650弄",121.463536092806,31.2704356112986,2022-03-28
"静安区","上海市静安区平型关路801弄",121.465598512426,31.2848164999036,2022-03-28
"静安区","上海市静安区平型关路305弄",121.471647342408,31.2763879945405,2022-03-28
"静安区","上海市静安区宝山路499弄",121.484717238426,31.2636615487347,2022-03-28
"静安区","上海市静安区芷江西路270弄",121.467501392988,31.2633370549072,2022-03-28
"静安区","上海市静安区康定路710弄",121.449816991396,31.23873042794,2022-03-28
"静安区","上海市静安区昌化路443弄",121.456569553915,31.2449816029908,2022-03-28
"静安区","上海市静安区洛川东路37号",121.472114101951,31.2786382010722,2022-03-28
"静安区","上海市静安区柳营路319弄",121.469876782248,31.273721070047,2022-03-28
"静安区","上海市静安区江杨南路466弄",121.474431550506,31.3227213988794,2022-03-28
"静安区","上海市静安区通阁路200弄",121.47688104997,31.266835432512,2022-03-28
"静安区","上海市静安区武定路600弄",121.455240241421,31.2392510663985,2022-03-28
"静安区","上海市静安区民德路59号",121.477906555541,31.2558738489341,2022-03-28
"静安区","上海市静安区少年村路415弄",121.437461068598,31.3055145784961,2022-03-28
"静安区","上海市静安区普善路390弄",121.460373069275,31.2663243619374,2022-03-28
"静安区","上海市静安区永兴路258弄",121.479762005571,31.2591358963515,2022-03-28
"静安区","上海市静安区谈家桥路163弄",121.456271855469,31.2669146046022,2022-03-28
"静安区","上海市静安区广中西路999弄",121.442267003077,31.2833858015721,2022-03-28
"静安区","上海市静安区万荣路1199弄",121.448192046559,31.2989423887353,2022-03-28
"静安区","上海市静安区平陆路397弄",121.452393780752,31.2927311583586,2022-03-28
"静安区","上海市静安区共和新路2399弄",121.459654424867,31.2876586207956,2022-03-28
"静安区","上海市静安区共和新路2564号",121.457863563002,31.2888082051502,2022-03-28
"静安区","上海市静安区老沪太路205号",121.459181197524,31.2743752312978,2022-03-28
"静安区","上海市静安区高平路598弄",121.434575890961,31.2937734507637,2022-03-28
"静安区","上海市静安区原平路183弄",121.438626081014,31.2883698511189,2022-03-28
"静安区","上海市静安区平型关路121弄",121.458320620845,31.2660382291011,2022-03-28
"静安区","上海市静安区洛川东路161号",121.471042064156,31.2779514324296,2022-03-28
"静安区","上海市静安区新闸路1910弄",121.447706602262,31.2328402575056,2022-03-28
"静安区","上海市静安区康定路1038弄",121.442829162665,31.2374266963877,2022-03-28
"静安区","上海市静安区万航渡路858弄",121.43540062525,31.2331768221977,2022-03-28
"静安区","上海市静安区武宁南路438弄",121.438487921627,31.2389311191642,2022-03-28
"静安区","上海市静安区余姚路566弄",121.439954585033,31.2389473288212,2022-03-28
"静安区","上海市静安区武定西路1320弄",121.438659138657,31.231223031835,2022-03-28
"静安区","上海市静安区武定西路1398弄",121.436339893491,31.2318542549372,2022-03-28
"静安区","上海市静安区武定路1128弄",121.446410616903,31.2360211314597,2022-03-28
"静安区","上海市静安区华山路251弄",121.452721931755,31.225976852693,2022-03-28
"静安区","上海市静安区万航渡路212弄",121.447002151081,31.2316088526987,2022-03-28
"静安区","上海市静安区镇宁路404弄",121.44247621843,31.2288010007761,2022-03-28
"静安区","上海市静安区北宝兴路660弄",121.46698001647,31.2844698600046,2022-03-28
"静安区","上海市静安区临汾路300弄",121.468559956201,31.3181868863255,2022-03-28
"静安区","上海市静安区万航渡路342号",121.444579600782,31.2317043427308,2022-03-28
"静安区","上海市静安区普善路铁路新村21号",121.45931261962,31.2624304726014,2022-03-28
"静安区","上海市静安区中华新路939弄",121.461998014112,31.2618919826249,2022-03-28
"静安区","上海市静安区万航渡路623弄",121.440392958122,31.2327279403492,2022-03-28
"静安区","上海市静安区万荣路959号",121.448759685811,31.2943335884431,2022-03-28
"静安区","上海市静安区王家宅路16号",121.479479308827,31.2568989570358,2022-03-28
"静安区","上海市静安区愚园路611弄",121.444742014418,31.2276181776768,2022-03-28
"静安区","上海市静安区景凤路521弄",121.46333630966,31.3250404341228,2022-03-28
"静安区","上海市静安区已对相关居住地落实终末消毒措施",121.453431772769,31.2338449304017,2022-03-28
"徐汇区","上海市徐汇区华泾五村",121.451592132915,31.1273361234785,2022-03-28
"徐汇区","上海市徐汇区石龙路569号",121.442350994642,31.1600603064024,2022-03-28
"徐汇区","上海市徐汇区天钥桥南路1199弄",121.462923448448,31.1588355156482,2022-03-28
"徐汇区","上海市徐汇区龙南三村",121.462678031383,31.1624058589018,2022-03-28
"徐汇区","上海市徐汇区华发路99弄",121.459929036861,31.1321048458046,2022-03-28
"徐汇区","上海市徐汇区龙恒路280弄",121.45518616343,31.1728343673469,2022-03-28
"徐汇区","上海市徐汇区钦州北路158弄",121.428575838969,31.1866289365391,2022-03-28
"徐汇区","上海市徐汇区华发路180弄",121.458213542829,31.1335297432581,2022-03-28
"徐汇区","上海市徐汇区天钥新村",121.452930158972,31.1920618943491,2022-03-28
"徐汇区","上海市徐汇区桂林路81号",121.427132800997,31.1677889281247,2022-03-28
"徐汇区","上海市徐汇区天钥桥路380弄",121.444129100568,31.1937164789766,2022-03-28
"徐汇区","上海市徐汇区三江路301弄",121.445765184394,31.1702192574716,2022-03-28
"徐汇区","上海市徐汇区冠生园路230弄",121.432270030548,31.1688358576446,2022-03-28
"徐汇区","上海市徐汇区康健路105弄",121.433839100782,31.1720441646077,2022-03-28
"徐汇区","上海市徐汇区钦州南路8弄",121.443396352764,31.1945567728227,2022-03-28
"徐汇区","上海市徐汇区沪闵路9260弄",121.43914548126,31.1682206634066,2022-03-28
"徐汇区","上海市徐汇区宛平南路65弄",121.451681514313,31.2024881854213,2022-03-28
"徐汇区","上海市徐汇区东安路230弄",121.459038007626,31.1992838547995,2022-03-28
"徐汇区","上海市徐汇区东兰路51弄",121.408424061633,31.1632485191987,2022-03-28
"徐汇区","上海市徐汇区龙吴路2888弄",121.461576798658,31.1154641931161,2022-03-28
"徐汇区","上海市徐汇区龙吴路2418弄",121.469078008989,31.1253760301988,2022-03-28
"徐汇区","上海市徐汇区华发路406弄",121.454605229256,31.1333144529092,2022-03-28
"徐汇区","上海市徐汇区龙吴路2588弄",121.462948960325,31.1201446383344,2022-03-28
"徐汇区","上海市徐汇区桂林西街9弄",121.443396352764,31.1945567728227,2022-03-28
"徐汇区","上海市徐汇区桂林西街111弄",121.425720035922,31.1569824619793,2022-03-28
"徐汇区","上海市徐汇区钦州南路381弄",121.43156441157,31.1660604221461,2022-03-28
"徐汇区","上海市徐汇区桂平路258弄",121.414757744292,31.1640397230495,2022-03-28
"徐汇区","上海市徐汇区浦北路21弄",121.433807480428,31.1642156224717,2022-03-28
"徐汇区","上海市徐汇区桂林路70弄",121.422365763148,31.1640596536989,2022-03-28
"徐汇区","上海市徐汇区桂林西街47弄",121.423043983808,31.1604233988607,2022-03-28
"徐汇区","上海市徐汇区江安路58弄",121.422428824194,31.153696844359,2022-03-28
"徐汇区","上海市徐汇区桂林路37号",121.426762339805,31.1639433915178,2022-03-28
"徐汇区","上海市徐汇区钦州南路917弄",121.419185132828,31.1622886676468,2022-03-28
"徐汇区","上海市徐汇区梅陇九村",121.429158479922,31.1367430437498,2022-03-28
"徐汇区","上海市徐汇区云锦路50弄",121.462366678693,31.1799079687433,2022-03-28
"徐汇区","上海市徐汇区龙华路3208弄",121.452951538643,31.177177891717,2022-03-28
"徐汇区","上海市徐汇区龙水北路960弄",121.452796311451,31.1777578833271,2022-03-28
"徐汇区","上海市徐汇区宛平路297弄",121.451271437848,31.2049166113854,2022-03-28
"徐汇区","上海市徐汇区桂林路303弄",121.424907518588,31.1752011507849,2022-03-28
"徐汇区","上海市徐汇区田林东路414弄",121.432183254236,31.1800417440273,2022-03-28
"徐汇区","上海市徐汇区田林六村",121.426847319506,31.1788078683336,2022-03-28
"徐汇区","上海市徐汇区大木桥路600弄",121.467820201613,31.1980709280662,2022-03-28
"徐汇区","上海市徐汇区零陵路677弄",121.450807373221,31.1934421713308,2022-03-28
"徐汇区","上海市徐汇区龙川北路436弄",121.443286310339,31.1535223158827,2022-03-28
"徐汇区","上海市徐汇区长桥四村",121.446028028586,31.1399378439366,2022-03-28
"徐汇区","上海市徐汇区园南二村",121.449341877612,31.1485310040404,2022-03-28
"徐汇区","上海市徐汇区已对相关居住地落实终末消毒措施",121.443396352764,31.1945567728227,2022-03-28
"长宁区","上海市长宁区仙霞西路885弄",121.355979099519,31.2148871769005,2022-03-28
"长宁区","上海市长宁区新中小区",121.435625830441,31.2227075495537,2022-03-28
"长宁区","上海市长宁区新泾一村",121.377624938579,31.2238128474236,2022-03-28
"长宁区","上海市长宁区双流路54弄",121.387411168635,31.2179390320521,2022-03-28
"长宁区","上海市长宁区宣化路57弄",121.43609187134,31.223474396211,2022-03-28
"长宁区","上海市长宁区新华路593弄",121.427701518216,31.2107733305861,2022-03-28
"长宁区","上海市长宁区东诸安浜路103号",121.440812556625,31.2236424639483,2022-03-28
"长宁区","上海市长宁区金钟路333弄",121.370157594366,31.225717384686,2022-03-28
"长宁区","上海市长宁区利西路125弄",121.436652054656,31.2206787300355,2022-03-28
"长宁区","上海市长宁区镇宁路405弄住宅",121.440578637871,31.22898581071,2022-03-28
"长宁区","上海市长宁区兴国路244弄49支弄",121.442000835154,31.2133853015165,2022-03-28
"长宁区","上海市长宁区西诸安浜路425弄",121.435336576067,31.2230341916394,2022-03-28
"长宁区","上海市长宁区天山西路350弄",121.373067744896,31.2236542757715,2022-03-28
"长宁区","上海市长宁区中华新村",121.425393052716,31.2043622695753,2022-03-28
"长宁区","上海市长宁区愚园路1210弄住宅",121.433225647949,31.2263286503265,2022-03-28
"长宁区","上海市长宁区华阳路298弄",121.445298874003,31.2149036995576,2022-03-28
"长宁区","上海市长宁区江苏路285弄",121.437201009153,31.2273122407735,2022-03-28
"长宁区","上海市长宁区东诸安浜路180弄",121.431390230131,31.2257197778783,2022-03-28
"长宁区","上海市长宁区华山路1615号",121.441072616071,31.2098850014236,2022-03-28
"长宁区","上海市长宁区东诸安浜路91弄",121.442616982903,31.2118048782563,2022-03-28
"长宁区","上海市长宁区武夷路491弄",121.426540997327,31.2208246453085,2022-03-28
"长宁区","上海市长宁区长宁路476弄",121.431701043838,31.2294174956496,2022-03-28
"长宁区","上海市长宁区镇宁路255弄",121.437201009153,31.2273122407735,2022-03-28
"长宁区","上海市长宁区玉屏南路725号住宅",121.407587918864,31.2205725746014,2022-03-28
"长宁区","上海市长宁区东诸安浜路158弄",121.440137659696,31.2248723523849,2022-03-28
"长宁区","上海市长宁区新华路393弄",121.430591995855,31.2084035075239,2022-03-28
"长宁区","上海市长宁区长顺路40号",121.424483338726,31.2049599300597,2022-03-28
"长宁区","上海市长宁区新华路370弄",121.43201931348,31.210397538652,2022-03-28
"长宁区","上海市长宁区仙霞西路1225弄",121.378081547269,31.2138944223672,2022-03-28
"长宁区","上海市长宁区镇宁路545弄",121.440708712508,31.2304729229735,2022-03-28
"长宁区","上海市长宁区云雾山路13号",121.414045747345,31.2208211711379,2022-03-28
"长宁区","上海市长宁区天山西路445弄",121.37033590801,31.2232100575514,2022-03-28
"长宁区","上海市长宁区虹井路888弄",121.374477096411,31.1944064919842,2022-03-28
"长宁区","上海市长宁区哈密路2004弄",121.377472496134,31.1989936557663,2022-03-28
"长宁区","上海市长宁区安顺路231弄住宅",121.423082880436,31.2068536546628,2022-03-28
"长宁区","上海市长宁区虹桥路1077弄",121.418879349633,31.2027466367506,2022-03-28
"长宁区","上海市长宁区定西路1507号",121.427962206475,31.2235901213413,2022-03-28
"长宁区","上海市长宁区安西路380号",121.431752965896,31.223564413236,2022-03-28
"长宁区","上海市长宁区延安西路1768号",121.421770905239,31.2136943723298,2022-03-28
"长宁区","上海市长宁区天山四村",121.409079465333,31.2184604038524,2022-03-28
"长宁区","上海市长宁区天山路1761弄",121.416385204384,31.2147356933383,2022-03-28
"长宁区","上海市长宁区玉屏南路113弄住宅",121.415802204108,31.2183903010161,2022-03-28
"长宁区","上海市长宁区新华路210弄",121.434826428368,31.2095698182037,2022-03-28
"长宁区","上海市长宁区延安西路1000号",121.437668038188,31.2190395995066,2022-03-28
"长宁区","上海市长宁区延安西路1020号",121.437867641672,31.2190351988067,2022-03-28
"长宁区","上海市长宁区北虹路1185号",121.382516930725,31.2193007073326,2022-03-28
"长宁区","上海市长宁区金浜路50号",121.370165229963,31.204414391281,2022-03-28
"长宁区","上海市长宁区中泾路18弄",121.369217068497,31.2062759279377,2022-03-28
"长宁区","上海市长宁区遵义路800弄住宅",121.416564955317,31.2217256091776,2022-03-28
"长宁区","上海市长宁区武夷路709弄住宅",121.422388220785,31.2202819783099,2022-03-28
"长宁区","上海市长宁区虹桥路2222弄住宅",121.386474774971,31.1966758923228,2022-03-28
"长宁区","上海市长宁区金钟路68弄",121.376952017921,31.2252768818641,2022-03-28
"长宁区","上海市长宁区程家桥路80弄住宅",121.378344481292,31.1946983269584,2022-03-28
"长宁区","上海市长宁区蒲淞北路19号",121.381125275829,31.2232911580286,2022-03-28
"长宁区","上海市长宁区虹梅路3888弄",121.390511849764,31.1989395232766,2022-03-28
"长宁区","上海市长宁区已对相关居住地落实终末消毒措施",121.430454375451,31.2268479682254,2022-03-28
"普陀区","上海市普陀区武宁一村",121.431903971052,31.2458208964747,2022-03-28
"普陀区","上海市普陀区车站新村",121.410093742084,31.2661193310269,2022-03-28
"普陀区","上海市普陀区曹杨七村",121.416892028353,31.246969606438,2022-03-28
"普陀区","上海市普陀区中潭路100弄",121.4493153776,31.259214843449,2022-03-28
"普陀区","上海市普陀区真光路1288号",121.390413215819,31.2511813450556,2022-03-28
"普陀区","上海市普陀区清涧路68弄",121.395254004551,31.2699465519445,2022-03-28
"普陀区","上海市普陀区真南路85弄",121.403630972923,31.2715013011904,2022-03-28
"普陀区","上海市普陀区桃浦路300弄",121.403680739048,31.2685118447507,2022-03-28
"普陀区","上海市普陀区三源路168弄",121.409028202032,31.2651513763633,2022-03-28
"普陀区","上海市普陀区梅川路1333弄",121.384232694249,31.250347425068,2022-03-28
"普陀区","上海市普陀区大渡河路1262弄",121.402631428382,31.2431244637904,2022-03-28
"普陀区","上海市普陀区曹杨五村",121.414531640795,31.2402159959289,2022-03-28
"普陀区","上海市普陀区定边路377弄",121.371116355837,31.2661373879637,2022-03-28
"普陀区","上海市普陀区同普路1501弄",121.367721838976,31.2393023967938,2022-03-28
"普陀区","上海市普陀区真光路1339弄",121.387637272132,31.2516845490758,2022-03-28
"普陀区","上海市普陀区金鼎路1600弄",121.375305873074,31.2659602909329,2022-03-28
"普陀区","上海市普陀区石泉路450弄",121.422891900685,31.2535128856685,2022-03-28
"普陀区","上海市普陀区祁连山南路2727弄",121.375016079717,31.2656585692924,2022-03-28
"普陀区","上海市普陀区宁夏路366弄",121.423531584038,31.2400193984231,2022-03-28
"普陀区","上海市普陀区礼尚路222弄",121.415191985175,31.2611658882611,2022-03-28
"普陀区","上海市普陀区宜川一村",121.447123422325,31.2685465687369,2022-03-28
"普陀区","上海市普陀区铜川路1781弄",121.393772968257,31.2573308990162,2022-03-28
"普陀区","上海市普陀区泰山支路9号",121.454806270029,31.2658087357345,2022-03-28
"普陀区","上海市普陀区甘泉三村",121.432618034102,31.2672621584812,2022-03-28
"普陀区","上海市普陀区甘泉路501弄",121.43576255254,31.2681644498499,2022-03-28
"普陀区","上海市普陀区怒江路601弄",121.404828503998,31.2421526946961,2022-03-28
"普陀区","上海市普陀区靖边路199弄",121.373309478909,31.2670268806969,2022-03-28
"普陀区","上海市普陀区泰山二村",121.452083955181,31.2660268856292,2022-03-28
"普陀区","上海市普陀区真如西村",121.40580693836,31.252311620847,2022-03-28
"普陀区","上海市普陀区常德路1328弄",121.440487100539,31.2488826252519,2022-03-28
"普陀区","上海市普陀区中山北路2655弄",121.435363615063,31.2534677372216,2022-03-28
"普陀区","上海市普陀区靖边路299弄",121.375058300076,31.2686382399983,2022-03-28
"普陀区","上海市普陀区柳园路599号",121.348642099435,31.3014796966877,2022-03-28
"普陀区","上海市普陀区梅岭北路294号",121.414024726996,31.2487440859076,2022-03-28
"普陀区","上海市普陀区延长西路328号",121.443818915676,31.2678981540392,2022-03-28
"普陀区","上海市普陀区桂巷新村",121.40635634201,31.2450342423658,2022-03-28
"普陀区","上海市普陀区曹杨路1222弄",121.415226659768,31.2528654471373,2022-03-28
"普陀区","上海市普陀区新村路248弄",121.441900404598,31.2727434461447,2022-03-28
"普陀区","上海市普陀区曹杨路777号",121.419679021198,31.2464278629008,2022-03-28
"普陀区","上海市普陀区真光路962弄",121.38837388265,31.2473933358388,2022-03-28
"普陀区","上海市普陀区曹杨九村",121.409897192838,31.2381495016077,2022-03-28
"普陀区","上海市普陀区志丹路400弄",121.437830451824,31.2713867156113,2022-03-28
"普陀区","上海市普陀区志丹路211号",121.436421100309,31.2735012405916,2022-03-28
"普陀区","上海市普陀区志丹路160号",121.437745741614,31.2668173757101,2022-03-28
"普陀区","上海市普陀区长风一村",121.409779784308,31.2374634388639,2022-03-28
"普陀区","上海市普陀区中宁路88弄",121.422168764749,31.2553446593913,2022-03-28
"普陀区","上海市普陀区曹安路299号",121.38902434567,31.2536715610625,2022-03-28
"普陀区","上海市普陀区甘泉二村",121.436904478504,31.2677089454272,2022-03-28
"普陀区","上海市普陀区大渡河路2087弄",121.4036564848,31.2649053412725,2022-03-28
"普陀区","上海市普陀区常德路1298弄",121.440978653314,31.2485491271289,2022-03-28
"普陀区","上海市普陀区梅岭支路23号",121.417514913394,31.2404467871339,2022-03-28
"普陀区","上海市普陀区延川路121号",121.379472124199,31.2490146812268,2022-03-28
"普陀区","上海市普陀区真金路251弄",121.410669555916,31.2737020114941,2022-03-28
"普陀区","上海市普陀区已对相关居住地落实终末消毒措施",121.403569349165,31.2549733682796,2022-03-28
"虹口区","上海市虹口区广灵四路572弄",121.475147320336,31.2930742189528,2022-03-28
"虹口区","上海市虹口区海伦路350弄",121.497208446034,31.2635951066896,2022-03-28
"虹口区","上海市虹口区车站北路491弄",121.480449209287,31.3029974356125,2022-03-28
"虹口区","上海市虹口区广中五村",121.482915327403,31.2836281361308,2022-03-28
"虹口区","上海市虹口区凉城路847弄",121.477394970553,31.3045160754646,2022-03-28
"虹口区","上海市虹口区水电路1013弄",121.485128482688,31.2944861002134,2022-03-28
"虹口区","上海市虹口区已对相关居住地落实终末消毒措施",121.511586454535,31.2697466989314,2022-03-28
"杨浦区","上海市杨浦区水电新村",121.533665097189,31.3419899804936,2022-03-28
"杨浦区","上海市杨浦区军工路2866号",121.549025851918,31.3410077515834,2022-03-28
"杨浦区","上海市杨浦区双辽支路65弄",121.52293762262,31.2754463545126,2022-03-28
"杨浦区","上海市杨浦区殷行路305弄",121.546045274236,31.3327019171164,2022-03-28
"杨浦区","上海市杨浦区民京路799弄",121.527968313137,31.3267754891397,2022-03-28
"杨浦区","上海市杨浦区包头路1150弄",121.543856732522,31.3369528924666,2022-03-28
"杨浦区","上海市杨浦区辽源二村",121.518706244346,31.2755483582583,2022-03-28
"杨浦区","上海市杨浦区凤城三村",121.528297991259,31.2878228700411,2022-03-28
"杨浦区","上海市杨浦区市光二村",121.548000975162,31.322108912847,2022-03-28
"杨浦区","上海市杨浦区鞍山四村",121.516323219489,31.28201595527,2022-03-28
"杨浦区","上海市杨浦区殷行路650弄",121.547476364744,31.3357921037377,2022-03-28
"杨浦区","上海市杨浦区开鲁二村",121.534190965235,31.3281462206896,2022-03-28
"杨浦区","上海市杨浦区国伟路138弄",121.541944150261,31.3378530451009,2022-03-28
"杨浦区","上海市杨浦区殷行路430弄",121.543759805358,31.3363972516789,2022-03-28
"杨浦区","上海市杨浦区黄兴路1039弄",121.530002525964,31.2861163302003,2022-03-28
"杨浦区","上海市杨浦区靖宇南路118弄",121.531356901181,31.2889820958132,2022-03-28
"杨浦区","上海市杨浦区控江六村",121.536623037573,31.2906119000075,2022-03-28
"杨浦区","上海市杨浦区本溪路141弄",121.523868985773,31.2823774948043,2022-03-28
"杨浦区","上海市杨浦区黄兴路1413弄",121.529714349556,31.2879476190401,2022-03-28
"杨浦区","上海市杨浦区殷行路307弄",121.545815487687,31.3342788311406,2022-03-28
"杨浦区","上海市杨浦区市光三村",121.547556583426,31.3256469628713,2022-03-28
"杨浦区","上海市杨浦区松花江路95弄",121.549600497953,31.3041444398576,2022-03-28
"杨浦区","上海市杨浦区国顺路133号",121.521142448889,31.2960636605553,2022-03-28
"杨浦区","上海市杨浦区怀德路366弄",121.532087582883,31.2631328662993,2022-03-28
"杨浦区","上海市杨浦区四平路1147弄",121.510149165719,31.2838594373611,2022-03-28
"杨浦区","上海市杨浦区中原路209号",121.538286429885,31.3253932469391,2022-03-28
"杨浦区","上海市杨浦区控江路1700号",121.520897031823,31.2797508620295,2022-03-28
"杨浦区","上海市杨浦区长阳路890号",121.527688311309,31.2690563153683,2022-03-28
"杨浦区","上海市杨浦区延吉四村",121.544679580369,31.299251408193,2022-03-28
"杨浦区","上海市杨浦区长白三村",121.545561267227,31.2948411114723,2022-03-28
"杨浦区","上海市杨浦区已对相关居住地落实终末消毒措施",121.532519937325,31.2655241446571,2022-03-28
"宝山区","上海市宝山区竹韵路259弄",121.448116319405,31.3735038592243,2022-03-28
"宝山区","上海市宝山区朱家弄村",121.395986662525,31.3476683389689,2022-03-28
"宝山区","上海市宝山区长江西路1470号",121.459904602951,31.3420210532699,2022-03-28
"宝山区","上海市宝山区长江路868号",121.490436839438,31.3520878558129,2022-03-28
"宝山区","上海市宝山区长春村",121.395025834951,31.4130939614412,2022-03-28
