"district","address","lng","lat","date"
"浦东新区","上海市浦东新区国展路1756号工地生活区",121.497067580325,31.1890409531657,2022-03-25
"浦东新区","上海市浦东新区康安路御北路交界口工地生活区",121.563785999583,31.1639392972324,2022-03-25
"浦东新区","上海市浦东新区环龙路439弄",121.531651994542,31.2079199147972,2022-03-25
"浦东新区","上海市浦东新区华夏二路1455弄",121.699507026542,31.1786218780257,2022-03-25
"浦东新区","上海市浦东新区潍坊五村",121.530908017918,31.2255232271082,2022-03-25
"浦东新区","上海市浦东新区灵岩南路144号",121.500507922172,31.1658272846062,2022-03-25
"浦东新区","上海市浦东新区洪山路1658弄",121.514183186272,31.158361401298,2022-03-25
"浦东新区","上海市浦东新区富航路105弄",121.601631520888,31.0429843405781,2022-03-25
"浦东新区","上海市浦东新区航鸣路200弄",121.609060956608,31.0270557582343,2022-03-25
"浦东新区","上海市浦东新区浦电路48弄",121.523018290455,31.2247743849636,2022-03-25
"浦东新区","上海市浦东新区浦城路580弄",121.521080555639,31.230158967011,2022-03-25
"浦东新区","上海市浦东新区栖山路1855号",121.577797499436,31.2671923237136,2022-03-25
"浦东新区","上海市浦东新区利津路729弄",121.596582954092,31.2806785708705,2022-03-25
"浦东新区","上海市浦东新区浦东大道2554号",121.569498503982,31.2653410274344,2022-03-25
"浦东新区","上海市浦东新区鹤鸣村",121.600562088179,31.0502001326859,2022-03-25
"浦东新区","上海市浦东新区潍坊八村",121.534970065604,31.2255194443124,2022-03-25
"浦东新区","上海市浦东新区百花新村",121.592035462108,31.1168348539223,2022-03-25
"浦东新区","上海市浦东新区观海路999弄",121.788751073872,31.0610841503913,2022-03-25
"浦东新区","上海市浦东新区三三公路5020弄",121.879902942444,30.9812557067702,2022-03-25
"浦东新区","上海市浦东新区浦东大道2567弄",121.569413703942,31.2670251058868,2022-03-25
"浦东新区","上海市浦东新区义泓村",121.843812620276,31.0819638207255,2022-03-25
"浦东新区","上海市浦东新区新安村",121.687760154879,31.0293322194091,2022-03-25
"浦东新区","上海市浦东新区博华路999弄",121.557113925239,31.1768062904657,2022-03-25
"浦东新区","上海市浦东新区妙境路124弄",121.695108922765,31.2023247128499,2022-03-25
"浦东新区","上海市浦东新区新行路高行家园",121.620082536402,31.3007670235057,2022-03-25
"浦东新区","上海市浦东新区池月路848弄",121.81961442577,30.9154236153486,2022-03-25
"浦东新区","上海市浦东新区拱极路2626弄",121.779597969539,31.060854851112,2022-03-25
"浦东新区","上海市浦东新区新浦路251弄",121.541342016078,31.1742258958661,2022-03-25
"浦东新区","上海市浦东新区南新村吴家宅",121.526625615891,31.3601914545598,2022-03-25
"浦东新区","上海市浦东新区拱北路278弄",121.774859587635,31.0609104552718,2022-03-25
"浦东新区","上海市浦东新区行泰路150弄",121.614337782835,31.2952456467756,2022-03-25
"浦东新区","上海市浦东新区拱为路2600弄",121.745418253359,31.0635577630424,2022-03-25
"浦东新区","上海市浦东新区通济路328弄",121.752532473676,31.0577488542489,2022-03-25
"浦东新区","上海市浦东新区凌兆路99弄",121.497900949751,31.1476189056968,2022-03-25
"浦东新区","上海市浦东新区双桥路1108弄",121.5896261169,31.2815848989426,2022-03-25
"浦东新区","上海市浦东新区鹤驰路99弄",121.599741665756,31.0849672715556,2022-03-25
"浦东新区","上海市浦东新区西北新",121.758308218783,31.0553659635195,2022-03-25
"浦东新区","上海市浦东新区联勤村冯桥队张家宅",121.557447915227,31.1712123975815,2022-03-25
"浦东新区","上海市浦东新区联勤村李家队李家宅",121.55718596934,31.1732310110799,2022-03-25
"浦东新区","上海市浦东新区康花新村",121.551245385172,31.1551069669152,2022-03-25
"浦东新区","上海市浦东新区鹏飞路411弄",121.562375031119,31.1774448319688,2022-03-25
"浦东新区","上海市浦东新区金桥路530弄",121.621784825343,31.2606638156741,2022-03-25
"浦东新区","上海市浦东新区玉盘北路288弄",121.678846628626,31.2319556115091,2022-03-25
"浦东新区","上海市浦东新区药师新村",121.689184148774,31.2090166621391,2022-03-25
"浦东新区","上海市浦东新区金桥路301弄",121.578617113384,31.2728790178052,2022-03-25
"浦东新区","上海市浦东新区长岛路728弄",121.5896261169,31.2815848989426,2022-03-25
"浦东新区","上海市浦东新区巨峰路399弄",121.602835340102,31.2864912778845,2022-03-25
"浦东新区","上海市浦东新区银峰路676弄",121.652778790863,31.290487771739,2022-03-25
"浦东新区","上海市浦东新区高宝路68弄",121.62729152795,31.2973706625996,2022-03-25
"浦东新区","上海市浦东新区鹏飞路28弄",121.561872249525,31.1809195430465,2022-03-25
"浦东新区","上海市浦东新区罗山路108弄",121.558879454888,31.2546415897529,2022-03-25
"浦东新区","上海市浦东新区张杨路1515弄",121.542149592731,31.240309161544,2022-03-25
"浦东新区","上海市浦东新区申大公寓",121.596600740541,31.2598508166086,2022-03-25
"浦东新区","上海市浦东新区浦东大道580号",121.528508913393,31.2460980608033,2022-03-25
"浦东新区","上海市浦东新区云山路1039弄",121.578964667785,31.2560144614311,2022-03-25
"浦东新区","上海市浦东新区临沂一村",121.519404407388,31.2048233333162,2022-03-25
"浦东新区","上海市浦东新区芳芯路251弄",121.563004024637,31.1984666927966,2022-03-25
"浦东新区","上海市浦东新区中科路2635弄",121.644202488498,31.1969291857144,2022-03-25
"浦东新区","上海市浦东新区顺和路126弄",121.633712076752,31.1916158272345,2022-03-25
"浦东新区","上海市浦东新区梅山苑",121.494164986966,31.1660748676936,2022-03-25
"浦东新区","上海市浦东新区浦建路60弄",121.524453692829,31.2131592305879,2022-03-25
"浦东新区","上海市浦东新区南门大街70弄",121.763427572054,31.049802582764,2022-03-25
"浦东新区","上海市浦东新区华鹏路390弄",121.532330484693,31.1783398795585,2022-03-25
"浦东新区","上海市浦东新区胜利路30弄",121.692954606491,31.2482130808373,2022-03-25
"浦东新区","上海市浦东新区上浦路202弄",121.498717239968,31.1501399996292,2022-03-25
"浦东新区","上海市浦东新区新丰村",121.655689210884,31.1676141168701,2022-03-25
"浦东新区","上海市浦东新区中界村蔡家宅",121.574173735009,31.1954461740634,2022-03-25
"浦东新区","上海市浦东新区鹏岳路70弄",121.558803637903,31.1809368440621,2022-03-25
"浦东新区","上海市浦东新区下南路115弄",121.550203620272,31.1724023443283,2022-03-25
"浦东新区","上海市浦东新区中界村苏家队苏家宅",121.577029627886,31.1916104985113,2022-03-25
"浦东新区","上海市浦东新区五星村陈家队陈家宅",121.578579474383,31.194413133383,2022-03-25
"浦东新区","上海市浦东新区御桥村姚家宅",121.564117833639,31.1623293022053,2022-03-25
"浦东新区","上海市浦东新区下南路225弄",121.552785889291,31.1753995837175,2022-03-25
"浦东新区","上海市浦东新区钱堂村长浜宅",121.614687762662,31.1631872589463,2022-03-25
"浦东新区","上海市浦东新区浙桥路277号",121.60792001878,31.2583458814987,2022-03-25
"浦东新区","上海市浦东新区下南路东钟家宅",121.548654941573,31.1732516349633,2022-03-25
"浦东新区","上海市浦东新区莲园路8弄",121.550454606832,31.2273482924363,2022-03-25
"浦东新区","上海市浦东新区御桥村印家队东印家圈",121.564637683037,31.1740750417323,2022-03-25
"浦东新区","上海市浦东新区峨山路280弄",121.534409702627,31.2202734086393,2022-03-25
"浦东新区","上海市浦东新区蓝村路501弄",121.531969234115,31.218845395827,2022-03-25
"浦东新区","上海市浦东新区下南路501弄",121.536884264815,31.1897022555378,2022-03-25
"浦东新区","上海市浦东新区博华路498弄",121.555804016144,31.1847932688768,2022-03-25
"浦东新区","上海市浦东新区紫叶路76弄",121.536884264815,31.1897022555378,2022-03-25
"浦东新区","上海市浦东新区堆栈路27号",121.536884264815,31.1897022555378,2022-03-25
"浦东新区","上海市浦东新区赵家厍",121.543435157746,31.1767913831306,2022-03-25
"浦东新区","上海市浦东新区姜薛家宅",121.668889540862,31.2677748443918,2022-03-25
"浦东新区","上海市浦东新区博华路1018弄",121.557501993219,31.1768508579768,2022-03-25
"浦东新区","上海市浦东新区孙环路366弄",121.6452495534,31.1862322722534,2022-03-25
"浦东新区","上海市浦东新区东靖路2250弄",121.620068792328,31.2983728676679,2022-03-25
"浦东新区","上海市浦东新区御秀路68弄",121.584859707864,31.1200779398788,2022-03-25
"浦东新区","上海市浦东新区瑞和路555弄",121.601290254625,31.0945856945579,2022-03-25
"浦东新区","上海市浦东新区航头路988弄",121.606904664062,31.0406249008946,2022-03-25
"浦东新区","上海市浦东新区一六村李家队王家宅",121.532353481314,31.2226591437399,2022-03-25
"浦东新区","上海市浦东新区御山路360弄",121.574682445419,31.1620356669102,2022-03-25
"浦东新区","上海市浦东新区环林西路618弄",121.529071701795,31.145718962096,2022-03-25
"浦东新区","上海市浦东新区新浦路380弄",121.536884264815,31.1897022555378,2022-03-25
"浦东新区","上海市浦东新区下南路551弄",121.54679904239,31.1790168752743,2022-03-25
"浦东新区","上海市浦东新区丰海路500弄",121.78915998254,31.0611508133486,2022-03-25
"浦东新区","上海市浦东新区行德路141弄",121.617842431952,31.3000275778643,2022-03-25
"浦东新区","上海市浦东新区崂三村",121.550454606832,31.2273482924363,2022-03-25
"浦东新区","上海市浦东新区杨莲路160弄",121.536884264815,31.1897022555378,2022-03-25
"浦东新区","上海市浦东新区下南路276弄",121.536884264815,31.1897022555378,2022-03-25
"浦东新区","上海市浦东新区鹤沙路688弄",121.596526809997,31.0876657802405,2022-03-25
"浦东新区","上海市浦东新区凌兆路127弄",121.500027777877,31.1477960721254,2022-03-25
"浦东新区","上海市浦东新区拱海路78弄",121.774859587635,31.0609104552718,2022-03-25
"浦东新区","上海市浦东新区莲安东路367弄",121.569714007474,31.1880809637362,2022-03-25
"浦东新区","上海市浦东新区牡丹路259弄",121.555825036493,31.2146547012618,2022-03-25
"浦东新区","上海市浦东新区南码头路193弄",121.515512588596,31.2047431820535,2022-03-25
"浦东新区","上海市浦东新区东方路1600弄",121.532426513552,31.2147143064955,2022-03-25
"浦东新区","上海市浦东新区霞光路78弄",121.817003321144,30.9071463787778,2022-03-25
"浦东新区","上海市浦东新区海沈村",121.804622335622,31.0323420675899,2022-03-25
"浦东新区","上海市浦东新区杨莲路姚家宅",121.55302537754,31.1680972223891,2022-03-25
"浦东新区","上海市浦东新区崂山二村",121.528015474176,31.2420193940495,2022-03-25
"浦东新区","上海市浦东新区临沂路339弄",121.549386162258,31.1769341226982,2022-03-25
"浦东新区","上海市浦东新区川杨新苑西区",121.632812962767,31.1912410396326,2022-03-25
"浦东新区","上海市浦东新区胶南小区170弄",121.517567192959,31.2063591665174,2022-03-25
"浦东新区","上海市浦东新区南新西园",121.588113280591,31.3348012503179,2022-03-25
"浦东新区","上海市浦东新区华夏东路860弄",121.672341549276,31.2003301237338,2022-03-25
"浦东新区","上海市浦东新区川银路150弄",121.694309161369,31.1989779797418,2022-03-25
"浦东新区","上海市浦东新区花木路830弄",121.558697458192,31.2168256352828,2022-03-25
"浦东新区","上海市浦东新区上浦路69弄",121.496511810111,31.1516762652833,2022-03-25
"浦东新区","上海市浦东新区千汇路750弄",121.77091009763,31.1228952321347,2022-03-25
"浦东新区","上海市浦东新区光泽路429弄",121.624748694543,31.3361840469722,2022-03-25
"浦东新区","上海市浦东新区杜鹃路188号",121.556269967212,31.208870882889,2022-03-25
"浦东新区","上海市浦东新区高东新村",121.621652325281,31.3389524316474,2022-03-25
"浦东新区","上海市浦东新区灵山路2000弄",121.582743839066,31.2484507214153,2022-03-25
"浦东新区","上海市浦东新区芳甸路333弄",121.529696185109,31.2072012517119,2022-03-25
"浦东新区","上海市浦东新区项文路333弄",121.712866985408,31.0533977188478,2022-03-25
"浦东新区","上海市浦东新区柳杉路99弄",121.576397220807,31.2305088190269,2022-03-25
"浦东新区","上海市浦东新区华夏东路1152弄",121.680584131143,31.2026132027503,2022-03-25
"浦东新区","上海市浦东新区新德路939弄",121.692047767078,31.2009453389289,2022-03-25
"浦东新区","上海市浦东新区新德路1058弄",121.689090994492,31.2013948365188,2022-03-25
"浦东新区","上海市浦东新区中界村季家宅",121.578761021926,31.1993098784582,2022-03-25
"浦东新区","上海市浦东新区新德公寓",121.694744447844,31.2015667599504,2022-03-25
"浦东新区","上海市浦东新区东绣路99弄",121.547714775027,31.2199648227729,2022-03-25
"浦东新区","上海市浦东新区长岛路638弄",121.589811796649,31.2662713487192,2022-03-25
"浦东新区","上海市浦东新区书院镇北窑1组",121.856595867005,30.9272244812309,2022-03-25
"浦东新区","上海市浦东新区靖海路547弄",121.773875323388,31.0625256396981,2022-03-25
"浦东新区","上海市浦东新区冬融路245弄",121.595711148594,31.3388602125983,2022-03-25
"浦东新区","上海市浦东新区迎熏路222弄",121.746609316635,31.0407810745298,2022-03-25
"浦东新区","上海市浦东新区环林东路906弄",121.535471409909,31.1479283479325,2022-03-25
"浦东新区","上海市浦东新区宏港苑285弄",121.849028271897,31.0410677402715,2022-03-25
"浦东新区","上海市浦东新区西浜头",121.615635834297,31.2925041992064,2022-03-25
"浦东新区","上海市浦东新区南项湾",121.559824831607,31.3670772168427,2022-03-25
"浦东新区","上海市浦东新区北项湾",121.560166996175,31.367679309467,2022-03-25
"浦东新区","上海市浦东新区惠东路342弄",121.777510666856,31.0496669204029,2022-03-25
"浦东新区","上海市浦东新区上钢一村",121.500968393576,31.1782390828587,2022-03-25
"浦东新区","上海市浦东新区中心村顾家宅",121.657879010226,31.2018453358044,2022-03-25
"浦东新区","上海市浦东新区上南路6932弄",121.584859707864,31.1200779398788,2022-03-25
"浦东新区","上海市浦东新区耀元路228弄",121.480329835216,31.1769398309366,2022-03-25
"浦东新区","上海市浦东新区宣春路201号",121.732443128573,31.0900012347801,2022-03-25
"浦东新区","上海市浦东新区碧云路333弄",121.583328007139,31.2439878555643,2022-03-25
"浦东新区","上海市浦东新区三灶光明村",121.728425816502,31.0770068270558,2022-03-25
"浦东新区","上海市浦东新区祝西村",121.757781632093,31.1116433338875,2022-03-25
"浦东新区","上海市浦东新区崂山新村",121.526081152921,31.2441861427874,2022-03-25
"浦东新区","上海市浦东新区六里新村",121.523686989076,31.1935978595526,2022-03-25
"浦东新区","上海市浦东新区上南三村",121.504228344272,31.1801727385778,2022-03-25
"浦东新区","上海市浦东新区杨高南路4501弄",121.531939362474,31.1636215646889,2022-03-25
"浦东新区","上海市浦东新区高青路2861弄",121.536884264815,31.1897022555378,2022-03-25
"浦东新区","上海市浦东新区高行绿洲六期",121.598287758288,31.3290128365142,2022-03-25
"浦东新区","上海市浦东新区柳埠路196弄",121.589881325495,31.2710215840607,2022-03-25
"浦东新区","上海市浦东新区利津路385弄",121.590995673481,31.2827648790811,2022-03-25
"浦东新区","上海市浦东新区芳华路660弄",121.536884264815,31.1897022555378,2022-03-25
"浦东新区","上海市浦东新区浦建路1086弄",121.544957426264,31.2129164044776,2022-03-25
"浦东新区","上海市浦东新区凌兆路555弄",121.508150525789,31.1502543473656,2022-03-25
"浦东新区","上海市浦东新区康杉路359弄",121.536884264815,31.1897022555378,2022-03-25
"浦东新区","上海市浦东新区柳埠路142弄",121.588915647072,31.2693304014172,2022-03-25
"浦东新区","上海市浦东新区陈春路620弄",121.552907609688,31.1780781941088,2022-03-25
"浦东新区","上海市浦东新区叠桥村",121.622828746177,31.1338499732159,2022-03-25
"浦东新区","上海市浦东新区上南路5588号",121.534100685531,31.1291441675857,2022-03-25
"浦东新区","上海市浦东新区唐港路1059弄",121.870669260107,30.9829726711955,2022-03-25
"浦东新区","上海市浦东新区新舒苑南苑",121.87044639051,30.9819558710296,2022-03-25
"浦东新区","上海市浦东新区周浦西大街",121.581352363831,31.1236452747192,2022-03-25
"浦东新区","上海市浦东新区洋溢村",121.885778489294,30.9456043308235,2022-03-25
"浦东新区","上海市浦东新区中久村",121.872798693319,30.9336576912959,2022-03-25
"浦东新区","上海市浦东新区联勤村张家宅张家队",121.641939387426,31.3298699592958,2022-03-25
"浦东新区","上海市浦东新区梅园三村",121.528849910164,31.2452051271707,2022-03-25
"浦东新区","上海市浦东新区潍坊路154弄",121.532304344003,31.2313464668942,2022-03-25
"浦东新区","上海市浦东新区下南路西钟家宅",121.548654941573,31.1732516349633,2022-03-25
"浦东新区","上海市浦东新区御水路555弄",121.582327025309,31.1603052008317,2022-03-25
"浦东新区","上海市浦东新区莲振路269号",121.574360941877,31.173909356805,2022-03-25
"浦东新区","上海市浦东新区鹏飞路51弄",121.560521198038,31.1814926374874,2022-03-25
"浦东新区","上海市浦东新区飞桥村",121.618821135805,31.0471041490063,2022-03-25
"浦东新区","上海市浦东新区鹤东村",121.602978260509,31.061148957304,2022-03-25
"浦东新区","上海市浦东新区高博路188弄",121.5896261169,31.2815848989426,2022-03-25
"浦东新区","上海市浦东新区板泉路2000弄",121.536884264815,31.1897022555378,2022-03-25
"浦东新区","上海市浦东新区禹洲金桥国际2期",121.620323012787,31.2614006406111,2022-03-25
"浦东新区","上海市浦东新区德川路369弄",121.636263803384,31.1944164540822,2022-03-25
"浦东新区","上海市浦东新区金桥路715号",121.584339229652,31.2668237804736,2022-03-25
"浦东新区","上海市浦东新区汤家宅",121.859868932961,31.0499908391034,2022-03-25
"浦东新区","上海市浦东新区五星村吴家队吴家宅",121.522180979889,31.1256048631317,2022-03-25
"浦东新区","上海市浦东新区民星苑",121.576083083371,31.1672482713164,2022-03-25
"浦东新区","上海市浦东新区芳华路916弄",121.574598004701,31.2028538934567,2022-03-25
"浦东新区","上海市浦东新区高科西路3030弄",121.569848753301,31.1958928407386,2022-03-25
"浦东新区","上海市浦东新区上南路3848弄",121.511836003805,31.1560752357101,2022-03-25
"浦东新区","上海市浦东新区海阳路905弄",121.509962048681,31.1641832545308,2022-03-25
"浦东新区","上海市浦东新区天花庵村",121.531939542135,31.1285359001772,2022-03-25
"浦东新区","上海市浦东新区三旋路506弄",121.525530311983,31.1391594184198,2022-03-25
"浦东新区","上海市浦东新区高青路2878弄",121.534383741597,31.1661478678863,2022-03-25
"浦东新区","上海市浦东新区林展路411弄",121.515681739524,31.128169902288,2022-03-25
"浦东新区","上海市浦东新区花墙村",121.55274169266,31.1563281752622,2022-03-25
"浦东新区","上海市浦东新区金杨路785弄",121.589437562574,31.2596987884712,2022-03-25
"浦东新区","上海市浦东新区浦东大道2511弄",121.566406266925,31.265127505972,2022-03-25
"浦东新区","上海市浦东新区金杨路273弄",121.58166030296,31.2536469416975,2022-03-25
"浦东新区","上海市浦东新区杨莲路171号",121.561179566146,31.1761870547616,2022-03-25
"浦东新区","上海市浦东新区川银路81弄",121.692620975824,31.1986460798495,2022-03-25
"浦东新区","上海市浦东新区御桥村龙桥队张家宅",121.667841836366,31.0107382592771,2022-03-25
"浦东新区","上海市浦东新区华夏西路5758号",121.587975660187,31.170617148188,2022-03-25
"浦东新区","上海市浦东新区北艾路1660弄",121.530288187116,31.1870408137803,2022-03-25
"浦东新区","上海市浦东新区港驳小区420弄",121.53289560869,31.2198649201003,2022-03-25
"浦东新区","上海市浦东新区绿林路320弄",121.554834744499,31.1761626467343,2022-03-25
"浦东新区","上海市浦东新区上南路3500弄",121.525530311983,31.1391594184198,2022-03-25
"浦东新区","上海市浦东新区陈春东路88弄",121.565995831138,31.1814471453478,2022-03-25
"浦东新区","上海市浦东新区御青路328弄",121.584859707864,31.1200779398788,2022-03-25
"浦东新区","上海市浦东新区三林苑",121.529139973013,31.149955265931,2022-03-25
"浦东新区","上海市浦东新区江高路39弄",121.485615543936,31.1556652311454,2022-03-25
"浦东新区","上海市浦东新区东陆路1182弄",121.602356004282,31.2753682698756,2022-03-25
"浦东新区","上海市浦东新区祝潘公路301弄",121.766842749942,31.1140887975279,2022-03-25
"浦东新区","上海市浦东新区海滨国际花园",121.865034189643,30.8728767809203,2022-03-25
"浦东新区","上海市浦东新区会龙村",121.720019383709,31.1007360187369,2022-03-25
"浦东新区","上海市浦东新区六灶果园村",121.737440132634,30.9836647732627,2022-03-25
"浦东新区","上海市浦东新区建港村",121.848000161241,31.0365178049753,2022-03-25
"浦东新区","上海市浦东新区欣春苑",121.711403016919,31.030093838361,2022-03-25
"浦东新区","上海市浦东新区沪南路2000号",121.567875804909,31.1700081452879,2022-03-25
"浦东新区","上海市浦东新区京浦路160弄",121.574694572544,31.1599125196442,2022-03-25
"浦东新区","上海市浦东新区世博家园大道站路94弄",121.545610314708,31.1654593463491,2022-03-25
"浦东新区","上海市浦东新区鹏飞路101弄",121.536884264815,31.1897022555378,2022-03-25
"浦东新区","上海市浦东新区锦绣华都",121.587877744886,31.1611995622183,2022-03-25
"浦东新区","上海市浦东新区北蔡李家宅",121.583032015474,31.1814993570376,2022-03-25
"浦东新区","上海市浦东新区上钢二村",121.499440375904,31.1836560760426,2022-03-25
"浦东新区","上海市浦东新区民义村",121.705067896971,31.1343239022766,2022-03-25
"浦东新区","上海市浦东新区丁香路901弄",121.557128298127,31.2331400008442,2022-03-25
"浦东新区","上海市浦东新区秀沿西路68弄",121.543756032475,31.1375878662796,2022-03-25
"浦东新区","上海市浦东新区海阳路1001弄",121.511333940856,31.1644801276135,2022-03-25
"浦东新区","上海市浦东新区红旗村江湖宅",121.500206271181,31.126931789483,2022-03-25
"浦东新区","上海市浦东新区沪南路2518弄",121.536884264815,31.1897022555378,2022-03-25
"浦东新区","上海市浦东新区康士路15弄",121.569516739584,31.1556683987021,2022-03-25
"浦东新区","上海市浦东新区周康二村",121.576271008883,31.1453618394895,2022-03-25
"浦东新区","上海市浦东新区周康五村",121.579749247818,31.13897698125,2022-03-25
"浦东新区","上海市浦东新区长清路807弄",121.49922298597,31.1620532804187,2022-03-25
"浦东新区","上海市浦东新区康桥路1118弄",121.584859707864,31.1200779398788,2022-03-25
"浦东新区","上海市浦东新区御青路918弄",121.581132278981,31.1587678403555,2022-03-25
"浦东新区","上海市浦东新区芳华路573弄",121.569065790218,31.2028810744024,2022-03-25
"浦东新区","上海市浦东新区人和新村",121.583195866399,31.1614276125785,2022-03-25
"浦东新区","上海市浦东新区御青路1051弄",121.584859707864,31.1200779398788,2022-03-25
"浦东新区","上海市浦东新区中林街33弄",121.506225007929,31.1425668561682,2022-03-25
"浦东新区","上海市浦东新区御青路999弄",121.579524761271,31.1602976299725,2022-03-25
"浦东新区","上海市浦东新区汇腾南苑",121.591763634861,31.0959180837554,2022-03-25
"浦东新区","上海市浦东新区上南路7992弄",121.58100651621,31.1250013643354,2022-03-25
"浦东新区","上海市浦东新区汇福家园平安里南",121.611806088416,31.105759862334,2022-03-25
"浦东新区","上海市浦东新区东建新村",121.526861421087,31.2227134169234,2022-03-25
"浦东新区","上海市浦东新区南码头路1521弄",121.525396464462,31.1828675092058,2022-03-25
"浦东新区","上海市浦东新区东方路3344弄",121.520630235087,31.1975387859662,2022-03-25
"浦东新区","上海市浦东新区莲安西路125弄",121.559745780722,31.1853271824863,2022-03-25
"浦东新区","上海市浦东新区崂山四村",121.524541996261,31.2411728108698,2022-03-25
"浦东新区","上海市浦东新区团西村",121.739632177739,30.974409907501,2022-03-25
"浦东新区","上海市浦东新区闵西队闵家宅",121.777317082019,31.1837023394542,2022-03-25
"浦东新区","上海市浦东新区北艾路1643弄",121.532060004904,31.1848338936848,2022-03-25
"浦东新区","上海市浦东新区华春路100弄",121.526840041416,31.2131798456849,2022-03-25
"浦东新区","上海市浦东新区五莲路780弄",121.5971369391,31.2743054790071,2022-03-25
"浦东新区","上海市浦东新区尚博路129弄",121.516993804552,31.1523947104013,2022-03-25
"浦东新区","上海市浦东新区秀龙村",121.569139900423,31.1326056758834,2022-03-25
"浦东新区","上海市浦东新区微山新村",121.521887593309,31.2152305232925,2022-03-25
"浦东新区","上海市浦东新区宣桥镇宣桥12组",121.706033575394,31.0230171595586,2022-03-25
"浦东新区","上海市浦东新区卫行村朱家队朱家宅",121.587201410668,31.1666652020159,2022-03-25
"浦东新区","上海市浦东新区北中路383弄",121.565356237615,31.1904763230866,2022-03-25
"浦东新区","上海市浦东新区龙阳路1880弄",121.559292495761,31.2066989150554,2022-03-25
"浦东新区","上海市浦东新区上游村卢家宅",121.70936539053,31.1152777680992,2022-03-25
"浦东新区","上海市浦东新区五星村家务队顾家宅",121.57836549801,31.1799884502015,2022-03-25
"浦东新区","上海市浦东新区黄路村",121.771168540125,31.036297341805,2022-03-25
"浦东新区","上海市浦东新区新园路251弄",121.652778790863,31.290487771739,2022-03-25
"浦东新区","上海市浦东新区永新村",121.796911999769,31.0758994124495,2022-03-25
"浦东新区","上海市浦东新区法赛路518号",121.628157763953,31.3193614678611,2022-03-25
"浦东新区","上海市浦东新区严民路40弄",121.535360828501,31.1982091563279,2022-03-25
"浦东新区","上海市浦东新区海尚东苑",121.681683207935,31.2935462627147,2022-03-25
"浦东新区","上海市浦东新区成山路2388弄",121.552373028079,31.1856598246513,2022-03-25
"浦东新区","上海市浦东新区一六村南赵家宅",121.602726734966,31.1731882956816,2022-03-25
"浦东新区","上海市浦东新区海桐路68弄",121.559350616128,31.2112291123689,2022-03-25
"浦东新区","上海市浦东新区下南路500弄",121.543720818899,31.1779675877605,2022-03-25
"浦东新区","上海市浦东新区南泉路111弄",121.529696185109,31.2072012517119,2022-03-25
"浦东新区","上海市浦东新区张杨路628弄",121.52760369093,31.2338303409147,2022-03-25
"浦东新区","上海市浦东新区成山路601弄",121.515312086807,31.180125469339,2022-03-25
"浦东新区","上海市浦东新区申波路83弄",121.568313010201,31.2015744496236,2022-03-25
"浦东新区","上海市浦东新区芳华路580弄",121.56905797496,31.2025178374774,2022-03-25
"浦东新区","上海市浦东新区芳华路630弄",121.556559041925,31.2002051033578,2022-03-25
"浦东新区","上海市浦东新区罗山路5205号",121.597406610414,31.1684047431703,2022-03-25
"浦东新区","上海市浦东新区莲溪路780弄",121.56871715785,31.1834782049839,2022-03-25
"浦东新区","上海市浦东新区蓝村路471弄",121.53360158699,31.2179022047027,2022-03-25
"浦东新区","上海市浦东新区三林镇临江村",121.485179506441,31.1293456345277,2022-03-25
"浦东新区","上海市浦东新区环林西路775弄",121.514041164171,31.1481103041267,2022-03-25
"浦东新区","上海市浦东新区三林路1300弄",121.525630203555,31.1490867577116,2022-03-25
"浦东新区","上海市浦东新区上南路4265弄",121.519804782154,31.1518099263142,2022-03-25
"浦东新区","上海市浦东新区环林东路271弄",121.533164112206,31.1552989527053,2022-03-25
"浦东新区","上海市浦东新区凌兆路726弄",121.511651941006,31.1508040644375,2022-03-25
"浦东新区","上海市浦东新区灵岩南路801弄",121.50452478509,31.1533289357887,2022-03-25
"浦东新区","上海市浦东新区上浦路201弄",121.499808681163,31.1514553764919,2022-03-25
"浦东新区","上海市浦东新区康桥路1558弄",121.587636370195,31.1554059546754,2022-03-25
"浦东新区","上海市浦东新区齐友佳苑",121.67834510466,31.2116554744135,2022-03-25
"浦东新区","上海市浦东新区新浦路252弄",121.536884264815,31.1897022555378,2022-03-25
"浦东新区","上海市浦东新区宝华路1018号",121.550454606832,31.2273482924363,2022-03-25
"浦东新区","上海市浦东新区建中路285弄",121.525530311983,31.1391594184198,2022-03-25
"浦东新区","上海市浦东新区浦电路489号工地生活区",121.541418012724,31.2285413862049,2022-03-25
"浦东新区","上海市浦东新区新场镇坦直村",121.655537846406,31.0790887807305,2022-03-25
"浦东新区","上海市浦东新区航头路1675弄",121.587220005592,31.0361201199845,2022-03-25
"浦东新区","上海市浦东新区航绣路50弄",121.60439363067,31.0765771467867,2022-03-25
"浦东新区","上海市浦东新区联勤村麦家宅",121.553913442368,31.1692634940545,2022-03-25
"浦东新区","上海市浦东新区中界村陈家队陈家宅",121.578579474383,31.194413133383,2022-03-25
"浦东新区","上海市浦东新区下南路465弄",121.536884264815,31.1897022555378,2022-03-25
"浦东新区","上海市浦东新区城南路747弄",121.6992360976,31.1946632666523,2022-03-25
"浦东新区","上海市浦东新区高宝路379弄",121.5896261169,31.2815848989426,2022-03-25
"浦东新区","上海市浦东新区御水路150弄",121.578864955874,31.1674418544666,2022-03-25
"浦东新区","上海市浦东新区北艾路862弄",121.543408388242,31.1902277232209,2022-03-25
"浦东新区","上海市浦东新区五星村三联队黄家宅",121.57836549801,31.1799884502015,2022-03-25
"浦东新区","上海市浦东新区三林路安居苑1662弄",121.517142743605,31.1475054819203,2022-03-25
"浦东新区","上海市浦东新区三林路430弄",121.50748703734,31.1447297245097,2022-03-25
"浦东新区","上海市浦东新区凌兆路373号",121.504242896821,31.1485128471501,2022-03-25
"浦东新区","上海市浦东新区上浦路410弄",121.504128901852,31.15141991371,2022-03-25
"浦东新区","上海市浦东新区御桥路2066弄",121.581739802997,31.1649484945558,2022-03-25
"浦东新区","上海市浦东新区锦绣路2466弄",121.538049995875,31.2016955299746,2022-03-25
"浦东新区","上海市浦东新区严杨路30弄",121.532512930542,31.1982761081556,2022-03-25
"浦东新区","上海市浦东新区牡丹路258弄",121.55563055335,31.2139727127711,2022-03-25
"浦东新区","上海市浦东新区严桥路141弄",121.535761203266,31.196409470181,2022-03-25
"浦东新区","上海市浦东新区康桥路1633弄",121.584859707864,31.1200779398788,2022-03-25
"浦东新区","上海市浦东新区康弘路508弄",121.606984613253,31.1269347261659,2022-03-25
"浦东新区","上海市浦东新区浦建路1578弄",121.529696185109,31.2072012517119,2022-03-25
"浦东新区","上海市浦东新区锦和路289弄",121.54364599005,31.2106408345678,2022-03-25
"浦东新区","上海市浦东新区孙桥沔北5队",121.637550266705,31.1732648435155,2022-03-25
"浦东新区","上海市浦东新区沪南路2591号",121.574053990885,31.1546608784964,2022-03-25
"浦东新区","上海市浦东新区孙桥劳动村吴家宅",121.639015941975,31.18527126574,2022-03-25
"浦东新区","上海市浦东新区川北公路2820号",121.618340093204,31.209876971291,2022-03-25
"浦东新区","上海市浦东新区张江镇中心村小桥宅",121.664786799937,31.1927150050595,2022-03-25
"浦东新区","上海市浦东新区康沈路3001弄",121.590003944198,31.0953454718071,2022-03-25
"浦东新区","上海市浦东新区繁荣路266弄",121.584859707864,31.1200779398788,2022-03-25
"浦东新区","上海市浦东新区上南路7762号",121.576535200534,31.1240782950329,2022-03-25
"浦东新区","上海市浦东新区浦三路821弄",121.526233505536,31.1880266704801,2022-03-25
"浦东新区","上海市浦东新区严中路47弄",121.53702206488,31.200757616483,2022-03-25
"浦东新区","上海市浦东新区长达佳苑",121.583043064631,31.0318882795788,2022-03-25
"浦东新区","上海市浦东新区北张家浜路58号",121.527623453651,31.2221730769557,2022-03-25
"浦东新区","上海市浦东新区古恩路118号",121.647935397044,31.0796154862161,2022-03-25
"浦东新区","上海市浦东新区鹤驰路88弄",121.600970727355,31.0863948938048,2022-03-25
"浦东新区","上海市浦东新区齐恒路95弄",121.528158933566,31.1945923737466,2022-03-25
"浦东新区","上海市浦东新区金杨路220弄",121.581187165448,31.2530563837015,2022-03-25
"浦东新区","上海市浦东新区济阳一村",121.489118845594,31.1719852274211,2022-03-25
"浦东新区","上海市浦东新区上南十二村",121.511151045854,31.1751991425087,2022-03-25
"浦东新区","上海市浦东新区浦东大道140弄",121.521669035579,31.2440488314387,2022-03-25
"浦东新区","上海市浦东新区长岛路1280弄",121.599642313167,31.266883120972,2022-03-25
"浦东新区","上海市浦东新区高桥镇龚家宅",121.586619578189,31.3450339838982,2022-03-25
"浦东新区","上海市浦东新区御衡路68弄",121.588337407815,31.159592610344,2022-03-25
"浦东新区","上海市浦东新区苗圃路463弄",121.556692440293,31.242846750349,2022-03-25
"浦东新区","上海市浦东新区康桥路1603号",121.588606180824,31.1569939731819,2022-03-25
"浦东新区","上海市浦东新区御水路199弄",121.580638210951,31.1665548139514,2022-03-25
"浦东新区","上海市浦东新区博华路108号",121.553715994816,31.1901690291521,2022-03-25
"浦东新区","上海市浦东新区博山路78弄",121.562071314026,31.2514665972376,2022-03-25
"浦东新区","上海市浦东新区沔北路唐家宅",121.633629432645,31.1678540477443,2022-03-25
"浦东新区","上海市浦东新区古桐路63弄",121.602138614349,31.2442502059109,2022-03-25
"浦东新区","上海市浦东新区康桥东路1159弄",121.637681419309,31.1653028388973,2022-03-25
"浦东新区","上海市浦东新区卫行村顾家宅",121.587201410668,31.1666652020159,2022-03-25
"浦东新区","上海市浦东新区龙东大道大众村",121.648532770209,31.2219167637214,2022-03-25
"浦东新区","上海市浦东新区浦建路725弄",121.537772958456,31.215407793615,2022-03-25
"浦东新区","上海市浦东新区浦东南路1700弄",121.525060767693,31.2237849777418,2022-03-25
"浦东新区","上海市浦东新区巨野路大陆家宅",121.553185994566,31.2448978584695,2022-03-25
"浦东新区","上海市浦东新区梓康路51弄",121.579353544241,31.1287212942564,2022-03-25
"浦东新区","上海市浦东新区鹤洁路138弄",121.6042452306,31.0753084303108,2022-03-25
"浦东新区","上海市浦东新区秀沿西路218弄",121.540521863147,31.1357646072078,2022-03-25
"浦东新区","上海市浦东新区新龙路69弄",121.634390027921,31.3235124885829,2022-03-25
"浦东新区","上海市浦东新区浦东南路1860号",121.52450597421,31.222225883571,2022-03-25
"浦东新区","上海市浦东新区周埠村洪波村",121.768830520374,31.007471173056,2022-03-25
"浦东新区","上海市浦东新区东海3村",121.910942991036,30.9588588596788,2022-03-25
"浦东新区","上海市浦东新区书礼路813号",121.879902942444,30.9812557067702,2022-03-25
"浦东新区","上海市浦东新区成日村",121.831647497568,31.0687631497811,2022-03-25
"浦东新区","上海市浦东新区南祝路108弄",121.766842749942,31.1140887975279,2022-03-25
"浦东新区","上海市浦东新区齐河路1066号",121.524963032053,31.1895128887428,2022-03-25
"浦东新区","上海市浦东新区上浦路36弄",121.496318404934,31.15038414733,2022-03-25
"浦东新区","上海市浦东新区孙桥劳动9队",121.637498614138,31.1922046106646,2022-03-25
"浦东新区","上海市浦东新区民乐苑",121.575302276221,31.1614794491515,2022-03-25
"浦东新区","上海市浦东新区秀沿路1028弄",121.585149770713,31.1382153930316,2022-03-25
"浦东新区","上海市浦东新区京浦路82弄",121.573340197326,31.1596915729849,2022-03-25
"浦东新区","上海市浦东新区南码头路119弄",121.514617516986,31.205713100386,2022-03-25
"浦东新区","上海市浦东新区临沂路8弄",121.550454606832,31.2273482924363,2022-03-25
"浦东新区","上海市浦东新区云雅路395弄",121.684257751526,31.2495794094373,2022-03-25
"浦东新区","上海市浦东新区上南路3300号",121.505045802286,31.1643609304413,2022-03-25
"浦东新区","上海市浦东新区潍坊路375弄",121.541472090715,31.2347481618797,2022-03-25
"浦东新区","上海市浦东新区张杨路370弄",121.521538421957,31.2321643454895,2022-03-25
"浦东新区","上海市浦东新区御青路56弄",121.578469072636,31.1650319243446,2022-03-25
"浦东新区","上海市浦东新区卫行村联浜队",121.587201410668,31.1666652020159,2022-03-25
"浦东新区","上海市浦东新区新陈路150弄",121.536884264815,31.1897022555378,2022-03-25
"浦东新区","上海市浦东新区周康四村",121.578788959228,31.1461518806473,2022-03-25
"浦东新区","上海市浦东新区祝桥镇陈胡村毛家宅",121.775553708303,31.200086337707,2022-03-25
"浦东新区","上海市浦东新区懿行路971弄",121.51939497518,31.1311335477655,2022-03-25
"浦东新区","上海市浦东新区葡萄园新村",121.582714913628,31.1169717334092,2022-03-25
"浦东新区","上海市浦东新区秀沿路505弄",121.568278874591,31.1419436855484,2022-03-25
"浦东新区","上海市浦东新区高桥镇潼港后六村",121.576911949865,31.3513002467192,2022-03-25
"浦东新区","上海市浦东新区秀康路958弄",121.584859707864,31.1200779398788,2022-03-25
"浦东新区","上海市浦东新区花木路1983弄",121.575380069478,31.2211887376643,2022-03-25
"浦东新区","上海市浦东新区康达路508弄",121.584859707864,31.1200779398788,2022-03-25
"浦东新区","上海市浦东新区绿林路395号",121.555601717743,31.1753628168843,2022-03-25
"浦东新区","上海市浦东新区仁怡苑",121.629478722206,31.1472787112204,2022-03-25
"浦东新区","上海市浦东新区秀浦路168号",121.558541781847,31.1300174969944,2022-03-25
"浦东新区","上海市浦东新区海阳路1125弄",121.515260254579,31.1655971592099,2022-03-25
"浦东新区","上海市浦东新区沪南路2038号",121.568878673181,31.1699807230703,2022-03-25
"浦东新区","上海市浦东新区新场镇王桥村",121.669132083349,31.0246782033191,2022-03-25
"浦东新区","上海市浦东新区南阜村高树队油车头",121.526881543131,31.1363513458081,2022-03-25
"浦东新区","上海市浦东新区商城路991弄",121.530389965131,31.2397038535453,2022-03-25
"浦东新区","上海市浦东新区莲园路560弄",121.536884264815,31.1897022555378,2022-03-25
"浦东新区","上海市浦东新区杨思路502弄",121.501390507335,31.1651814797804,2022-03-25
"浦东新区","上海市浦东新区港辉路66弄",121.865034862328,30.8714386576673,2022-03-25
"浦东新区","上海市浦东新区六团镇储店村张家宅",121.641939387426,31.3298699592958,2022-03-25
"浦东新区","上海市浦东新区莲安东路80弄",121.563606877465,31.186256677659,2022-03-25
"浦东新区","上海市浦东新区瓦南村",121.659544468641,31.1047808712322,2022-03-25
"浦东新区","上海市浦东新区航瑞路175弄",121.598873812803,31.0769578821106,2022-03-25
"浦东新区","上海市浦东新区金家村周家宅",121.690966027583,31.165152356659,2022-03-25
"浦东新区","上海市浦东新区凌兆路396弄",121.525530311983,31.1391594184198,2022-03-25
"浦东新区","上海市浦东新区银山路343号",121.589648484707,31.2516969747849,2022-03-25
"浦东新区","上海市浦东新区居家桥路1030弄",121.577173536429,31.2510949820075,2022-03-25
"浦东新区","上海市浦东新区大团镇赵桥村柴场",121.74431127148,30.9919821400798,2022-03-25
"浦东新区","上海市浦东新区高科西路1655弄",121.536884264815,31.1897022555378,2022-03-25
"浦东新区","上海市浦东新区源深路600弄2支弄",121.541346866927,31.2360064651209,2022-03-25
"浦东新区","上海市浦东新区杨思路1121弄",121.512446312569,31.1707936532361,2022-03-25
"浦东新区","上海市浦东新区成山路24弄",121.492308997952,31.1741468770644,2022-03-25
"浦东新区","上海市浦东新区崂山五村",121.52356526868,31.2427278844216,2022-03-25
"浦东新区","上海市浦东新区德州四村",121.49235274543,31.1754997655407,2022-03-25
"浦东新区","上海市浦东新区前哨村马家宅",121.744203834141,31.2472226093968,2022-03-25
"浦东新区","上海市浦东新区金群苑",121.676014540845,31.2935403226462,2022-03-25
"浦东新区","上海市浦东新区陈行村",121.71962493776,31.1720064695306,2022-03-25
"浦东新区","上海市浦东新区新川路东门街55弄",121.701702395377,31.1985213661147,2022-03-25
"浦东新区","上海市浦东新区长桥村",121.742139617909,31.1531045742054,2022-03-25
"浦东新区","上海市浦东新区施宏路459号",121.766425666694,31.1579524883008,2022-03-25
"浦东新区","上海市浦东新区晚霞路715弄",121.760628991068,31.184636677841,2022-03-25
"浦东新区","上海市浦东新区羽山路383弄",121.550383281374,31.2391094252368,2022-03-25
"浦东新区","上海市浦东新区浙桥路99号",121.605306039577,31.2573089045202,2022-03-25
"浦东新区","上海市浦东新区孙桥路238弄",121.636439152619,31.187480878632,2022-03-25
"浦东新区","上海市浦东新区康桥汤巷中心村",121.843536301501,30.8887389208988,2022-03-25
"浦东新区","上海市浦东新区钱堂村立达宅",121.599518706329,31.1638817454656,2022-03-25
"浦东新区","上海市浦东新区御山路347弄",121.575428038993,31.1637197505716,2022-03-25
"浦东新区","上海市浦东新区莲振路298号",121.574994965906,31.1733958475341,2022-03-25
"浦东新区","上海市浦东新区北蔡朱家队朱家宅",121.604258525522,31.2311445242736,2022-03-25
"浦东新区","上海市浦东新区盛苑路777弄",121.535357774262,31.1641282521807,2022-03-25
"浦东新区","上海市浦东新区宣桥镇光明村",121.728425816502,31.0770068270558,2022-03-25
"浦东新区","上海市浦东新区昌里东路190弄",121.514451330467,31.1818762689649,2022-03-25
"浦东新区","上海市浦东新区川新小区",121.515744171757,31.1761875954456,2022-03-25
"浦东新区","上海市浦东新区东书房路412号",121.542001731644,31.1702395730354,2022-03-25
"浦东新区","上海市浦东新区上南路1251弄",121.502606274012,31.1785212361064,2022-03-25
"浦东新区","上海市浦东新区严民路251弄",121.537399982008,31.1948828953138,2022-03-25
"浦东新区","上海市浦东新区德州二村",121.499179867306,31.1737772721077,2022-03-25
"浦东新区","上海市浦东新区腰路村",121.700608977911,31.0807714134949,2022-03-25
"浦东新区","上海市浦东新区民乐村",121.740500569676,31.0701923323851,2022-03-25
"浦东新区","上海市浦东新区宣夏路666弄",121.766842749942,31.1140887975279,2022-03-25
"浦东新区","上海市浦东新区宣桥镇五星村",121.700988332328,31.0419601423164,2022-03-25
"浦东新区","上海市浦东新区宣桥镇光辉1组",121.718709384784,31.0698578892064,2022-03-25
"浦东新区","上海市浦东新区瑞浦路287弄",121.590850597141,31.1004468290055,2022-03-25
"浦东新区","上海市浦东新区莲溪路1099弄",121.569863395681,31.1817477483468,2022-03-25
"浦东新区","上海市浦东新区莲安西路123弄",121.559968201166,31.1847215961689,2022-03-25
"浦东新区","上海市浦东新区莱阳路451弄",121.58929185742,31.2821589973274,2022-03-25
"浦东新区","上海市浦东新区东陆新村",121.599350004554,31.2840648922429,2022-03-25
"浦东新区","上海市浦东新区长岛路588弄",121.588731943595,31.266885513111,2022-03-25
"浦东新区","上海市浦东新区南码头路1181弄",121.521322514228,31.1901423658145,2022-03-25
"浦东新区","上海市浦东新区新吉村",121.725028425063,31.1167471303745,2022-03-25
"浦东新区","上海市浦东新区姚桥村",121.604918420749,31.1203519983522,2022-03-25
"浦东新区","上海市浦东新区关岳路338弄",121.597951163214,31.1250430197105,2022-03-25
"浦东新区","上海市浦东新区苗圃路438号",121.602138614349,31.2442502059109,2022-03-25
"浦东新区","上海市浦东新区潍坊路140弄",121.531550935172,31.2311124110338,2022-03-25
"浦东新区","上海市浦东新区海防新村",121.559707692568,31.2555646087411,2022-03-25
"浦东新区","上海市浦东新区博山路11弄",121.564218982839,31.2518921585341,2022-03-25
"浦东新区","上海市浦东新区五星路348号",121.571931923778,31.1809823364493,2022-03-25
"浦东新区","上海市浦东新区孙桥诸家宅",121.667825138663,31.1988389031734,2022-03-25
"浦东新区","上海市浦东新区双秀北苑",121.571133599672,31.1294413833371,2022-03-25
"浦东新区","上海市浦东新区唐镇路127弄",121.656604943521,31.2133554984813,2022-03-25
"浦东新区","上海市浦东新区南市街45弄",121.711540098339,31.2000615497986,2022-03-25
"浦东新区","上海市浦东新区潍坊四村",121.530768690734,31.2240963302527,2022-03-25
"浦东新区","上海市浦东新区浦东罗山路108弄",121.558879454888,31.2546415897529,2022-03-25
"浦东新区","上海市浦东新区牌楼东路528弄",121.663264351758,31.0291296873005,2022-03-25
"浦东新区","上海市浦东新区崂山路571弄",121.529543491848,31.2323093937171,2022-03-25
"浦东新区","上海市浦东新区浦电路331弄",121.535182335196,31.225922581402,2022-03-25
"浦东新区","上海市浦东新区中界村苏家队周家宅",121.577029627886,31.1916104985113,2022-03-25
"浦东新区","上海市浦东新区浦东南路575弄",121.518573025638,31.2425843960653,2022-03-25
"浦东新区","上海市浦东新区浦明路258弄",121.515061908722,31.2323783282138,2022-03-25
"浦东新区","上海市浦东新区商城路108弄",121.515923024384,31.2338968041146,2022-03-25
"浦东新区","上海市浦东新区乳山路114弄",121.527850994437,31.240750133905,2022-03-25
"浦东新区","上海市浦东新区张杨路1133弄",121.535679816787,31.2376776410372,2022-03-25
"浦东新区","上海市浦东新区栖霞路190弄",121.526081152921,31.2441861427874,2022-03-25
"浦东新区","上海市浦东新区孙建路665弄",121.64188773486,31.1889728978036,2022-03-25
"浦东新区","上海市浦东新区孙桥路235弄",121.638110000868,31.1878068712869,2022-03-25
"浦东新区","上海市浦东新区思学路165弄",121.5896261169,31.2815848989426,2022-03-25
"浦东新区","上海市浦东新区申城佳苑",121.643006754033,31.1886044325208,2022-03-25
"浦东新区","上海市浦东新区川周公路8682号",121.716118941185,31.1904397938529,2022-03-25
"浦东新区","上海市浦东新区华夏二路200弄",121.690606435888,31.2000575343113,2022-03-25
"浦东新区","上海市浦东新区创新中路399弄",121.673244705635,31.2153254895784,2022-03-25
"浦东新区","上海市浦东新区川北路2999号",121.618542032283,31.2110578566585,2022-03-25
"浦东新区","上海市浦东新区一六村油车队",121.596814896574,31.1680199751116,2022-03-25
"浦东新区","上海市浦东新区莲园路18弄",121.550383281374,31.1909158312077,2022-03-25
"浦东新区","上海市浦东新区永泰路663号",121.5243674555,31.1460175934359,2022-03-25
"浦东新区","上海市浦东新区严杨路45弄",121.533665815834,31.2001061834731,2022-03-25
"浦东新区","上海市浦东新区成山路608弄80支弄",121.515115986714,31.1776118237191,2022-03-25
"浦东新区","上海市浦东新区康沈路250弄",121.584859707864,31.1200779398788,2022-03-25
"浦东新区","上海市浦东新区金葵路1115弄",121.602138614349,31.2442502059109,2022-03-25
"浦东新区","上海市浦东新区红枫路358弄",121.598915134857,31.2475108837459,2022-03-25
"浦东新区","上海市浦东新区卫东村",121.762228334198,31.1823433904965,2022-03-25
"浦东新区","上海市浦东新区浦东大道290弄",121.523437799128,31.2448877473747,2022-03-25
"浦东新区","上海市浦东新区康花路2518弄",121.525530311983,31.1391594184198,2022-03-25
"浦东新区","上海市浦东新区蓝村路470弄",121.531604025027,31.2174828969005,2022-03-25
"浦东新区","上海市浦东新区银冬路568号",121.643025528618,31.2116879803861,2022-03-25
"浦东新区","上海市浦东新区北蔡陆家宅",121.558898319304,31.2021265685761,2022-03-25
"浦东新区","上海市浦东新区妙虹新苑",121.723257146259,31.1866087017583,2022-03-25
"浦东新区","上海市浦东新区航头镇果园村",121.642441899529,31.025361102765,2022-03-25
"浦东新区","上海市浦东新区西市路4弄",121.550454606832,31.2273482924363,2022-03-25
"浦东新区","上海市浦东新区航东村",121.607737213609,31.03214843823,2022-03-25
"浦东新区","上海市浦东新区峨山路420弄",121.531848274295,31.2193565265635,2022-03-25
"浦东新区","上海市浦东新区峨山路180弄",121.534409702627,31.2202734086393,2022-03-25
"浦东新区","上海市浦东新区浦东南路1969号",121.525556632334,31.2169189786035,2022-03-25
"浦东新区","上海市浦东新区永安新村",121.557080148951,31.2549395653573,2022-03-25
"浦东新区","上海市浦东新区蓝村路2号",121.539474977906,31.2176228722604,2022-03-25
"浦东新区","上海市浦东新区东书房路390弄",121.541617795869,31.1696664870587,2022-03-25
"浦东新区","上海市浦东新区广益路9弄",121.550454606832,31.2273482924363,2022-03-25
"浦东新区","上海市浦东新区南泉路1211弄",121.529722254645,31.2192635716987,2022-03-25
"浦东新区","上海市浦东新区惠东路298号",121.777014712384,31.0498950867477,2022-03-25
"浦东新区","上海市浦东新区南新村东钟家宅",121.548654941573,31.1732516349633,2022-03-25
"浦东新区","上海市浦东新区环林西路848弄",121.533353025855,31.1454492272542,2022-03-25
"浦东新区","上海市浦东新区海阳西路268弄",121.482648800158,31.1565043981697,2022-03-25
"浦东新区","上海市浦东新区灵岩南路1065号",121.506511836878,31.1484926041448,2022-03-25
"浦东新区","上海市浦东新区凌兆路379弄",121.525530311983,31.1391594184198,2022-03-25
"浦东新区","上海市浦东新区杨新路197弄",121.498520151739,31.1688455907204,2022-03-25
"浦东新区","上海市浦东新区思浦路13弄",121.500159469464,31.1649102558777,2022-03-25
"浦东新区","上海市浦东新区潍坊路208弄",121.53681994614,31.2319107614326,2022-03-25
"浦东新区","上海市浦东新区沪南公路9847号",121.743927964518,31.046494886918,2022-03-25
"浦东新区","上海市浦东新区沪南公路2688弄",121.571058052178,31.1374660849587,2022-03-25
"浦东新区","上海市浦东新区康士路1弄",121.550454606832,31.2273482924363,2022-03-25
"浦东新区","上海市浦东新区陈春东路99弄",121.565897017532,31.1818564965736,2022-03-25
"浦东新区","上海市浦东新区五星村姚家宅",121.57836549801,31.1799884502015,2022-03-25
"浦东新区","上海市浦东新区鹏岳路152弄",121.560933340606,31.1772149667974,2022-03-25
"浦东新区","上海市浦东新区御桥路1978弄",121.536884264815,31.1897022555378,2022-03-25
"浦东新区","上海市浦东新区康杉路151号",121.567505523378,31.1572062734979,2022-03-25
"浦东新区","上海市浦东新区康桥路787号",121.555495358371,31.1523789493243,2022-03-25
"浦东新区","上海市浦东新区川周公路4011弄",121.593959991833,31.1314798283761,2022-03-25
"浦东新区","上海市浦东新区下南路971弄",121.543223247477,31.1887076122136,2022-03-25
"浦东新区","上海市浦东新区华夏三路299弄",121.685539902981,31.1987135719192,2022-03-25
"浦东新区","上海市浦东新区北中路480弄",121.569617529462,31.1905177177191,2022-03-25
"浦东新区","上海市浦东新区高青路4567弄",121.536884264815,31.1897022555378,2022-03-25
"浦东新区","上海市浦东新区西行路433弄",121.550454606832,31.2273482924363,2022-03-25
"浦东新区","上海市浦东新区阳光二村",121.557040084526,31.2526465719219,2022-03-25
"浦东新区","上海市浦东新区卫民村",121.747808195169,31.1040113531087,2022-03-25
"浦东新区","上海市浦东新区中界村黄家队黄家宅",121.736194182891,31.2607886781219,2022-03-25
"浦东新区","上海市浦东新区三灶村",121.712526347959,31.0750539581203,2022-03-25
"浦东新区","上海市浦东新区新浦路673弄",121.536884264815,31.1897022555378,2022-03-25
"浦东新区","上海市浦东新区沈家弄路810弄",121.550324981347,31.243971878335,2022-03-25
"浦东新区","上海市浦东新区乳山三村",121.526396817478,31.2389325085635,2022-03-25
"浦东新区","上海市浦东新区浦东大道727弄",121.531940620102,31.2468731286193,2022-03-25
"浦东新区","上海市浦东新区浦东大道501弄",121.525107120257,31.2485129292745,2022-03-25
"浦东新区","上海市浦东新区浦东大道604弄",121.528653810071,31.2451947073744,2022-03-25
"浦东新区","上海市浦东新区福山路49弄",121.532470979675,31.2442258928029,2022-03-25
"浦东新区","上海市浦东新区灵山路1415弄",121.570780206284,31.2449987378052,2022-03-25
"浦东新区","上海市浦东新区佳林路898弄",121.617268145239,31.2705743499803,2022-03-25
"浦东新区","上海市浦东新区宏雅路555弄",121.681158597517,31.2487343611326,2022-03-25
"浦东新区","上海市浦东新区仁义村",121.647293378096,31.0643146974948,2022-03-25
"浦东新区","上海市浦东新区佳林路919弄",121.61825789825,31.270835776925,2022-03-25
"浦东新区","上海市浦东新区罗山路1700弄",121.575072579502,31.2314363219569,2022-03-25
"浦东新区","上海市浦东新区北蔡镇唐家宅",121.604147225469,31.1826033648645,2022-03-25
"浦东新区","上海市浦东新区海阳路1080弄",121.513439479141,31.1641353592278,2022-03-25
"浦东新区","上海市浦东新区芳华路478弄",121.536884264815,31.1897022555378,2022-03-25
"浦东新区","上海市浦东新区永泰路595弄",121.521072740381,31.1462686284638,2022-03-25
"浦东新区","上海市浦东新区三林路519弄",121.508639832801,31.1463737863662,2022-03-25
"浦东新区","上海市浦东新区南阜村西潘家宅",121.587265909003,31.2093716120442,2022-03-25
"浦东新区","上海市浦东新区樱花路802弄",121.567473903024,31.2138070211684,2022-03-25
"浦东新区","上海市浦东新区牡丹路145弄",121.551781493901,31.2135657409336,2022-03-25
"浦东新区","上海市浦东新区鹤韵路549弄",121.603665015071,31.0807518517668,2022-03-25
"浦东新区","上海市浦东新区上浦路606弄",121.508512183588,31.152423451182,2022-03-25
"浦东新区","上海市浦东新区鹏岳路233弄",121.536884264815,31.1897022555378,2022-03-25
"浦东新区","上海市浦东新区锦绣路3841弄",121.553378142114,31.1742762577656,2022-03-25
"浦东新区","上海市浦东新区绿林路50弄",121.554947032687,31.1785308909384,2022-03-25
"浦东新区","上海市浦东新区北蔡镇丁家队丁家宅",121.569857916017,31.1921842226328,2022-03-25
"浦东新区","上海市浦东新区博华路380弄",121.554524649437,31.1871169641464,2022-03-25
"浦东新区","上海市浦东新区杨莲路310弄",121.536884264815,31.1897022555378,2022-03-25
"浦东新区","上海市浦东新区莲园路488弄",121.536884264815,31.1897022555378,2022-03-25
"浦东新区","上海市浦东新区兰城路108弄",121.586831308797,31.2715814724312,2022-03-25
"浦东新区","上海市浦东新区华佗路678号",121.600256933797,31.196328307807,2022-03-25
"浦东新区","上海市浦东新区北张家浜路188弄",121.531700772531,31.2222772233074,2022-03-25
"浦东新区","上海市浦东新区南泉路1250弄",121.527931123289,31.2177477149724,2022-03-25
"浦东新区","上海市浦东新区宁阳路11弄",121.524426384341,31.2181189222506,2022-03-25
"浦东新区","上海市浦东新区塘桥2村",121.526985566909,31.2172975238045,2022-03-25
"浦东新区","上海市浦东新区南村西钟家宅",121.548654941573,31.1732516349633,2022-03-25
"浦东新区","上海市浦东新区杨桥村西计队西计家宅",121.72155521664,31.1013705942103,2022-03-25
"浦东新区","上海市浦东新区联勤村冯家宅",121.557447915227,31.1712123975815,2022-03-25
"浦东新区","上海市浦东新区绿林路东钟家宅",121.548654941573,31.1732516349633,2022-03-25
"浦东新区","上海市浦东新区张东路2281弄",121.643330323678,31.2079843888241,2022-03-25
"浦东新区","上海市浦东新区南新村徐家宅",121.526625615891,31.3601914545598,2022-03-25
"浦东新区","上海市浦东新区康杉路608弄",121.536884264815,31.1897022555378,2022-03-25
"浦东新区","上海市浦东新区横桥路136弄11支弄",121.584859707864,31.1200779398788,2022-03-25
"浦东新区","上海市浦东新区三舒路288弄",121.525530311983,31.1391594184198,2022-03-25
"浦东新区","上海市浦东新区南新村",121.526625615891,31.3601914545598,2022-03-25
"浦东新区","上海市浦东新区跃进新村",121.709297568464,31.2141929138321,2022-03-25
"浦东新区","上海市浦东新区临沂路381弄",121.517873964291,31.1966848502715,2022-03-25
"浦东新区","上海市浦东新区华丰路50弄",121.514504959306,31.1974954638598,2022-03-25
"浦东新区","上海市浦东新区华丰路51弄",121.515210847776,31.1993223111234,2022-03-25
"浦东新区","上海市浦东新区香楠路399弄",121.620937184264,31.2197982153198,2022-03-25
"浦东新区","上海市浦东新区林家湾",121.578108313143,31.1891574002064,2022-03-25
"浦东新区","上海市浦东新区东方路1881弄",121.532356805045,31.2009488138369,2022-03-25
"浦东新区","上海市浦东新区东三里桥路245弄",121.520676318159,31.2052174479688,2022-03-25
"浦东新区","上海市浦东新区东三街102弄",121.517106182571,31.207639780426,2022-03-25
"浦东新区","上海市浦东新区浦三路2775弄",121.536884264815,31.1897022555378,2022-03-25
"浦东新区","上海市浦东新区浦三路637弄",121.52647389209,31.1943613150149,2022-03-25
"浦东新区","上海市浦东新区兰陵路24弄",121.522661573337,31.2007156086114,2022-03-25
"浦东新区","上海市浦东新区东三里桥路190弄",121.518021016903,31.2062437289496,2022-03-25
"浦东新区","上海市浦东新区浦三路858弄",121.525334122059,31.1878640994469,2022-03-25
"浦东新区","上海市浦东新区下南路161弄",121.549904215046,31.1727314791562,2022-03-25
"浦东新区","上海市浦东新区鹏飞路333弄",121.536884264815,31.1897022555378,2022-03-25
"浦东新区","上海市浦东新区京浦路298弄",121.576664376866,31.1602387626586,2022-03-25
"浦东新区","上海市浦东新区环桥路1137弄",121.584859707864,31.1200779398788,2022-03-25
"浦东新区","上海市浦东新区锦绣路2866弄",121.545942508086,31.1923555900799,2022-03-25
"浦东新区","上海市浦东新区康沈路1199弄",121.584859707864,31.1200779398788,2022-03-25
"浦东新区","上海市浦东新区下南路309弄",121.529696185109,31.2072012517119,2022-03-25
"浦东新区","上海市浦东新区卫行村顾家队张家宅",121.584959240115,31.1722250698694,2022-03-25
"浦东新区","上海市浦东新区卫行村张浜队王家宅",121.59502735844,31.1638725526298,2022-03-25
"浦东新区","上海市浦东新区御桥村李家宅",121.564117833639,31.1623293022053,2022-03-25
"浦东新区","上海市浦东新区中界村沈家队姚家宅",121.574173735009,31.1954461740634,2022-03-25
"浦东新区","上海市浦东新区北蔡大街31弄",121.560543565845,31.1936780975778,2022-03-25
"浦东新区","上海市浦东新区卫行村张家队张家宅",121.584959240115,31.1722250698694,2022-03-25
"浦东新区","上海市浦东新区南阜村高树队王家宅",121.526881543131,31.1363513458081,2022-03-25
"浦东新区","上海市浦东新区德州五村",121.502009529662,31.1727218237271,2022-03-25
"浦东新区","上海市浦东新区上南路1500弄",121.502331302696,31.1749569131774,2022-03-25
"浦东新区","上海市浦东新区灵岩路56弄",121.500072962644,31.1725382931417,2022-03-25
"浦东新区","上海市浦东新区板泉路1201弄",121.511623824044,31.1693772777636,2022-03-25
"浦东新区","上海市浦东新区听谐路86弄",121.757289001352,31.0625718367426,2022-03-25
"浦东新区","上海市浦东新区银峰路549弄",121.695687880666,31.2724371167393,2022-03-25
"浦东新区","上海市浦东新区凌河路420弄",121.605932248348,31.2799170540613,2022-03-25
"浦东新区","上海市浦东新区林展路358号",121.51488871542,31.1304516471115,2022-03-25
"浦东新区","上海市浦东新区永泰路2080弄",121.551161483438,31.1517002161179,2022-03-25
"浦东新区","上海市浦东新区光明村",121.664900525414,31.296640292705,2022-03-25
"浦东新区","上海市浦东新区先进村",121.81000857546,31.1038277654838,2022-03-25
"浦东新区","上海市浦东新区新东村",121.821263624856,31.0945417064523,2022-03-25
"浦东新区","上海市浦东新区车站村",121.765886683388,30.9779011003031,2022-03-25
"浦东新区","上海市浦东新区锦绣东路418弄",121.582601188151,31.234673825664,2022-03-25
"浦东新区","上海市浦东新区华夏二路1278弄",121.696026452013,31.1815117148297,2022-03-25
"浦东新区","上海市浦东新区浦电路155号",121.528051406396,31.2244299927658,2022-03-25
"浦东新区","上海市浦东新区博山路50弄",121.562882933054,31.2522236381075,2022-03-25
"浦东新区","上海市浦东新区金台路200弄",121.594221578397,31.2570844831908,2022-03-25
"浦东新区","上海市浦东新区浙桥路200号",121.606362536687,31.2570021386408,2022-03-25
"浦东新区","上海市浦东新区新金桥路230号",121.606037799245,31.2552516631071,2022-03-25
"浦东新区","上海市浦东新区杨思北街",121.499143935085,31.1698540400458,2022-03-25
"浦东新区","上海市浦东新区下南路320弄",121.547891741212,31.1755488136572,2022-03-25
"浦东新区","上海市浦东新区五莲路201弄",121.587086158071,31.2826666637015,2022-03-25
"浦东新区","上海市浦东新区永泰路630弄",121.52411305538,31.1453658573196,2022-03-25
"浦东新区","上海市浦东新区杨南路689弄",121.507104628684,31.1569177210953,2022-03-25
"浦东新区","上海市浦东新区芳华路933弄",121.536884264815,31.1897022555378,2022-03-25
"浦东新区","上海市浦东新区临沂路81弄",121.525886040965,31.2013416320549,2022-03-25
"浦东新区","上海市浦东新区龙阳路1629号",121.554470751106,31.2069345762719,2022-03-25
"浦东新区","上海市浦东新区妙镜路600弄",121.694934467343,31.2052489204695,2022-03-25
"浦东新区","上海市浦东新区周秀路118弄",121.611806088416,31.105759862334,2022-03-25
"浦东新区","上海市浦东新区成山路1658号",121.535283394566,31.1825049670453,2022-03-25
"浦东新区","上海市浦东新区晚霞路550弄",121.757391587841,31.1827554410396,2022-03-25
"浦东新区","上海市浦东新区张杨路1673弄",121.549771894644,31.2433326325524,2022-03-25
"浦东新区","上海市浦东新区芳华路673弄",121.569504971782,31.2036790478537,2022-03-25
"浦东新区","上海市浦东新区南团公路858弄",121.768831328849,31.0299764821392,2022-03-25
"浦东新区","上海市浦东新区安盛街256号",121.533251517333,31.1503068082062,2022-03-25
"浦东新区","上海市浦东新区杨新路80弄",121.500333510246,31.1696131563215,2022-03-25
"浦东新区","上海市浦东新区成山路608弄100支弄",121.51633813136,31.1748381155279,2022-03-25
"浦东新区","上海市浦东新区上南路3651弄",121.513459421523,31.1605853221933,2022-03-25
"浦东新区","上海市浦东新区上南路3520弄",121.506977518455,31.1596914184766,2022-03-25
"浦东新区","上海市浦东新区下南路386号",121.547114976438,31.1768954254667,2022-03-25
"浦东新区","上海市浦东新区康弘路428弄",121.584859707864,31.1200779398788,2022-03-25
"浦东新区","上海市浦东新区永宁路122弄",121.617772184461,31.2726112693734,2022-03-25
"浦东新区","上海市浦东新区康士路11号",121.570606114676,31.1555875100856,2022-03-25
"浦东新区","上海市浦东新区周康一村",121.574940259101,31.142202381058,2022-03-25
"浦东新区","上海市浦东新区康弘路515弄",121.606533484226,31.127466032407,2022-03-25
"浦东新区","上海市浦东新区川周公路4318弄",121.587429400606,31.1268947718151,2022-03-25
"浦东新区","上海市浦东新区苗桥路935弄",121.602516621307,31.104273708865,2022-03-25
"浦东新区","上海市浦东新区杨高南路2828号",121.525531210288,31.1821803461919,2022-03-25
"浦东新区","上海市浦东新区杨高南路2030弄",121.52893228478,31.1967108746521,2022-03-25
"浦东新区","上海市浦东新区菏泽路287弄",121.599580958901,31.2747959044069,2022-03-25
"浦东新区","上海市浦东新区凌河路618弄",121.608152859568,31.276965751274,2022-03-25
"浦东新区","上海市浦东新区浦东大道1851弄",121.552497443392,31.2531016867014,2022-03-25
"浦东新区","上海市浦东新区博山东路41弄",121.56481087634,31.2537794540025,2022-03-25
"浦东新区","上海市浦东新区洋泾镇路117号",121.557453035569,31.2483270002024,2022-03-25
"浦东新区","上海市浦东新区浦东大道1623弄",121.549043907859,31.2517675929144,2022-03-25
"浦东新区","上海市浦东新区光泽路120弄",121.623076229345,31.3364001046861,2022-03-25
"浦东新区","上海市浦东新区杨思路855弄",121.506597265732,31.1689656319057,2022-03-25
"浦东新区","上海市浦东新区齐恒路159号",121.527576023121,31.1927709945916,2022-03-25
"浦东新区","上海市浦东新区窑墩村",121.65713790818,31.1175088926537,2022-03-25
"浦东新区","上海市浦东新区周祝公路35号",121.592406013131,31.1057941828793,2022-03-25
"浦东新区","上海市浦东新区已对相关居住地落实终末消毒措施",121.550454606832,31.2273482924363,2022-03-25
"黄浦区","上海市黄浦区永年路149弄",121.485099287759,31.2170759403217,2022-03-25
"黄浦区","上海市黄浦区顺昌路560号",121.48608095602,31.217586430819,2022-03-25
"黄浦区","上海市黄浦区丽园路873号",121.482543249261,31.2127752639244,2022-03-25
"黄浦区","上海市黄浦区丽园路857号",121.483589865011,31.2128633609796,2022-03-25
"黄浦区","上海市黄浦区徐家汇路388号",121.480628151744,31.2153695755207,2022-03-25
"黄浦区","上海市黄浦区瞿溪路1200弄34号",121.478051272558,31.202479691341,2022-03-25
"黄浦区","上海市黄浦区滇池路119号",121.49418367172,31.2450750725937,2022-03-25
"黄浦区","上海市黄浦区制造局路567弄",121.491828673995,31.2093086060248,2022-03-25
"黄浦区","上海市黄浦区丽园路871号",121.48247138482,31.2126784419996,2022-03-25
"黄浦区","上海市黄浦区黄陂南路783号",121.484188226311,31.2182709407797,2022-03-25
"黄浦区","上海市黄浦区顺昌路612弄40号",121.485565328658,31.2203313890076,2022-03-25
"黄浦区","上海市黄浦区大吉路173弄",121.490317185144,31.2201454039175,2022-03-25
"黄浦区","上海市黄浦区中山南路1667号",121.501570976912,31.2105118901275,2022-03-25
"黄浦区","上海市黄浦区海潮路256弄",121.50354920089,31.2128867884433,2022-03-25
"黄浦区","上海市黄浦区中华路429弄",121.504498015586,31.2244948414272,2022-03-25
"黄浦区","上海市黄浦区西藏南路750号",121.490906293898,31.2211893552922,2022-03-25
"黄浦区","上海市黄浦区已对相关居住地落实终末消毒措施",121.491585592524,31.2372471520636,2022-03-25
"静安区","上海市静安区恒通路360号",121.463432967333,31.2467038676937,2022-03-25
"静安区","上海市静安区育婴堂路38弄",121.473188026188,31.2540109063199,2022-03-25
"静安区","上海市静安区已对相关居住地落实终末消毒措施",121.453431772769,31.2338449304017,2022-03-25
"徐汇区","上海市徐汇区龙吴路2418弄",121.469078008989,31.1253760301988,2022-03-25
"徐汇区","上海市徐汇区新乐路7号",121.464450747476,31.2245092779683,2022-03-25
"徐汇区","上海市徐汇区已对相关居住地落实终末消毒措施",121.443396352764,31.1945567728227,2022-03-25
"长宁区","上海市长宁区天山路288弄",121.389700320566,31.221589191298,2022-03-25
"长宁区","上海市长宁区东诸安浜路103号",121.440812556625,31.2236424639483,2022-03-25
"长宁区","上海市长宁区新华路569弄",121.428229542194,31.2098415306016,2022-03-25
"长宁区","上海市长宁区沪青平公路58号",121.363279269076,31.1891754720003,2022-03-25
"长宁区","上海市长宁区已对相关居住地落实终末消毒措施",121.430454375451,31.2268479682254,2022-03-25
"普陀区","上海市普陀区交通路1461弄",121.45179191606,31.2618787865719,2022-03-25
"普陀区","上海市普陀区曹杨七村",121.416892028353,31.246969606438,2022-03-25
"普陀区","上海市普陀区宜昌路715弄",121.437864317942,31.2482301378784,2022-03-25
"普陀区","上海市普陀区石泉路300弄",121.434236331479,31.2580655893844,2022-03-25
"普陀区","上海市普陀区新村路1388弄",121.419854280603,31.2722922850813,2022-03-25
"普陀区","上海市普陀区金迈路358弄",121.335278008363,31.2932537331798,2022-03-25
"普陀区","上海市普陀区已对相关居住地落实终末消毒措施",121.403569349165,31.2549733682796,2022-03-25
"虹口区","上海市虹口区场中路803弄",121.475779188432,31.3128942990771,2022-03-25
"虹口区","上海市虹口区大连路975弄",121.512150500564,31.2731188333283,2022-03-25
"虹口区","上海市虹口区车站西路80弄",121.489782603535,31.3018271990629,2022-03-25
"虹口区","上海市虹口区已对相关居住地落实终末消毒措施",121.511586454535,31.2697466989314,2022-03-25
"杨浦区","上海市杨浦区怀德路398号",121.532820600179,31.2623766083095,2022-03-25
"杨浦区","上海市杨浦区闸殷路75弄",121.536656274876,31.3413812449805,2022-03-25
"杨浦区","上海市杨浦区军工路2866号",121.549025851918,31.3410077515834,2022-03-25
"杨浦区","上海市杨浦区双辽支路70弄",121.523448129641,31.276463300642,2022-03-25
"杨浦区","上海市杨浦区黄兴路2053号",121.523073715905,31.3025428724632,2022-03-25
"杨浦区","上海市杨浦区许昌路1588弄",121.520458479073,31.2784414529041,2022-03-25
"杨浦区","上海市杨浦区安图路6弄",121.532519937325,31.2655241446571,2022-03-25
"杨浦区","上海市杨浦区已对相关居住地落实终末消毒措施",121.532519937325,31.2655241446571,2022-03-25
"宝山区","上海市宝山区友谊路2858弄",121.441200983928,31.3915048969253,2022-03-25
"宝山区","上海市宝山区高境路477弄",121.478486411747,31.3297647761417,2022-03-25
"宝山区","上海市宝山区祁华路655弄",121.379470866571,31.3270160915792,2022-03-25
"宝山区","上海市宝山区淞南四村",121.499068387592,31.3513775739445,2022-03-25
"宝山区","上海市宝山区已对相关居住地落实终末消毒措施",121.496563013525,31.4102794734761,2022-03-25
"闵行区","上海市闵行区报春路862弄",121.382669822323,31.1262476944407,2022-03-25
"闵行区","上海市闵行区北青公路2055弄58支弄",121.322507517572,31.2025212351082,2022-03-25
"闵行区","上海市闵行区北沈路260弄",121.340499858293,31.233986502342,2022-03-25
"闵行区","上海市闵行区北翟路2900弄",121.330342178908,31.228948833313,2022-03-25
"闵行区","上海市闵行区碧江路401弄",121.407748985042,31.0170161148224,2022-03-25
"闵行区","上海市闵行区碧江路501弄",121.406006721505,31.0219398251339,2022-03-25
"闵行区","上海市闵行区碧江路502弄",121.4061134402,31.0207318033409,2022-03-25
"闵行区","上海市闵行区沧源路755弄",121.435220514995,31.020990909613,2022-03-25
"闵行区","上海市闵行区曹行村",121.447841078597,31.0979400169197,2022-03-25
"闵行区","上海市闵行区漕宝路1467弄",121.385570989798,31.1662838257658,2022-03-25
"闵行区","上海市闵行区春申路1717弄",121.436699485187,31.1202786533963,2022-03-25
"闵行区","上海市闵行区灯辉路1169弄",121.433888866907,31.0407307957751,2022-03-25
"闵行区","上海市闵行区东川路2626弄",121.409942197945,31.0157374663329,2022-03-25
"闵行区","上海市闵行区东川路2718弄",121.406810525276,31.0151615814102,2022-03-25
"闵行区","上海市闵行区东川路800号",121.443283974745,31.0320288411515,2022-03-25
"闵行区","上海市闵行区东川路811弄",121.442159565738,31.0204535863186,2022-03-25
"闵行区","上海市闵行区东兰路751弄",121.397438054737,31.1592898504533,2022-03-25
"闵行区","上海市闵行区顾戴路35弄",121.414651834072,31.1522119899094,2022-03-25
"闵行区","上海市闵行区行南村",121.434345385767,31.1221922501564,2022-03-25
"闵行区","上海市闵行区鹤庆路411弄",121.421404755913,31.0139964927142,2022-03-25
"闵行区","上海市闵行区红松路528号",121.370677353934,31.1866339566176,2022-03-25
"闵行区","上海市闵行区虹梅南路1555弄",121.433010683441,31.1238034745904,2022-03-25
"闵行区","上海市闵行区虹梅南路1781弄",121.434077421234,31.1134784230578,2022-03-25
"闵行区","上海市闵行区虹梅南路2555弄",121.439274388101,31.103561775367,2022-03-25
"闵行区","上海市闵行区虹梅南路2638弄",121.443972615748,31.1020497684295,2022-03-25
"闵行区","上海市闵行区沪光路39弄",121.429100898539,31.08452255101,2022-03-25
"闵行区","上海市闵行区沪闵路3131弄",121.416296990783,31.0613255133804,2022-03-25
"闵行区","上海市闵行区华宁路1399弄",121.39689880194,31.0293617714221,2022-03-25
"闵行区","上海市闵行区华展路168弄",121.456829433699,31.1181365535446,2022-03-25
"闵行区","上海市闵行区建设路39弄",121.430545014477,31.0049397549762,2022-03-25
"闵行区","上海市闵行区剑川路150弄",121.470592552078,31.0497402430716,2022-03-25
"闵行区","上海市闵行区江航路60弄",121.545219551811,31.0529987129211,2022-03-25
"闵行区","上海市闵行区金汇路588弄",121.379866210826,31.1892741717362,2022-03-25
"闵行区","上海市闵行区金平路555弄",121.417304979396,31.0260852322698,2022-03-25
"闵行区","上海市闵行区金平路777弄",121.414311286453,31.0271273965028,2022-03-25
"闵行区","上海市闵行区金阳路116弄",121.429539990272,31.046002183834,2022-03-25
"闵行区","上海市闵行区景谷中路58弄",121.421333250794,31.0253378160295,2022-03-25
"闵行区","上海市闵行区黎安路380弄",121.380776463799,31.1370196808857,2022-03-25
"闵行区","上海市闵行区龙柏二村",121.368336190114,31.1887880088866,2022-03-25
"闵行区","上海市闵行区龙柏四村",121.369482517775,31.1855637470262,2022-03-25
"闵行区","上海市闵行区龙柏七村",121.368871670028,31.1812154363146,2022-03-25
"闵行区","上海市闵行区龙吴路5413弄",121.471742023809,31.052898864498,2022-03-25
"闵行区","上海市闵行区龙吴路5511弄",121.472440995326,31.0503962773212,2022-03-25
"闵行区","上海市闵行区龙吴路5599弄",121.474420950501,31.0446168776874,2022-03-25
"闵行区","上海市闵行区罗秀路1501号",121.420035199332,31.133698822339,2022-03-25
"闵行区","上海市闵行区梅陇一村",121.420466026655,31.1425948272757,2022-03-25
"闵行区","上海市闵行区民建村",121.461712173298,31.1019195151607,2022-03-25
"闵行区","上海市闵行区南江燕路229弄",121.508767392183,31.0840717976866,2022-03-25
"闵行区","上海市闵行区平南一村",121.402351965538,31.1595388413712,2022-03-25
"闵行区","上海市闵行区平阳路1375弄",121.391943030102,31.1401669504757,2022-03-25
"闵行区","上海市闵行区浦连路282弄",121.54663856011,31.0615227948772,2022-03-25
"闵行区","上海市闵行区浦涛路100弄",121.550041925281,31.0563183227168,2022-03-25
"闵行区","上海市闵行区曲吴路175弄",121.466563562036,31.0601861292502,2022-03-25
"闵行区","上海市闵行区上中西路925弄",121.419584339797,31.135219206707,2022-03-25
"闵行区","上海市闵行区尚义路229弄",121.457448725517,31.048501484503,2022-03-25
"闵行区","上海市闵行区莘朱路820弄",121.407040221995,31.119890287423,2022-03-25
"闵行区","上海市闵行区塘口村",121.486407849395,31.0937820000194,2022-03-25
"闵行区","上海市闵行区塘湾村",121.449029087634,31.0616459892676,2022-03-25
"闵行区","上海市闵行区万源路580弄",121.404499185198,31.151728493547,2022-03-25
"闵行区","上海市闵行区王泥浜村",121.3200550537,31.2319695837316,2022-03-25
"闵行区","上海市闵行区吴河路328号",121.43789503999,31.0494853924113,2022-03-25
"闵行区","上海市闵行区向阳路228弄",121.441185263582,31.0812723624527,2022-03-25
"闵行区","上海市闵行区新建村",121.45240653669,31.0695304817161,2022-03-25
"闵行区","上海市闵行区许泾村",121.437103722666,31.0852414323746,2022-03-25
"闵行区","上海市闵行区杨家巷村",121.308534016042,31.2302145481777,2022-03-25
"闵行区","上海市闵行区宜山路2328弄",121.389027759231,31.1717788311097,2022-03-25
"闵行区","上海市闵行区银春路1799弄",121.403045008239,31.0313618487119,2022-03-25
"闵行区","上海市闵行区银春路1800弄",121.401740399147,31.0332739274975,2022-03-25
"闵行区","上海市闵行区银都路2688弄",121.413185529988,31.1037732688777,2022-03-25
"闵行区","上海市闵行区银林路1002弄",121.377406111356,31.022098892305,2022-03-25
"闵行区","上海市闵行区银林路100弄",121.394775080496,31.027396064753,2022-03-25
"闵行区","上海市闵行区友好村",121.398219041548,31.0008588862543,2022-03-25
"闵行区","上海市闵行区元江路4805弄",121.383738626218,31.0476327350132,2022-03-25
"闵行区","上海市闵行区闸航路2715号",121.538550801197,31.0255466227982,2022-03-25
"闵行区","上海市闵行区已对相关居住地落实终末消毒措施",121.38861193361,31.1188425800874,2022-03-25
"嘉定区","上海市嘉定区新源路1288弄",121.157518349641,31.3145145847269,2022-03-25
"嘉定区","上海市嘉定区福海路111弄",121.261928399065,31.3760189438005,2022-03-25
"嘉定区","上海市嘉定区北和公路1650号",121.186093447913,31.4305646845137,2022-03-25
"嘉定区","上海市嘉定区华江路157号",121.348040941295,31.2600915382036,2022-03-25
"嘉定区","上海市嘉定区张掖路355号",121.341329623092,31.2656508526137,2022-03-25
"嘉定区","上海市嘉定区黄家花园路88弄",121.32726602152,31.2584328552301,2022-03-25
"嘉定区","上海市嘉定区丰庄路295号",121.369053397233,31.2512608391224,2022-03-25
"嘉定区","上海市嘉定区金鼎路2388弄",121.368986832795,31.2652684132152,2022-03-25
"嘉定区","上海市嘉定区曹安公路1936号",121.366832516521,31.2608355207895,2022-03-25
"嘉定区","上海市嘉定区嘉定工业区陆渡村草庵村艾米公寓",121.246467483527,31.3615193081338,2022-03-25
"嘉定区","上海市嘉定区已对相关居住地落实终末消毒措施",121.272595058352,31.3801553396772,2022-03-25
"金山区","上海市金山区新巷村",121.311575947991,30.8559643069335,2022-03-25
"金山区","上海市金山区已对相关居住地落实终末消毒措施",121.348480045121,30.7478523765703,2022-03-25
"松江区","上海市松江区陈坊村",121.190069887084,31.1116653625901,2022-03-25
"松江区","上海市松江区沪松公路1399弄",121.325305020592,31.1431290583762,2022-03-25
"松江区","上海市松江区九亭大街671弄",121.329633685352,31.1327293181396,2022-03-25
"松江区","上海市松江区九亭大街851弄",121.326139995563,31.1322578538886,2022-03-25
"松江区","上海市松江区沪亭南路1059号",121.345569625099,31.1174428106389,2022-03-25
"松江区","上海市松江区涞坊路288弄",121.324261818403,31.1603824544623,2022-03-25
"松江区","上海市松江区沪亭南路751弄",121.341490779101,31.1244192691101,2022-03-25
"松江区","上海市松江区涞亭南路1600弄",121.350704429225,31.1228861125693,2022-03-25
"松江区","上海市松江区古楼公路656弄",121.264071486521,31.111944160496,2022-03-25
"松江区","上海市松江区车泾路279号",121.316881430163,31.0272088598241,2022-03-25
"松江区","上海市松江区沪亭北路618弄",121.322510122658,31.1542792216714,2022-03-25
"松江区","上海市松江区已对相关居住地落实终末消毒措施",121.234479596241,31.0371351764645,2022-03-25
"青浦区","上海市青浦区秀龙村",121.258566670355,31.2324111357671,2022-03-25
"青浦区","上海市青浦区盈港东路8300弄",121.14859548101,31.170199328131,2022-03-25
"青浦区","上海市青浦区久远路1660弄",121.114803922641,31.2164054733768,2022-03-25
"青浦区","上海市青浦区华益村",121.244984650367,31.2580134203849,2022-03-25
"青浦区","上海市青浦区蟠中路南侧3801",121.29236568466,31.1615574743415,2022-03-25
"青浦区","上海市青浦区育才路42弄",121.27654714061,31.1730705109872,2022-03-25
"青浦区","上海市青浦区诸光路488号",121.32251685995,31.1721691453083,2022-03-25
"青浦区","上海市青浦区已对相关居住地落实终末消毒措施",121.130553104673,31.1554543179807,2022-03-25
"崇明区","上海市崇明区潘圆公路161弄",121.780500227593,31.3429597854857,2022-03-25
"崇明区","上海市崇明区丰福路599弄",121.712871387105,31.3891534540686,2022-03-25
"崇明区","上海市崇明区酱园弄101号",121.407178920365,31.6298413313666,2022-03-25
"崇明区","上海市崇明区小漾村",121.679459272984,31.5544991444903,2022-03-25
"崇明区","上海市崇明区江南大道",121.765440867838,31.3589637803225,2022-03-25
"崇明区","上海市崇明区已对相关居住地落实终末消毒措施",121.403556862718,31.628569984404,2022-03-25
"崇明区","上海市崇明区资料各区卫健委新闻办",121.403556862718,31.628569984404,2022-03-25
"崇明区","上海市崇明区编辑黄景源",121.403556862718,31.628569984404,2022-03-25
