"district","address","lng","lat","date"
"黄浦区","上海市黄浦区已对涉及相关场所落实终末消毒等措施",121.49158559252436,31.23724715206362,"2022-06-09"
"黄浦区","上海市黄浦区新乐路58弄住宅小区",121.46006764540128,31.225283907074314,"2022-06-09"
"黄浦区","上海市黄浦区龙华西路31弄6月9日已通报",121.4573191000324,31.17462732270924,"2022-06-09"
"宝山区","上海市宝山区泗塘一村6月9日已通报",121.46242973973976,31.344303062064416,"2022-06-09"
"闵行区","上海市闵行区报春路388弄",121.39486755352047,31.131201938480455,"2022-06-09"
"闵行区","上海市闵行区先新路1058弄",121.53817638746047,31.046526986009113,"2022-06-09"
"闵行区","上海市闵行区银都路3118弄",121.39996516779793,31.10098099057769,"2022-06-09"
"闵行区","上海市闵行区召楼路2056弄",121.54568397576011,31.062475865171013,"2022-06-09"
