"district","address","lng","lat","date"
"浦东新区","上海市浦东新区国展路1756号工地生活区",121.49706758032497,31.189040953165733,"2022-03-25"
"浦东新区","上海市浦东新区康安路御北路交界口工地生活区",121.56378599958333,31.16393929723239,"2022-03-25"
"浦东新区","上海市浦东新区环龙路439弄",121.5316519945415,31.207919914797163,"2022-03-25"
"浦东新区","上海市浦东新区华夏二路1455弄",121.69950702654167,31.17862187802573,"2022-03-25"
"浦东新区","上海市浦东新区潍坊五村",121.53090801791814,31.225523227108205,"2022-03-25"
"浦东新区","上海市浦东新区灵岩南路144号",121.50050792217166,31.165827284606216,"2022-03-25"
"浦东新区","上海市浦东新区洪山路1658弄",121.51418318627226,31.158361401298,"2022-03-25"
"浦东新区","上海市浦东新区富航路105弄",121.60163152088816,31.04298434057806,"2022-03-25"
"浦东新区","上海市浦东新区航鸣路200弄",121.60906095660842,31.027055758234347,"2022-03-25"
"浦东新区","上海市浦东新区浦电路48弄",121.52301829045456,31.224774384963634,"2022-03-25"
"浦东新区","上海市浦东新区浦城路580弄",121.52108055563897,31.230158967011022,"2022-03-25"
"浦东新区","上海市浦东新区栖山路1855号",121.57779749943631,31.26719232371363,"2022-03-25"
"浦东新区","上海市浦东新区利津路729弄",121.59658295409153,31.280678570870514,"2022-03-25"
"浦东新区","上海市浦东新区浦东大道2554号",121.56949850398239,31.265341027434445,"2022-03-25"
"浦东新区","上海市浦东新区鹤鸣村",121.60056208817852,31.050200132685855,"2022-03-25"
"浦东新区","上海市浦东新区潍坊八村",121.5349700656037,31.225519444312425,"2022-03-25"
"浦东新区","上海市浦东新区百花新村",121.59203546210837,31.11683485392233,"2022-03-25"
"浦东新区","上海市浦东新区观海路999弄",121.78875107387198,31.061084150391313,"2022-03-25"
"浦东新区","上海市浦东新区三三公路5020弄",121.8799029424444,30.98125570677017,"2022-03-25"
"浦东新区","上海市浦东新区浦东大道2567弄",121.56941370394225,31.267025105886827,"2022-03-25"
"浦东新区","上海市浦东新区义泓村",121.84381262027553,31.081963820725456,"2022-03-25"
"浦东新区","上海市浦东新区新安村",121.68776015487933,31.029332219409053,"2022-03-25"
"浦东新区","上海市浦东新区博华路999弄",121.55711392523853,31.17680629046571,"2022-03-25"
"浦东新区","上海市浦东新区妙境路124弄",121.69510892276482,31.202324712849943,"2022-03-25"
"浦东新区","上海市浦东新区新行路高行家园",121.62008253640201,31.30076702350573,"2022-03-25"
"浦东新区","上海市浦东新区池月路848弄",121.81961442576996,30.915423615348644,"2022-03-25"
"浦东新区","上海市浦东新区拱极路2626弄",121.77959796953917,31.060854851111987,"2022-03-25"
"浦东新区","上海市浦东新区新浦路251弄",121.54134201607764,31.17422589586613,"2022-03-25"
"浦东新区","上海市浦东新区南新村吴家宅",121.52662561589096,31.360191454559764,"2022-03-25"
"浦东新区","上海市浦东新区拱北路278弄",121.77485958763513,31.060910455271795,"2022-03-25"
"浦东新区","上海市浦东新区行泰路150弄",121.61433778283515,31.295245646775623,"2022-03-25"
"浦东新区","上海市浦东新区拱为路2600弄",121.74541825335946,31.063557763042446,"2022-03-25"
"浦东新区","上海市浦东新区通济路328弄",121.7525324736763,31.05774885424886,"2022-03-25"
"浦东新区","上海市浦东新区凌兆路99弄",121.49790094975117,31.147618905696845,"2022-03-25"
"浦东新区","上海市浦东新区双桥路1108弄",121.58962611690005,31.28158489894264,"2022-03-25"
"浦东新区","上海市浦东新区鹤驰路99弄",121.59974166575626,31.084967271555595,"2022-03-25"
"浦东新区","上海市浦东新区西北新邨",121.75830821878324,31.05536596351949,"2022-03-25"
"浦东新区","上海市浦东新区联勤村冯桥队张家宅",121.55744791522713,31.171212397581485,"2022-03-25"
"浦东新区","上海市浦东新区联勤村李家队李家宅",121.55718596934042,31.173231011079945,"2022-03-25"
"浦东新区","上海市浦东新区康花新村",121.5512453851724,31.15510696691525,"2022-03-25"
"浦东新区","上海市浦东新区鹏飞路411弄",121.5623750311188,31.177444831968828,"2022-03-25"
"浦东新区","上海市浦东新区金桥路530弄",121.62178482534341,31.26066381567406,"2022-03-25"
"浦东新区","上海市浦东新区玉盘北路288弄",121.67884662862603,31.23195561150909,"2022-03-25"
"浦东新区","上海市浦东新区药师新村",121.68918414877375,31.2090166621391,"2022-03-25"
"浦东新区","上海市浦东新区金桥路301弄",121.57861711338361,31.27287901780519,"2022-03-25"
"浦东新区","上海市浦东新区长岛路728弄",121.58962611690005,31.28158489894264,"2022-03-25"
"浦东新区","上海市浦东新区巨峰路399弄",121.60283534010208,31.286491277884508,"2022-03-25"
"浦东新区","上海市浦东新区银峰路676弄",121.65277879086253,31.290487771739045,"2022-03-25"
"浦东新区","上海市浦东新区高宝路68弄",121.62729152795012,31.29737066259963,"2022-03-25"
"浦东新区","上海市浦东新区鹏飞路28弄",121.56187224952488,31.18091954304651,"2022-03-25"
"浦东新区","上海市浦东新区罗山路108弄",121.55887945488784,31.254641589752865,"2022-03-25"
"浦东新区","上海市浦东新区张杨路1515弄",121.54214959273111,31.240309161544037,"2022-03-25"
"浦东新区","上海市浦东新区申大公寓",121.59660074054064,31.259850816608612,"2022-03-25"
"浦东新区","上海市浦东新区浦东大道580号",121.52850891339264,31.24609806080326,"2022-03-25"
"浦东新区","上海市浦东新区云山路1039弄",121.57896466778543,31.256014461431107,"2022-03-25"
"浦东新区","上海市浦东新区临沂一村",121.51940440738791,31.20482333331625,"2022-03-25"
"浦东新区","上海市浦东新区芳芯路251弄",121.5630040246369,31.19846669279656,"2022-03-25"
"浦东新区","上海市浦东新区中科路2635弄",121.64420248849765,31.19692918571442,"2022-03-25"
"浦东新区","上海市浦东新区顺和路126弄",121.63371207675215,31.191615827234507,"2022-03-25"
"浦东新区","上海市浦东新区梅山苑",121.49416498696571,31.166074867693577,"2022-03-25"
"浦东新区","上海市浦东新区浦建路60弄",121.52445369282894,31.213159230587877,"2022-03-25"
"浦东新区","上海市浦东新区南门大街70弄",121.76342757205406,31.049802582763984,"2022-03-25"
"浦东新区","上海市浦东新区华鹏路390弄",121.53233048469319,31.17833987955854,"2022-03-25"
"浦东新区","上海市浦东新区胜利路30弄",121.69295460649079,31.248213080837292,"2022-03-25"
"浦东新区","上海市浦东新区上浦路202弄",121.49871723996809,31.150139999629182,"2022-03-25"
"浦东新区","上海市浦东新区新丰村",121.6556892108843,31.167614116870052,"2022-03-25"
"浦东新区","上海市浦东新区中界村蔡家宅",121.57417373500905,31.19544617406339,"2022-03-25"
"浦东新区","上海市浦东新区鹏岳路70弄",121.55880363790278,31.180936844062057,"2022-03-25"
"浦东新区","上海市浦东新区下南路115弄",121.55020362027247,31.172402344328333,"2022-03-25"
"浦东新区","上海市浦东新区中界村苏家队苏家宅",121.57702962788638,31.19161049851133,"2022-03-25"
"浦东新区","上海市浦东新区五星村陈家队陈家宅",121.57857947438275,31.194413133383005,"2022-03-25"
"浦东新区","上海市浦东新区御桥村姚家宅",121.56411783363872,31.162329302205315,"2022-03-25"
"浦东新区","上海市浦东新区下南路225弄",121.55278588929146,31.17539958371751,"2022-03-25"
"浦东新区","上海市浦东新区钱堂村长浜宅",121.61468776266183,31.163187258946337,"2022-03-25"
"浦东新区","上海市浦东新区浙桥路277号",121.60792001878019,31.258345881498737,"2022-03-25"
"浦东新区","上海市浦东新区下南路东钟家宅",121.54865494157326,31.173251634963325,"2022-03-25"
"浦东新区","上海市浦东新区莲园路8弄",121.55045460683195,31.227348292436346,"2022-03-25"
"浦东新区","上海市浦东新区御桥村印家队东印家圈",121.56463768303735,31.17407504173234,"2022-03-25"
"浦东新区","上海市浦东新区峨山路280弄",121.53440970262659,31.220273408639333,"2022-03-25"
"浦东新区","上海市浦东新区蓝村路501弄",121.53196923411473,31.21884539582701,"2022-03-25"
"浦东新区","上海市浦东新区下南路501弄",121.53688426481492,31.18970225553777,"2022-03-25"
"浦东新区","上海市浦东新区博华路498弄",121.55580401614387,31.18479326887685,"2022-03-25"
"浦东新区","上海市浦东新区紫叶路76弄",121.53688426481492,31.18970225553777,"2022-03-25"
"浦东新区","上海市浦东新区堆栈路27号",121.53688426481492,31.18970225553777,"2022-03-25"
"浦东新区","上海市浦东新区赵家厍",121.54343515774643,31.176791383130574,"2022-03-25"
"浦东新区","上海市浦东新区姜薛家宅",121.66888954086177,31.26777484439184,"2022-03-25"
"浦东新区","上海市浦东新区博华路1018弄",121.55750199321884,31.176850857976813,"2022-03-25"
"浦东新区","上海市浦东新区孙环路366弄",121.64524955340009,31.18623227225343,"2022-03-25"
"浦东新区","上海市浦东新区东靖路2250弄",121.62006879232769,31.298372867667926,"2022-03-25"
"浦东新区","上海市浦东新区御秀路68弄",121.58485970786411,31.120077939878794,"2022-03-25"
"浦东新区","上海市浦东新区瑞和路555弄",121.60129025462491,31.094585694557914,"2022-03-25"
"浦东新区","上海市浦东新区航头路988弄",121.60690466406227,31.040624900894645,"2022-03-25"
"浦东新区","上海市浦东新区一六村李家队王家宅",121.53235348131425,31.22265914373994,"2022-03-25"
"浦东新区","上海市浦东新区御山路360弄",121.57468244541937,31.162035666910167,"2022-03-25"
"浦东新区","上海市浦东新区环林西路618弄",121.52907170179465,31.14571896209596,"2022-03-25"
"浦东新区","上海市浦东新区新浦路380弄",121.53688426481492,31.18970225553777,"2022-03-25"
"浦东新区","上海市浦东新区下南路551弄",121.54679904238965,31.179016875274282,"2022-03-25"
"浦东新区","上海市浦东新区丰海路500弄",121.78915998254013,31.061150813348565,"2022-03-25"
"浦东新区","上海市浦东新区行德路141弄",121.61784243195176,31.3000275778643,"2022-03-25"
"浦东新区","上海市浦东新区崂三村",121.55045460683195,31.227348292436346,"2022-03-25"
"浦东新区","上海市浦东新区杨莲路160弄",121.53688426481492,31.18970225553777,"2022-03-25"
"浦东新区","上海市浦东新区下南路276弄",121.53688426481492,31.18970225553777,"2022-03-25"
"浦东新区","上海市浦东新区鹤沙路688弄",121.59652680999716,31.08766578024054,"2022-03-25"
"浦东新区","上海市浦东新区凌兆路127弄",121.5000277778766,31.1477960721254,"2022-03-25"
"浦东新区","上海市浦东新区拱海路78弄",121.77485958763513,31.060910455271795,"2022-03-25"
"浦东新区","上海市浦东新区莲安东路367弄",121.56971400747423,31.188080963736194,"2022-03-25"
"浦东新区","上海市浦东新区牡丹路259弄",121.5558250364928,31.214654701261765,"2022-03-25"
"浦东新区","上海市浦东新区南码头路193弄",121.51551258859648,31.204743182053495,"2022-03-25"
"浦东新区","上海市浦东新区东方路1600弄",121.5324265135522,31.214714306495512,"2022-03-25"
"浦东新区","上海市浦东新区霞光路78弄",121.8170033211441,30.907146378777814,"2022-03-25"
"浦东新区","上海市浦东新区海沈村",121.80462233562228,31.032342067589873,"2022-03-25"
"浦东新区","上海市浦东新区杨莲路姚家宅",121.55302537754041,31.16809722238912,"2022-03-25"
"浦东新区","上海市浦东新区崂山二村",121.52801547417602,31.24201939404948,"2022-03-25"
"浦东新区","上海市浦东新区临沂路339弄",121.54938616225839,31.176934122698174,"2022-03-25"
"浦东新区","上海市浦东新区川杨新苑西区",121.6328129627672,31.19124103963261,"2022-03-25"
"浦东新区","上海市浦东新区胶南小区170弄",121.51756719295891,31.206359166517448,"2022-03-25"
"浦东新区","上海市浦东新区南新西园",121.5881132805907,31.334801250317916,"2022-03-25"
"浦东新区","上海市浦东新区华夏东路860弄",121.67234154927552,31.20033012373384,"2022-03-25"
"浦东新区","上海市浦东新区川银路150弄",121.69430916136928,31.198977979741798,"2022-03-25"
"浦东新区","上海市浦东新区花木路830弄",121.5586974581915,31.21682563528285,"2022-03-25"
"浦东新区","上海市浦东新区上浦路69弄",121.49651181011053,31.15167626528333,"2022-03-25"
"浦东新区","上海市浦东新区千汇路750弄",121.77091009762997,31.122895232134738,"2022-03-25"
"浦东新区","上海市浦东新区光泽路429弄",121.62474869454303,31.336184046972157,"2022-03-25"
"浦东新区","上海市浦东新区杜鹃路188号",121.5562699672119,31.208870882889038,"2022-03-25"
"浦东新区","上海市浦东新区高东新村",121.62165232528069,31.33895243164745,"2022-03-25"
"浦东新区","上海市浦东新区灵山路2000弄",121.58274383906591,31.248450721415264,"2022-03-25"
"浦东新区","上海市浦东新区芳甸路333弄",121.52969618510942,31.207201251711854,"2022-03-25"
"浦东新区","上海市浦东新区项文路333弄",121.71286698540825,31.053397718847805,"2022-03-25"
"浦东新区","上海市浦东新区柳杉路99弄",121.57639722080737,31.230508819026944,"2022-03-25"
"浦东新区","上海市浦东新区华夏东路1152弄",121.68058413114343,31.202613202750292,"2022-03-25"
"浦东新区","上海市浦东新区新德路939弄",121.69204776707845,31.2009453389289,"2022-03-25"
"浦东新区","上海市浦东新区新德路1058弄",121.68909099449236,31.201394836518777,"2022-03-25"
"浦东新区","上海市浦东新区中界村季家宅",121.57876102192631,31.19930987845819,"2022-03-25"
"浦东新区","上海市浦东新区新德公寓",121.69474444784449,31.2015667599504,"2022-03-25"
"浦东新区","上海市浦东新区东绣路99弄",121.54771477502652,31.21996482277292,"2022-03-25"
"浦东新区","上海市浦东新区长岛路638弄",121.58981179664897,31.266271348719158,"2022-03-25"
"浦东新区","上海市浦东新区书院镇北窑1组",121.85659586700473,30.927224481230898,"2022-03-25"
"浦东新区","上海市浦东新区靖海路547弄",121.7738753233877,31.062525639698123,"2022-03-25"
"浦东新区","上海市浦东新区冬融路245弄",121.59571114859409,31.338860212598284,"2022-03-25"
"浦东新区","上海市浦东新区迎熏路222弄",121.74660931663514,31.040781074529843,"2022-03-25"
"浦东新区","上海市浦东新区环林东路906弄",121.53547140990882,31.14792834793253,"2022-03-25"
"浦东新区","上海市浦东新区宏港苑285弄",121.84902827189701,31.041067740271547,"2022-03-25"
"浦东新区","上海市浦东新区西浜头",121.61563583429707,31.292504199206448,"2022-03-25"
"浦东新区","上海市浦东新区南项湾",121.55982483160652,31.367077216842677,"2022-03-25"
"浦东新区","上海市浦东新区北项湾",121.5601669961753,31.367679309466983,"2022-03-25"
"浦东新区","上海市浦东新区惠东路342弄",121.77751066685619,31.049666920402938,"2022-03-25"
"浦东新区","上海市浦东新区上钢一村",121.50096839357609,31.178239082858738,"2022-03-25"
"浦东新区","上海市浦东新区中心村顾家宅",121.65787901022597,31.201845335804407,"2022-03-25"
"浦东新区","上海市浦东新区上南路6932弄",121.58485970786411,31.120077939878794,"2022-03-25"
"浦东新区","上海市浦东新区耀元路228弄",121.48032983521631,31.176939830936618,"2022-03-25"
"浦东新区","上海市浦东新区宣春路201号",121.73244312857334,31.09000123478007,"2022-03-25"
"浦东新区","上海市浦东新区碧云路333弄",121.58332800713904,31.24398785556432,"2022-03-25"
"浦东新区","上海市浦东新区三灶光明村",121.72842581650218,31.077006827055797,"2022-03-25"
"浦东新区","上海市浦东新区祝西村",121.7577816320933,31.111643333887514,"2022-03-25"
"浦东新区","上海市浦东新区崂山新村",121.52608115292138,31.244186142787363,"2022-03-25"
"浦东新区","上海市浦东新区六里新村",121.52368698907618,31.1935978595526,"2022-03-25"
"浦东新区","上海市浦东新区上南三村",121.5042283442718,31.18017273857782,"2022-03-25"
"浦东新区","上海市浦东新区杨高南路4501弄",121.53193936247415,31.16362156468892,"2022-03-25"
"浦东新区","上海市浦东新区高青路2861弄",121.53688426481492,31.18970225553777,"2022-03-25"
"浦东新区","上海市浦东新区高行绿洲六期",121.59828775828836,31.329012836514185,"2022-03-25"
"浦东新区","上海市浦东新区柳埠路196弄",121.58988132549543,31.271021584060716,"2022-03-25"
"浦东新区","上海市浦东新区利津路385弄",121.59099567348056,31.28276487908113,"2022-03-25"
"浦东新区","上海市浦东新区芳华路660弄",121.53688426481492,31.18970225553777,"2022-03-25"
"浦东新区","上海市浦东新区浦建路1086弄",121.54495742626365,31.21291640447759,"2022-03-25"
"浦东新区","上海市浦东新区凌兆路555弄",121.50815052578945,31.150254347365593,"2022-03-25"
"浦东新区","上海市浦东新区康杉路359弄",121.53688426481492,31.18970225553777,"2022-03-25"
"浦东新区","上海市浦东新区柳埠路142弄",121.5889156470722,31.269330401417204,"2022-03-25"
"浦东新区","上海市浦东新区陈春路620弄",121.55290760968805,31.178078194108803,"2022-03-25"
"浦东新区","上海市浦东新区叠桥村",121.62282874617655,31.13384997321586,"2022-03-25"
"浦东新区","上海市浦东新区上南路5588号",121.53410068553116,31.12914416758575,"2022-03-25"
"浦东新区","上海市浦东新区唐港路1059弄",121.87066926010736,30.982972671195526,"2022-03-25"
"浦东新区","上海市浦东新区新舒苑南苑",121.87044639051032,30.981955871029562,"2022-03-25"
"浦东新区","上海市浦东新区周浦西大街",121.58135236383096,31.123645274719248,"2022-03-25"
"浦东新区","上海市浦东新区洋溢村",121.88577848929351,30.94560433082354,"2022-03-25"
"浦东新区","上海市浦东新区中久村",121.87279869331874,30.933657691295856,"2022-03-25"
"浦东新区","上海市浦东新区联勤村张家宅张家队",121.64193938742638,31.3298699592958,"2022-03-25"
"浦东新区","上海市浦东新区梅园三村",121.52884991016424,31.245205127170653,"2022-03-25"
"浦东新区","上海市浦东新区潍坊路154弄",121.53230434400284,31.231346466894244,"2022-03-25"
"浦东新区","上海市浦东新区下南路西钟家宅",121.54865494157326,31.173251634963325,"2022-03-25"
"浦东新区","上海市浦东新区御水路555弄",121.58232702530928,31.160305200831736,"2022-03-25"
"浦东新区","上海市浦东新区莲振路269号",121.57436094187736,31.173909356804987,"2022-03-25"
"浦东新区","上海市浦东新区鹏飞路51弄",121.56052119803788,31.18149263748743,"2022-03-25"
"浦东新区","上海市浦东新区飞桥村",121.6188211358049,31.047104149006337,"2022-03-25"
"浦东新区","上海市浦东新区鹤东村",121.60297826050872,31.06114895730399,"2022-03-25"
"浦东新区","上海市浦东新区高博路188弄",121.58962611690005,31.28158489894264,"2022-03-25"
"浦东新区","上海市浦东新区板泉路2000弄",121.53688426481492,31.18970225553777,"2022-03-25"
"浦东新区","上海市浦东新区禹洲金桥国际2期",121.62032301278703,31.261400640611136,"2022-03-25"
"浦东新区","上海市浦东新区德川路369弄",121.63626380338377,31.194416454082223,"2022-03-25"
"浦东新区","上海市浦东新区金桥路715号",121.58433922965163,31.266823780473572,"2022-03-25"
"浦东新区","上海市浦东新区汤家宅",121.85986893296088,31.049990839103376,"2022-03-25"
"浦东新区","上海市浦东新区五星村吴家队吴家宅",121.5221809798887,31.125604863131734,"2022-03-25"
"浦东新区","上海市浦东新区民星苑",121.57608308337052,31.16724827131637,"2022-03-25"
"浦东新区","上海市浦东新区芳华路916弄",121.57459800470143,31.202853893456744,"2022-03-25"
"浦东新区","上海市浦东新区高科西路3030弄",121.56984875330073,31.195892840738562,"2022-03-25"
"浦东新区","上海市浦东新区上南路3848弄",121.51183600380526,31.156075235710073,"2022-03-25"
"浦东新区","上海市浦东新区海阳路905弄",121.50996204868088,31.164183254530798,"2022-03-25"
"浦东新区","上海市浦东新区天花庵村",121.53193954213525,31.128535900177152,"2022-03-25"
"浦东新区","上海市浦东新区三旋路506弄",121.52553031198265,31.139159418419815,"2022-03-25"
"浦东新区","上海市浦东新区高青路2878弄",121.53438374159735,31.16614786788632,"2022-03-25"
"浦东新区","上海市浦东新区林展路411弄",121.51568173952401,31.128169902288004,"2022-03-25"
"浦东新区","上海市浦东新区花墙村",121.55274169266035,31.156328175262196,"2022-03-25"
"浦东新区","上海市浦东新区金杨路785弄",121.58943756257352,31.25969878847117,"2022-03-25"
"浦东新区","上海市浦东新区浦东大道2511弄",121.56640626692538,31.265127505972,"2022-03-25"
"浦东新区","上海市浦东新区金杨路273弄",121.58166030295976,31.253646941697532,"2022-03-25"
"浦东新区","上海市浦东新区杨莲路171号",121.56117956614612,31.176187054761556,"2022-03-25"
"浦东新区","上海市浦东新区川银路81弄",121.69262097582437,31.19864607984954,"2022-03-25"
"浦东新区","上海市浦东新区御桥村龙桥队张家宅",121.66784183636582,31.010738259277055,"2022-03-25"
"浦东新区","上海市浦东新区华夏西路5758号",121.58797566018657,31.170617148187993,"2022-03-25"
"浦东新区","上海市浦东新区北艾路1660弄",121.53028818711626,31.187040813780268,"2022-03-25"
"浦东新区","上海市浦东新区港驳小区420弄",121.53289560868951,31.219864920100306,"2022-03-25"
"浦东新区","上海市浦东新区绿林路320弄",121.55483474449859,31.176162646734344,"2022-03-25"
"浦东新区","上海市浦东新区上南路3500弄",121.52553031198265,31.139159418419815,"2022-03-25"
"浦东新区","上海市浦东新区陈春东路88弄",121.56599583113788,31.181447145347832,"2022-03-25"
"浦东新区","上海市浦东新区御青路328弄",121.58485970786411,31.120077939878794,"2022-03-25"
"浦东新区","上海市浦东新区三林苑",121.5291399730134,31.149955265930966,"2022-03-25"
"浦东新区","上海市浦东新区江高路39弄",121.4856155439356,31.155665231145377,"2022-03-25"
"浦东新区","上海市浦东新区东陆路1182弄",121.60235600428196,31.275368269875603,"2022-03-25"
"浦东新区","上海市浦东新区祝潘公路301弄",121.76684274994189,31.114088797527916,"2022-03-25"
"浦东新区","上海市浦东新区海滨国际花园",121.86503418964325,30.872876780920258,"2022-03-25"
"浦东新区","上海市浦东新区会龙村",121.72001938370924,31.100736018736946,"2022-03-25"
"浦东新区","上海市浦东新区六灶果园村",121.73744013263371,30.983664773262714,"2022-03-25"
"浦东新区","上海市浦东新区建港村",121.84800016124085,31.036517804975315,"2022-03-25"
"浦东新区","上海市浦东新区欣春苑",121.71140301691864,31.030093838361037,"2022-03-25"
"浦东新区","上海市浦东新区沪南路2000号",121.56787580490915,31.17000814528788,"2022-03-25"
"浦东新区","上海市浦东新区京浦路160弄",121.57469457254375,31.15991251964416,"2022-03-25"
"浦东新区","上海市浦东新区世博家园大道站路94弄",121.5456103147083,31.165459346349106,"2022-03-25"
"浦东新区","上海市浦东新区鹏飞路101弄",121.53688426481492,31.18970225553777,"2022-03-25"
"浦东新区","上海市浦东新区锦绣华都",121.58787774488599,31.161199562218254,"2022-03-25"
"浦东新区","上海市浦东新区北蔡李家宅",121.5830320154735,31.181499357037588,"2022-03-25"
"浦东新区","上海市浦东新区上钢二村",121.49944037590362,31.183656076042627,"2022-03-25"
"浦东新区","上海市浦东新区民义村",121.70506789697062,31.13432390227659,"2022-03-25"
"浦东新区","上海市浦东新区丁香路901弄",121.55712829812667,31.233140000844234,"2022-03-25"
"浦东新区","上海市浦东新区秀沿西路68弄",121.5437560324746,31.137587866279553,"2022-03-25"
"浦东新区","上海市浦东新区海阳路1001弄",121.51133394085572,31.164480127613512,"2022-03-25"
"浦东新区","上海市浦东新区红旗村江湖宅",121.50020627118141,31.126931789483034,"2022-03-25"
"浦东新区","上海市浦东新区沪南路2518弄",121.53688426481492,31.18970225553777,"2022-03-25"
"浦东新区","上海市浦东新区康士路15弄",121.56951673958423,31.15566839870212,"2022-03-25"
"浦东新区","上海市浦东新区周康二村",121.57627100888321,31.14536183948952,"2022-03-25"
"浦东新区","上海市浦东新区周康五村",121.57974924781784,31.13897698125003,"2022-03-25"
"浦东新区","上海市浦东新区长清路807弄",121.4992229859702,31.16205328041866,"2022-03-25"
"浦东新区","上海市浦东新区康桥路1118弄",121.58485970786411,31.120077939878794,"2022-03-25"
"浦东新区","上海市浦东新区御青路918弄",121.581132278981,31.158767840355527,"2022-03-25"
"浦东新区","上海市浦东新区芳华路573弄",121.56906579021823,31.202881074402363,"2022-03-25"
"浦东新区","上海市浦东新区人和新村",121.58319586639854,31.161427612578496,"2022-03-25"
"浦东新区","上海市浦东新区御青路1051弄",121.58485970786411,31.120077939878794,"2022-03-25"
"浦东新区","上海市浦东新区中林街33弄",121.50622500792882,31.14256685616822,"2022-03-25"
"浦东新区","上海市浦东新区御青路999弄",121.5795247612709,31.16029762997253,"2022-03-25"
"浦东新区","上海市浦东新区汇腾南苑",121.59176363486105,31.0959180837554,"2022-03-25"
"浦东新区","上海市浦东新区上南路7992弄",121.58100651620961,31.12500136433539,"2022-03-25"
"浦东新区","上海市浦东新区汇福家园平安里南",121.61180608841637,31.10575986233398,"2022-03-25"
"浦东新区","上海市浦东新区东建新村",121.52686142108733,31.222713416923376,"2022-03-25"
"浦东新区","上海市浦东新区南码头路1521弄",121.52539646446166,31.18286750920583,"2022-03-25"
"浦东新区","上海市浦东新区东方路3344弄",121.52063023508683,31.197538785966152,"2022-03-25"
"浦东新区","上海市浦东新区莲安西路125弄",121.55974578072166,31.18532718248633,"2022-03-25"
"浦东新区","上海市浦东新区崂山四村",121.52454199626058,31.24117281086977,"2022-03-25"
"浦东新区","上海市浦东新区团西村",121.73963217773915,30.974409907501002,"2022-03-25"
"浦东新区","上海市浦东新区闵西队闵家宅",121.77731708201878,31.183702339454175,"2022-03-25"
"浦东新区","上海市浦东新区北艾路1643弄",121.53206000490414,31.184833893684832,"2022-03-25"
"浦东新区","上海市浦东新区华春路100弄",121.52684004141621,31.213179845684934,"2022-03-25"
"浦东新区","上海市浦东新区五莲路780弄",121.59713693909953,31.274305479007058,"2022-03-25"
"浦东新区","上海市浦东新区尚博路129弄",121.51699380455189,31.152394710401303,"2022-03-25"
"浦东新区","上海市浦东新区秀龙村",121.5691399004228,31.132605675883436,"2022-03-25"
"浦东新区","上海市浦东新区微山新村",121.52188759330915,31.215230523292508,"2022-03-25"
"浦东新区","上海市浦东新区宣桥镇宣桥12组",121.70603357539385,31.02301715955858,"2022-03-25"
"浦东新区","上海市浦东新区卫行村朱家队朱家宅",121.58720141066752,31.166665202015878,"2022-03-25"
"浦东新区","上海市浦东新区北中路383弄",121.56535623761478,31.19047632308665,"2022-03-25"
"浦东新区","上海市浦东新区龙阳路1880弄",121.55929249576131,31.206698915055398,"2022-03-25"
"浦东新区","上海市浦东新区上游村卢家宅",121.70936539053037,31.11527776809923,"2022-03-25"
"浦东新区","上海市浦东新区五星村家务队顾家宅",121.57836549801027,31.179988450201478,"2022-03-25"
"浦东新区","上海市浦东新区黄路村",121.7711685401252,31.03629734180501,"2022-03-25"
"浦东新区","上海市浦东新区新园路251弄",121.65277879086253,31.290487771739045,"2022-03-25"
"浦东新区","上海市浦东新区永新村",121.79691199976904,31.075899412449523,"2022-03-25"
"浦东新区","上海市浦东新区法赛路518号",121.6281577639534,31.319361467861132,"2022-03-25"
"浦东新区","上海市浦东新区严民路40弄",121.53536082850054,31.198209156327895,"2022-03-25"
"浦东新区","上海市浦东新区海尚东苑",121.68168320793488,31.293546262714703,"2022-03-25"
"浦东新区","上海市浦东新区成山路2388弄",121.55237302807906,31.185659824651268,"2022-03-25"
"浦东新区","上海市浦东新区一六村南赵家宅",121.60272673496593,31.173188295681612,"2022-03-25"
"浦东新区","上海市浦东新区海桐路68弄",121.55935061612782,31.211229112368898,"2022-03-25"
"浦东新区","上海市浦东新区下南路500弄",121.5437208188986,31.177967587760506,"2022-03-25"
"浦东新区","上海市浦东新区南泉路111弄",121.52969618510942,31.207201251711854,"2022-03-25"
"浦东新区","上海市浦东新区张杨路628弄",121.52760369093023,31.233830340914704,"2022-03-25"
"浦东新区","上海市浦东新区成山路601弄",121.51531208680666,31.180125469338968,"2022-03-25"
"浦东新区","上海市浦东新区申波路83弄",121.56831301020087,31.201574449623596,"2022-03-25"
"浦东新区","上海市浦东新区芳华路580弄",121.5690579749603,31.202517837477373,"2022-03-25"
"浦东新区","上海市浦东新区芳华路630弄",121.55655904192501,31.200205103357757,"2022-03-25"
"浦东新区","上海市浦东新区罗山路5205号",121.59740661041363,31.168404743170335,"2022-03-25"
"浦东新区","上海市浦东新区莲溪路780弄",121.5687171578498,31.18347820498392,"2022-03-25"
"浦东新区","上海市浦东新区蓝村路471弄",121.5336015869898,31.217902204702717,"2022-03-25"
"浦东新区","上海市浦东新区三林镇临江村",121.48517950644107,31.129345634527656,"2022-03-25"
"浦东新区","上海市浦东新区环林西路775弄",121.51404116417113,31.1481103041267,"2022-03-25"
"浦东新区","上海市浦东新区三林路1300弄",121.52563020355537,31.14908675771163,"2022-03-25"
"浦东新区","上海市浦东新区上南路4265弄",121.51980478215371,31.151809926314225,"2022-03-25"
"浦东新区","上海市浦东新区环林东路271弄",121.53316411220645,31.155298952705344,"2022-03-25"
"浦东新区","上海市浦东新区凌兆路726弄",121.51165194100625,31.150804064437544,"2022-03-25"
"浦东新区","上海市浦东新区灵岩南路801弄",121.50452478509008,31.153328935788675,"2022-03-25"
"浦东新区","上海市浦东新区上浦路201弄",121.4998086811627,31.15145537649195,"2022-03-25"
"浦东新区","上海市浦东新区康桥路1558弄",121.58763637019544,31.155405954675448,"2022-03-25"
"浦东新区","上海市浦东新区齐友佳苑",121.67834510465981,31.21165547441348,"2022-03-25"
"浦东新区","上海市浦东新区新浦路252弄",121.53688426481492,31.18970225553777,"2022-03-25"
"浦东新区","上海市浦东新区宝华路1018号",121.55045460683195,31.227348292436346,"2022-03-25"
"浦东新区","上海市浦东新区建中路285弄",121.52553031198265,31.139159418419815,"2022-03-25"
"浦东新区","上海市浦东新区浦电路489号工地生活区",121.54141801272378,31.228541386204874,"2022-03-25"
"浦东新区","上海市浦东新区新场镇坦直村",121.65553784640588,31.07908878073053,"2022-03-25"
"浦东新区","上海市浦东新区航头路1675弄",121.58722000559158,31.036120119984524,"2022-03-25"
"浦东新区","上海市浦东新区航绣路50弄",121.60439363067024,31.076577146786715,"2022-03-25"
"浦东新区","上海市浦东新区联勤村麦家宅",121.55391344236757,31.16926349405447,"2022-03-25"
"浦东新区","上海市浦东新区中界村陈家队陈家宅",121.57857947438275,31.194413133383005,"2022-03-25"
"浦东新区","上海市浦东新区下南路465弄",121.53688426481492,31.18970225553777,"2022-03-25"
"浦东新区","上海市浦东新区城南路747弄",121.69923609759985,31.19466326665228,"2022-03-25"
"浦东新区","上海市浦东新区高宝路379弄",121.58962611690005,31.28158489894264,"2022-03-25"
"浦东新区","上海市浦东新区御水路150弄",121.57886495587383,31.167441854466574,"2022-03-25"
"浦东新区","上海市浦东新区北艾路862弄",121.54340838824224,31.19022772322093,"2022-03-25"
"浦东新区","上海市浦东新区五星村三联队黄家宅",121.57836549801027,31.179988450201478,"2022-03-25"
"浦东新区","上海市浦东新区三林路安居苑1662弄",121.51714274360545,31.147505481920273,"2022-03-25"
"浦东新区","上海市浦东新区三林路430弄",121.50748703733979,31.14472972450974,"2022-03-25"
"浦东新区","上海市浦东新区凌兆路373号",121.50424289682105,31.148512847150098,"2022-03-25"
"浦东新区","上海市浦东新区上浦路410弄",121.50412890185184,31.151419913709955,"2022-03-25"
"浦东新区","上海市浦东新区御桥路2066弄",121.58173980299742,31.164948494555752,"2022-03-25"
"浦东新区","上海市浦东新区锦绣路2466弄",121.53804999587523,31.201695529974554,"2022-03-25"
"浦东新区","上海市浦东新区严杨路30弄",121.53251293054227,31.198276108155607,"2022-03-25"
"浦东新区","上海市浦东新区牡丹路258弄",121.5556305533499,31.213972712771053,"2022-03-25"
"浦东新区","上海市浦东新区严桥路141弄",121.53576120326635,31.196409470181045,"2022-03-25"
"浦东新区","上海市浦东新区康桥路1633弄",121.58485970786411,31.120077939878794,"2022-03-25"
"浦东新区","上海市浦东新区康弘路508弄",121.60698461325266,31.12693472616589,"2022-03-25"
"浦东新区","上海市浦东新区浦建路1578弄",121.52969618510942,31.207201251711854,"2022-03-25"
"浦东新区","上海市浦东新区锦和路289弄",121.54364599004963,31.21064083456777,"2022-03-25"
"浦东新区","上海市浦东新区孙桥沔北5队",121.63755026670462,31.173264843515458,"2022-03-25"
"浦东新区","上海市浦东新区沪南路2591号",121.57405399088458,31.154660878496433,"2022-03-25"
"浦东新区","上海市浦东新区孙桥劳动村吴家宅",121.6390159419747,31.185271265739956,"2022-03-25"
"浦东新区","上海市浦东新区川北公路2820号",121.6183400932043,31.209876971291003,"2022-03-25"
"浦东新区","上海市浦东新区张江镇中心村小桥宅",121.6647867999366,31.192715005059494,"2022-03-25"
"浦东新区","上海市浦东新区康沈路3001弄",121.59000394419755,31.095345471807125,"2022-03-25"
"浦东新区","上海市浦东新区繁荣路266弄",121.58485970786411,31.120077939878794,"2022-03-25"
"浦东新区","上海市浦东新区上南路7762号",121.5765352005337,31.12407829503289,"2022-03-25"
"浦东新区","上海市浦东新区浦三路821弄",121.52623350553587,31.188026670480095,"2022-03-25"
"浦东新区","上海市浦东新区严中路47弄",121.53702206488015,31.200757616482992,"2022-03-25"
"浦东新区","上海市浦东新区长达佳苑",121.58304306463128,31.0318882795788,"2022-03-25"
"浦东新区","上海市浦东新区北张家浜路58号",121.52762345365146,31.222173076955738,"2022-03-25"
"浦东新区","上海市浦东新区古恩路118号",121.64793539704438,31.079615486216092,"2022-03-25"
"浦东新区","上海市浦东新区鹤驰路88弄",121.600970727355,31.086394893804805,"2022-03-25"
"浦东新区","上海市浦东新区齐恒路95弄",121.52815893356596,31.19459237374658,"2022-03-25"
"浦东新区","上海市浦东新区金杨路220弄",121.58118716544766,31.253056383701526,"2022-03-25"
"浦东新区","上海市浦东新区济阳一村",121.48911884559396,31.171985227421057,"2022-03-25"
"浦东新区","上海市浦东新区上南十二村",121.5111510458539,31.17519914250867,"2022-03-25"
"浦东新区","上海市浦东新区浦东大道140弄",121.52166903557857,31.244048831438676,"2022-03-25"
"浦东新区","上海市浦东新区长岛路1280弄",121.59964231316687,31.26688312097201,"2022-03-25"
"浦东新区","上海市浦东新区高桥镇龚家宅",121.5866195781887,31.34503398389822,"2022-03-25"
"浦东新区","上海市浦东新区御衡路68弄",121.58833740781544,31.159592610343985,"2022-03-25"
"浦东新区","上海市浦东新区苗圃路463弄",121.55669244029323,31.24284675034898,"2022-03-25"
"浦东新区","上海市浦东新区康桥路1603号",121.58860618082403,31.156993973181926,"2022-03-25"
"浦东新区","上海市浦东新区御水路199弄",121.58063821095053,31.166554813951443,"2022-03-25"
"浦东新区","上海市浦东新区博华路108号",121.55371599481649,31.190169029152056,"2022-03-25"
"浦东新区","上海市浦东新区博山路78弄",121.56207131402589,31.25146659723759,"2022-03-25"
"浦东新区","上海市浦东新区沔北路唐家宅",121.63362943264522,31.167854047744267,"2022-03-25"
"浦东新区","上海市浦东新区古桐路63弄",121.60213861434853,31.244250205910852,"2022-03-25"
"浦东新区","上海市浦东新区康桥东路1159弄",121.63768141930908,31.165302838897336,"2022-03-25"
"浦东新区","上海市浦东新区卫行村顾家宅",121.58720141066752,31.166665202015878,"2022-03-25"
"浦东新区","上海市浦东新区龙东大道大众村",121.64853277020852,31.22191676372139,"2022-03-25"
"浦东新区","上海市浦东新区浦建路725弄",121.53777295845595,31.215407793615004,"2022-03-25"
"浦东新区","上海市浦东新区浦东南路1700弄",121.5250607676926,31.22378497774176,"2022-03-25"
"浦东新区","上海市浦东新区巨野路大陆家宅",121.5531859945656,31.244897858469482,"2022-03-25"
"浦东新区","上海市浦东新区梓康路51弄",121.5793535442407,31.128721294256383,"2022-03-25"
"浦东新区","上海市浦东新区鹤洁路138弄",121.60424523059997,31.075308430310802,"2022-03-25"
"浦东新区","上海市浦东新区秀沿西路218弄",121.54052186314703,31.13576460720778,"2022-03-25"
"浦东新区","上海市浦东新区新龙路69弄",121.63439002792052,31.32351248858295,"2022-03-25"
"浦东新区","上海市浦东新区浦东南路1860号",121.52450597420963,31.22222588357104,"2022-03-25"
"浦东新区","上海市浦东新区周埠村洪波村",121.76883052037437,31.007471173056008,"2022-03-25"
"浦东新区","上海市浦东新区东海3村",121.9109429910362,30.958858859678774,"2022-03-25"
"浦东新区","上海市浦东新区书礼路813号",121.8799029424444,30.98125570677017,"2022-03-25"
"浦东新区","上海市浦东新区成日村",121.83164749756776,31.068763149781116,"2022-03-25"
"浦东新区","上海市浦东新区南祝路108弄",121.76684274994189,31.114088797527916,"2022-03-25"
"浦东新区","上海市浦东新区齐河路1066号",121.5249630320531,31.18951288874278,"2022-03-25"
"浦东新区","上海市浦东新区上浦路36弄",121.49631840493424,31.15038414733,"2022-03-25"
"浦东新区","上海市浦东新区孙桥劳动9队",121.6374986141378,31.192204610664557,"2022-03-25"
"浦东新区","上海市浦东新区民乐苑",121.57530227622125,31.16147944915149,"2022-03-25"
"浦东新区","上海市浦东新区秀沿路1028弄",121.58514977071329,31.138215393031583,"2022-03-25"
"浦东新区","上海市浦东新区京浦路82弄",121.57334019732636,31.15969157298491,"2022-03-25"
"浦东新区","上海市浦东新区南码头路119弄",121.51461751698633,31.20571310038603,"2022-03-25"
"浦东新区","上海市浦东新区临沂路8弄",121.55045460683195,31.227348292436346,"2022-03-25"
"浦东新区","上海市浦东新区云雅路395弄",121.68425775152647,31.249579409437324,"2022-03-25"
"浦东新区","上海市浦东新区上南路3300号",121.50504580228588,31.164360930441298,"2022-03-25"
"浦东新区","上海市浦东新区潍坊路375弄",121.54147209071549,31.234748161879693,"2022-03-25"
"浦东新区","上海市浦东新区张杨路370弄",121.52153842195742,31.232164345489466,"2022-03-25"
"浦东新区","上海市浦东新区御青路56弄",121.57846907263557,31.165031924344618,"2022-03-25"
"浦东新区","上海市浦东新区卫行村联浜队",121.58720141066752,31.166665202015878,"2022-03-25"
"浦东新区","上海市浦东新区新陈路150弄",121.53688426481492,31.18970225553777,"2022-03-25"
"浦东新区","上海市浦东新区周康四村",121.57878895922768,31.146151880647285,"2022-03-25"
"浦东新区","上海市浦东新区祝桥镇陈胡村毛家宅",121.77555370830271,31.200086337706974,"2022-03-25"
"浦东新区","上海市浦东新区懿行路971弄",121.51939497518005,31.131133547765522,"2022-03-25"
"浦东新区","上海市浦东新区葡萄园新村",121.58271491362848,31.116971733409166,"2022-03-25"
"浦东新区","上海市浦东新区秀沿路505弄",121.56827887459148,31.141943685548398,"2022-03-25"
"浦东新区","上海市浦东新区高桥镇潼港后六村",121.57691194986458,31.35130024671919,"2022-03-25"
"浦东新区","上海市浦东新区秀康路958弄",121.58485970786411,31.120077939878794,"2022-03-25"
"浦东新区","上海市浦东新区花木路1983弄",121.57538006947841,31.2211887376643,"2022-03-25"
"浦东新区","上海市浦东新区康达路508弄",121.58485970786411,31.120077939878794,"2022-03-25"
"浦东新区","上海市浦东新区绿林路395号",121.55560171774303,31.175362816884316,"2022-03-25"
"浦东新区","上海市浦东新区仁怡苑",121.62947872220583,31.147278711220356,"2022-03-25"
"浦东新区","上海市浦东新区秀浦路168号",121.55854178184664,31.130017496994444,"2022-03-25"
"浦东新区","上海市浦东新区海阳路1125弄",121.51526025457873,31.165597159209877,"2022-03-25"
"浦东新区","上海市浦东新区沪南路2038号",121.5688786731805,31.169980723070346,"2022-03-25"
"浦东新区","上海市浦东新区新场镇王桥村",121.66913208334947,31.0246782033191,"2022-03-25"
"浦东新区","上海市浦东新区南阜村高树队油车头",121.52688154313076,31.136351345808084,"2022-03-25"
"浦东新区","上海市浦东新区商城路991弄",121.53038996513054,31.239703853545254,"2022-03-25"
"浦东新区","上海市浦东新区莲园路560弄",121.53688426481492,31.18970225553777,"2022-03-25"
"浦东新区","上海市浦东新区杨思路502弄",121.50139050733522,31.165181479780415,"2022-03-25"
"浦东新区","上海市浦东新区港辉路66弄",121.86503486232785,30.87143865766725,"2022-03-25"
"浦东新区","上海市浦东新区六团镇储店村张家宅",121.64193938742638,31.3298699592958,"2022-03-25"
"浦东新区","上海市浦东新区莲安东路80弄",121.56360687746465,31.186256677659035,"2022-03-25"
"浦东新区","上海市浦东新区瓦南村",121.65954446864147,31.10478087123219,"2022-03-25"
"浦东新区","上海市浦东新区航瑞路175弄",121.59887381280308,31.07695788211063,"2022-03-25"
"浦东新区","上海市浦东新区金家村周家宅",121.69096602758333,31.16515235665898,"2022-03-25"
"浦东新区","上海市浦东新区凌兆路396弄",121.52553031198265,31.139159418419815,"2022-03-25"
"浦东新区","上海市浦东新区银山路343号",121.58964848470724,31.25169697478493,"2022-03-25"
"浦东新区","上海市浦东新区居家桥路1030弄",121.57717353642909,31.251094982007487,"2022-03-25"
"浦东新区","上海市浦东新区大团镇赵桥村柴场",121.74431127147952,30.991982140079795,"2022-03-25"
"浦东新区","上海市浦东新区高科西路1655弄",121.53688426481492,31.18970225553777,"2022-03-25"
"浦东新区","上海市浦东新区源深路600弄2支弄",121.5413468669274,31.236006465120855,"2022-03-25"
"浦东新区","上海市浦东新区杨思路1121弄",121.51244631256873,31.17079365323609,"2022-03-25"
"浦东新区","上海市浦东新区成山路24弄",121.49230899795155,31.17414687706441,"2022-03-25"
"浦东新区","上海市浦东新区崂山五村",121.52356526867958,31.242727884421647,"2022-03-25"
"浦东新区","上海市浦东新区德州四村",121.49235274542988,31.175499765540685,"2022-03-25"
"浦东新区","上海市浦东新区前哨村马家宅",121.74420383414054,31.247222609396808,"2022-03-25"
"浦东新区","上海市浦东新区金群苑",121.6760145408447,31.293540322646237,"2022-03-25"
"浦东新区","上海市浦东新区陈行村",121.71962493775982,31.172006469530608,"2022-03-25"
"浦东新区","上海市浦东新区新川路东门街55弄",121.70170239537748,31.19852136611471,"2022-03-25"
"浦东新区","上海市浦东新区长桥村",121.74213961790915,31.15310457420541,"2022-03-25"
"浦东新区","上海市浦东新区施宏路459号",121.7664256666936,31.157952488300776,"2022-03-25"
"浦东新区","上海市浦东新区晚霞路715弄",121.76062899106826,31.184636677841034,"2022-03-25"
"浦东新区","上海市浦东新区羽山路383弄",121.55038328137447,31.239109425236762,"2022-03-25"
"浦东新区","上海市浦东新区浙桥路99号",121.6053060395767,31.25730890452016,"2022-03-25"
"浦东新区","上海市浦东新区孙桥路238弄",121.63643915261933,31.187480878631966,"2022-03-25"
"浦东新区","上海市浦东新区康桥汤巷中心村",121.84353630150066,30.888738920898795,"2022-03-25"
"浦东新区","上海市浦东新区钱堂村立达宅",121.59951870632868,31.16388174546565,"2022-03-25"
"浦东新区","上海市浦东新区御山路347弄",121.57542803899264,31.16371975057157,"2022-03-25"
"浦东新区","上海市浦东新区莲振路298号",121.57499496590628,31.17339584753415,"2022-03-25"
"浦东新区","上海市浦东新区北蔡朱家队朱家宅",121.60425852552153,31.231144524273592,"2022-03-25"
"浦东新区","上海市浦东新区盛苑路777弄",121.53535777426181,31.16412825218072,"2022-03-25"
"浦东新区","上海市浦东新区宣桥镇光明村",121.72842581650218,31.077006827055797,"2022-03-25"
"浦东新区","上海市浦东新区昌里东路190弄",121.514451330467,31.181876268964892,"2022-03-25"
"浦东新区","上海市浦东新区川新小区",121.51574417175695,31.176187595445622,"2022-03-25"
"浦东新区","上海市浦东新区东书房路412号",121.54200173164418,31.170239573035413,"2022-03-25"
"浦东新区","上海市浦东新区上南路1251弄",121.50260627401242,31.178521236106434,"2022-03-25"
"浦东新区","上海市浦东新区严民路251弄",121.5373999820082,31.194882895313757,"2022-03-25"
"浦东新区","上海市浦东新区德州二村",121.49917986730571,31.173777272107746,"2022-03-25"
"浦东新区","上海市浦东新区腰路村",121.70060897791075,31.080771413494947,"2022-03-25"
"浦东新区","上海市浦东新区民乐村",121.74050056967565,31.07019233238509,"2022-03-25"
"浦东新区","上海市浦东新区宣夏路666弄",121.76684274994189,31.114088797527916,"2022-03-25"
"浦东新区","上海市浦东新区宣桥镇五星村",121.70098833232763,31.04196014231637,"2022-03-25"
"浦东新区","上海市浦东新区宣桥镇光辉1组",121.71870938478405,31.06985788920638,"2022-03-25"
"浦东新区","上海市浦东新区瑞浦路287弄",121.5908505971407,31.100446829005506,"2022-03-25"
"浦东新区","上海市浦东新区莲溪路1099弄",121.56986339568053,31.18174774834683,"2022-03-25"
"浦东新区","上海市浦东新区莲安西路123弄",121.55996820116593,31.184721596168878,"2022-03-25"
"浦东新区","上海市浦东新区莱阳路451弄",121.5892918574198,31.282158997327386,"2022-03-25"
"浦东新区","上海市浦东新区东陆新村",121.59935000455391,31.28406489224291,"2022-03-25"
"浦东新区","上海市浦东新区长岛路588弄",121.58873194359542,31.266885513110953,"2022-03-25"
"浦东新区","上海市浦东新区南码头路1181弄",121.52132251422807,31.19014236581454,"2022-03-25"
"浦东新区","上海市浦东新区新吉村",121.72502842506343,31.11674713037451,"2022-03-25"
"浦东新区","上海市浦东新区姚桥村",121.60491842074917,31.120351998352223,"2022-03-25"
"浦东新区","上海市浦东新区关岳路338弄",121.59795116321376,31.125043019710457,"2022-03-25"
"浦东新区","上海市浦东新区苗圃路438号",121.60213861434853,31.244250205910852,"2022-03-25"
"浦东新区","上海市浦东新区潍坊路140弄",121.53155093517164,31.231112411033813,"2022-03-25"
"浦东新区","上海市浦东新区海防新村",121.55970769256804,31.25556460874112,"2022-03-25"
"浦东新区","上海市浦东新区博山路11弄",121.56421898283914,31.25189215853407,"2022-03-25"
"浦东新区","上海市浦东新区五星路348号",121.57193192377837,31.18098233644928,"2022-03-25"
"浦东新区","上海市浦东新区孙桥诸家宅",121.667825138663,31.198838903173442,"2022-03-25"
"浦东新区","上海市浦东新区双秀北苑",121.57113359967164,31.12944138333707,"2022-03-25"
"浦东新区","上海市浦东新区唐镇路127弄",121.65660494352117,31.21335549848134,"2022-03-25"
"浦东新区","上海市浦东新区南市街45弄",121.71154009833947,31.20006154979858,"2022-03-25"
"浦东新区","上海市浦东新区潍坊四村",121.53076869073354,31.22409633025275,"2022-03-25"
"浦东新区","上海市浦东新区浦东罗山路108弄",121.55887945488784,31.254641589752865,"2022-03-25"
"浦东新区","上海市浦东新区牌楼东路528弄",121.66326435175829,31.02912968730048,"2022-03-25"
"浦东新区","上海市浦东新区崂山路571弄",121.52954349184849,31.232309393717138,"2022-03-25"
"浦东新区","上海市浦东新区浦电路331弄",121.53518233519571,31.225922581402024,"2022-03-25"
"浦东新区","上海市浦东新区中界村苏家队周家宅",121.57702962788638,31.19161049851133,"2022-03-25"
"浦东新区","上海市浦东新区浦东南路575弄",121.51857302563842,31.242584396065254,"2022-03-25"
"浦东新区","上海市浦东新区浦明路258弄",121.51506190872213,31.232378328213766,"2022-03-25"
"浦东新区","上海市浦东新区商城路108弄",121.515923024384,31.233896804114586,"2022-03-25"
"浦东新区","上海市浦东新区乳山路114弄",121.52785099443713,31.240750133905028,"2022-03-25"
"浦东新区","上海市浦东新区张杨路1133弄",121.53567981678714,31.237677641037152,"2022-03-25"
"浦东新区","上海市浦东新区栖霞路190弄",121.52608115292138,31.244186142787363,"2022-03-25"
"浦东新区","上海市浦东新区孙建路665弄",121.64188773485955,31.18897289780361,"2022-03-25"
"浦东新区","上海市浦东新区孙桥路235弄",121.6381100008679,31.187806871286895,"2022-03-25"
"浦东新区","上海市浦东新区思学路165弄",121.58962611690005,31.28158489894264,"2022-03-25"
"浦东新区","上海市浦东新区申城佳苑",121.64300675403334,31.188604432520787,"2022-03-25"
"浦东新区","上海市浦东新区川周公路8682号",121.71611894118493,31.190439793852903,"2022-03-25"
"浦东新区","上海市浦东新区华夏二路200弄",121.6906064358877,31.200057534311252,"2022-03-25"
"浦东新区","上海市浦东新区创新中路399弄",121.67324470563524,31.215325489578447,"2022-03-25"
"浦东新区","上海市浦东新区川北路2999号",121.61854203228295,31.21105785665852,"2022-03-25"
"浦东新区","上海市浦东新区一六村油车队",121.59681489657422,31.16801997511156,"2022-03-25"
"浦东新区","上海市浦东新区莲园路18弄",121.55038328137447,31.19091583120769,"2022-03-25"
"浦东新区","上海市浦东新区永泰路663号",121.5243674555,31.146017593435886,"2022-03-25"
"浦东新区","上海市浦东新区严杨路45弄",121.53366581583377,31.200106183473142,"2022-03-25"
"浦东新区","上海市浦东新区成山路608弄80支弄",121.51511598671382,31.177611823719104,"2022-03-25"
"浦东新区","上海市浦东新区康沈路250弄",121.58485970786411,31.120077939878794,"2022-03-25"
"浦东新区","上海市浦东新区金葵路1115弄",121.60213861434853,31.244250205910852,"2022-03-25"
"浦东新区","上海市浦东新区红枫路358弄",121.59891513485653,31.24751088374586,"2022-03-25"
"浦东新区","上海市浦东新区卫东村",121.76222833419824,31.18234339049649,"2022-03-25"
"浦东新区","上海市浦东新区浦东大道290弄",121.52343779912772,31.24488774737473,"2022-03-25"
"浦东新区","上海市浦东新区康花路2518弄",121.52553031198265,31.139159418419815,"2022-03-25"
"浦东新区","上海市浦东新区蓝村路470弄",121.53160402502728,31.2174828969005,"2022-03-25"
"浦东新区","上海市浦东新区银冬路568号",121.6430255286185,31.211687980386134,"2022-03-25"
"浦东新区","上海市浦东新区北蔡陆家宅",121.55889831930355,31.202126568576062,"2022-03-25"
"浦东新区","上海市浦东新区妙虹新苑",121.72325714625886,31.186608701758267,"2022-03-25"
"浦东新区","上海市浦东新区航头镇果园村",121.64244189952865,31.025361102765,"2022-03-25"
"浦东新区","上海市浦东新区西市路4弄",121.55045460683195,31.227348292436346,"2022-03-25"
"浦东新区","上海市浦东新区航东村",121.60773721360891,31.03214843823002,"2022-03-25"
"浦东新区","上海市浦东新区峨山路420弄",121.53184827429543,31.219356526563455,"2022-03-25"
"浦东新区","上海市浦东新区峨山路180弄",121.53440970262659,31.220273408639333,"2022-03-25"
"浦东新区","上海市浦东新区浦东南路1969号",121.52555663233409,31.216918978603548,"2022-03-25"
"浦东新区","上海市浦东新区永安新村",121.55708014895134,31.254939565357265,"2022-03-25"
"浦东新区","上海市浦东新区蓝村路2号",121.5394749779057,31.2176228722604,"2022-03-25"
"浦东新区","上海市浦东新区东书房路390弄",121.5416177958692,31.16966648705868,"2022-03-25"
"浦东新区","上海市浦东新区广益路9弄",121.55045460683195,31.227348292436346,"2022-03-25"
"浦东新区","上海市浦东新区南泉路1211弄",121.52972225464497,31.219263571698672,"2022-03-25"
"浦东新区","上海市浦东新区惠东路298号",121.77701471238413,31.049895086747675,"2022-03-25"
"浦东新区","上海市浦东新区南新村东钟家宅",121.54865494157326,31.173251634963325,"2022-03-25"
"浦东新区","上海市浦东新区环林西路848弄",121.53335302585519,31.145449227254158,"2022-03-25"
"浦东新区","上海市浦东新区海阳西路268弄",121.48264880015834,31.156504398169673,"2022-03-25"
"浦东新区","上海市浦东新区灵岩南路1065号",121.50651183687815,31.148492604144845,"2022-03-25"
"浦东新区","上海市浦东新区凌兆路379弄",121.52553031198265,31.139159418419815,"2022-03-25"
"浦东新区","上海市浦东新区杨新路197弄",121.4985201517392,31.168845590720398,"2022-03-25"
"浦东新区","上海市浦东新区思浦路13弄",121.50015946946435,31.164910255877725,"2022-03-25"
"浦东新区","上海市浦东新区潍坊路208弄",121.5368199461404,31.23191076143255,"2022-03-25"
"浦东新区","上海市浦东新区沪南公路9847号",121.7439279645184,31.046494886917976,"2022-03-25"
"浦东新区","上海市浦东新区沪南公路2688弄",121.57105805217824,31.137466084958678,"2022-03-25"
"浦东新区","上海市浦东新区康士路1弄",121.55045460683195,31.227348292436346,"2022-03-25"
"浦东新区","上海市浦东新区陈春东路99弄",121.56589701753178,31.181856496573577,"2022-03-25"
"浦东新区","上海市浦东新区五星村姚家宅",121.57836549801027,31.179988450201478,"2022-03-25"
"浦东新区","上海市浦东新区鹏岳路152弄",121.56093334060584,31.177214966797443,"2022-03-25"
"浦东新区","上海市浦东新区御桥路1978弄",121.53688426481492,31.18970225553777,"2022-03-25"
"浦东新区","上海市浦东新区康杉路151号",121.56750552337795,31.157206273497888,"2022-03-25"
"浦东新区","上海市浦东新区康桥路787号",121.55549535837065,31.152378949324266,"2022-03-25"
"浦东新区","上海市浦东新区川周公路4011弄",121.59395999183295,31.131479828376055,"2022-03-25"
"浦东新区","上海市浦东新区下南路971弄",121.54322324747663,31.188707612213637,"2022-03-25"
"浦东新区","上海市浦东新区华夏三路299弄",121.68553990298088,31.198713571919157,"2022-03-25"
"浦东新区","上海市浦东新区北中路480弄",121.56961752946246,31.190517717719096,"2022-03-25"
"浦东新区","上海市浦东新区高青路4567弄",121.53688426481492,31.18970225553777,"2022-03-25"
"浦东新区","上海市浦东新区西行路433弄",121.55045460683195,31.227348292436346,"2022-03-25"
"浦东新区","上海市浦东新区阳光二村",121.5570400845256,31.25264657192194,"2022-03-25"
"浦东新区","上海市浦东新区卫民村",121.74780819516877,31.10401135310868,"2022-03-25"
"浦东新区","上海市浦东新区中界村黄家队黄家宅",121.73619418289135,31.260788678121866,"2022-03-25"
"浦东新区","上海市浦东新区三灶村",121.71252634795889,31.075053958120254,"2022-03-25"
"浦东新区","上海市浦东新区新浦路673弄",121.53688426481492,31.18970225553777,"2022-03-25"
"浦东新区","上海市浦东新区沈家弄路810弄",121.55032498134686,31.243971878334982,"2022-03-25"
"浦东新区","上海市浦东新区乳山三村",121.52639681747759,31.238932508563483,"2022-03-25"
"浦东新区","上海市浦东新区浦东大道727弄",121.53194062010185,31.246873128619317,"2022-03-25"
"浦东新区","上海市浦东新区浦东大道501弄",121.5251071202569,31.248512929274547,"2022-03-25"
"浦东新区","上海市浦东新区浦东大道604弄",121.5286538100714,31.24519470737441,"2022-03-25"
"浦东新区","上海市浦东新区福山路49弄",121.53247097967495,31.244225892802888,"2022-03-25"
"浦东新区","上海市浦东新区灵山路1415弄",121.57078020628401,31.244998737805226,"2022-03-25"
"浦东新区","上海市浦东新区佳林路898弄",121.61726814523924,31.270574349980258,"2022-03-25"
"浦东新区","上海市浦东新区宏雅路555弄",121.68115859751705,31.248734361132573,"2022-03-25"
"浦东新区","上海市浦东新区仁义村",121.64729337809639,31.064314697494762,"2022-03-25"
"浦东新区","上海市浦东新区佳林路919弄",121.61825789825012,31.270835776924955,"2022-03-25"
"浦东新区","上海市浦东新区罗山路1700弄",121.57507257950235,31.231436321956892,"2022-03-25"
"浦东新区","上海市浦东新区北蔡镇唐家宅",121.60414722546884,31.18260336486448,"2022-03-25"
"浦东新区","上海市浦东新区海阳路1080弄",121.51343947914056,31.16413535922777,"2022-03-25"
"浦东新区","上海市浦东新区芳华路478弄",121.53688426481492,31.18970225553777,"2022-03-25"
"浦东新区","上海市浦东新区永泰路595弄",121.52107274038106,31.1462686284638,"2022-03-25"
"浦东新区","上海市浦东新区三林路519弄",121.50863983280074,31.146373786366166,"2022-03-25"
"浦东新区","上海市浦东新区南阜村西潘家宅",121.58726590900315,31.20937161204421,"2022-03-25"
"浦东新区","上海市浦东新区樱花路802弄",121.567473903024,31.213807021168357,"2022-03-25"
"浦东新区","上海市浦东新区牡丹路145弄",121.55178149390075,31.21356574093363,"2022-03-25"
"浦东新区","上海市浦东新区鹤韵路549弄",121.60366501507109,31.080751851766777,"2022-03-25"
"浦东新区","上海市浦东新区上浦路606弄",121.50851218358778,31.152423451182038,"2022-03-25"
"浦东新区","上海市浦东新区鹏岳路233弄",121.53688426481492,31.18970225553777,"2022-03-25"
"浦东新区","上海市浦东新区锦绣路3841弄",121.55337814211418,31.174276257765616,"2022-03-25"
"浦东新区","上海市浦东新区绿林路50弄",121.55494703268735,31.17853089093836,"2022-03-25"
"浦东新区","上海市浦东新区北蔡镇丁家队丁家宅",121.56985791601693,31.192184222632797,"2022-03-25"
"浦东新区","上海市浦东新区博华路380弄",121.55452464943656,31.187116964146387,"2022-03-25"
"浦东新区","上海市浦东新区杨莲路310弄",121.53688426481492,31.18970225553777,"2022-03-25"
"浦东新区","上海市浦东新区莲园路488弄",121.53688426481492,31.18970225553777,"2022-03-25"
"浦东新区","上海市浦东新区兰城路108弄",121.58683130879741,31.271581472431155,"2022-03-25"
"浦东新区","上海市浦东新区华佗路678号",121.60025693379679,31.196328307807022,"2022-03-25"
"浦东新区","上海市浦东新区北张家浜路188弄",121.5317007725307,31.22227722330735,"2022-03-25"
"浦东新区","上海市浦东新区南泉路1250弄",121.52793112328862,31.217747714972386,"2022-03-25"
"浦东新区","上海市浦东新区宁阳路11弄",121.52442638434145,31.21811892225056,"2022-03-25"
"浦东新区","上海市浦东新区塘桥2村",121.52698556690882,31.217297523804465,"2022-03-25"
"浦东新区","上海市浦东新区南村西钟家宅",121.54865494157326,31.173251634963325,"2022-03-25"
"浦东新区","上海市浦东新区杨桥村西计队西计家宅",121.72155521663966,31.101370594210312,"2022-03-25"
"浦东新区","上海市浦东新区联勤村冯家宅",121.55744791522713,31.171212397581485,"2022-03-25"
"浦东新区","上海市浦东新区绿林路东钟家宅",121.54865494157326,31.173251634963325,"2022-03-25"
"浦东新区","上海市浦东新区张东路2281弄",121.64333032367801,31.207984388824055,"2022-03-25"
"浦东新区","上海市浦东新区南新村徐家宅",121.52662561589096,31.360191454559764,"2022-03-25"
"浦东新区","上海市浦东新区康杉路608弄",121.53688426481492,31.18970225553777,"2022-03-25"
"浦东新区","上海市浦东新区横桥路136弄11支弄",121.58485970786411,31.120077939878794,"2022-03-25"
"浦东新区","上海市浦东新区三舒路288弄",121.52553031198265,31.139159418419815,"2022-03-25"
"浦东新区","上海市浦东新区南新村",121.52662561589096,31.360191454559764,"2022-03-25"
"浦东新区","上海市浦东新区跃进新村",121.70929756846435,31.214192913832104,"2022-03-25"
"浦东新区","上海市浦东新区临沂路381弄",121.51787396429056,31.196684850271488,"2022-03-25"
"浦东新区","上海市浦东新区华丰路50弄",121.51450495930594,31.197495463859788,"2022-03-25"
"浦东新区","上海市浦东新区华丰路51弄",121.51521084777569,31.199322311123414,"2022-03-25"
"浦东新区","上海市浦东新区香楠路399弄",121.62093718426419,31.219798215319823,"2022-03-25"
"浦东新区","上海市浦东新区林家湾",121.57810831314276,31.189157400206415,"2022-03-25"
"浦东新区","上海市浦东新区东方路1881弄",121.53235680504463,31.20094881383694,"2022-03-25"
"浦东新区","上海市浦东新区东三里桥路245弄",121.52067631815949,31.205217447968764,"2022-03-25"
"浦东新区","上海市浦东新区东三街102弄",121.51710618257118,31.20763978042601,"2022-03-25"
"浦东新区","上海市浦东新区浦三路2775弄",121.53688426481492,31.18970225553777,"2022-03-25"
"浦东新区","上海市浦东新区浦三路637弄",121.52647389209034,31.194361315014945,"2022-03-25"
"浦东新区","上海市浦东新区兰陵路24弄",121.52266157333655,31.20071560861141,"2022-03-25"
"浦东新区","上海市浦东新区东三里桥路190弄",121.51802101690255,31.20624372894958,"2022-03-25"
"浦东新区","上海市浦东新区浦三路858弄",121.52533412205928,31.18786409944692,"2022-03-25"
"浦东新区","上海市浦东新区下南路161弄",121.54990421504598,31.172731479156155,"2022-03-25"
"浦东新区","上海市浦东新区鹏飞路333弄",121.53688426481492,31.18970225553777,"2022-03-25"
"浦东新区","上海市浦东新区京浦路298弄",121.57666437686603,31.160238762658587,"2022-03-25"
"浦东新区","上海市浦东新区环桥路1137弄",121.58485970786411,31.120077939878794,"2022-03-25"
"浦东新区","上海市浦东新区锦绣路2866弄",121.54594250808589,31.19235559007986,"2022-03-25"
"浦东新区","上海市浦东新区康沈路1199弄",121.58485970786411,31.120077939878794,"2022-03-25"
"浦东新区","上海市浦东新区下南路309弄",121.52969618510942,31.207201251711854,"2022-03-25"
"浦东新区","上海市浦东新区卫行村顾家队张家宅",121.58495924011461,31.172225069869427,"2022-03-25"
"浦东新区","上海市浦东新区卫行村张浜队王家宅",121.5950273584399,31.16387255262983,"2022-03-25"
"浦东新区","上海市浦东新区御桥村李家宅",121.56411783363872,31.162329302205315,"2022-03-25"
"浦东新区","上海市浦东新区中界村沈家队姚家宅",121.57417373500905,31.19544617406339,"2022-03-25"
"浦东新区","上海市浦东新区北蔡大街31弄",121.56054356584508,31.19367809757782,"2022-03-25"
"浦东新区","上海市浦东新区卫行村张家队张家宅",121.58495924011461,31.172225069869427,"2022-03-25"
"浦东新区","上海市浦东新区南阜村高树队王家宅",121.52688154313076,31.136351345808084,"2022-03-25"
"浦东新区","上海市浦东新区德州五村",121.50200952966215,31.172721823727052,"2022-03-25"
"浦东新区","上海市浦东新区上南路1500弄",121.50233130269582,31.17495691317739,"2022-03-25"
"浦东新区","上海市浦东新区灵岩路56弄",121.50007296264374,31.17253829314167,"2022-03-25"
"浦东新区","上海市浦东新区板泉路1201弄",121.51162382404378,31.169377277763573,"2022-03-25"
"浦东新区","上海市浦东新区听谐路86弄",121.75728900135162,31.062571836742553,"2022-03-25"
"浦东新区","上海市浦东新区银峰路549弄",121.69568788066599,31.272437116739326,"2022-03-25"
"浦东新区","上海市浦东新区凌河路420弄",121.60593224834773,31.279917054061343,"2022-03-25"
"浦东新区","上海市浦东新区林展路358号",121.51488871541981,31.13045164711147,"2022-03-25"
"浦东新区","上海市浦东新区永泰路2080弄",121.55116148343777,31.151700216117895,"2022-03-25"
"浦东新区","上海市浦东新区光明村",121.66490052541417,31.29664029270497,"2022-03-25"
"浦东新区","上海市浦东新区先进村",121.8100085754601,31.103827765483793,"2022-03-25"
"浦东新区","上海市浦东新区新东村",121.82126362485572,31.094541706452315,"2022-03-25"
"浦东新区","上海市浦东新区车站村",121.76588668338762,30.977901100303054,"2022-03-25"
"浦东新区","上海市浦东新区锦绣东路418弄",121.58260118815092,31.234673825663982,"2022-03-25"
"浦东新区","上海市浦东新区华夏二路1278弄",121.69602645201269,31.181511714829725,"2022-03-25"
"浦东新区","上海市浦东新区浦电路155号",121.52805140639641,31.22442999276585,"2022-03-25"
"浦东新区","上海市浦东新区博山路50弄",121.56288293305415,31.252223638107505,"2022-03-25"
"浦东新区","上海市浦东新区金台路200弄",121.59422157839744,31.257084483190823,"2022-03-25"
"浦东新区","上海市浦东新区浙桥路200号",121.606362536687,31.25700213864084,"2022-03-25"
"浦东新区","上海市浦东新区新金桥路230号",121.60603779924514,31.255251663107057,"2022-03-25"
"浦东新区","上海市浦东新区杨思北街",121.49914393508531,31.1698540400458,"2022-03-25"
"浦东新区","上海市浦东新区下南路320弄",121.547891741212,31.175548813657176,"2022-03-25"
"浦东新区","上海市浦东新区五莲路201弄",121.58708615807058,31.282666663701544,"2022-03-25"
"浦东新区","上海市浦东新区永泰路630弄",121.52411305537956,31.145365857319558,"2022-03-25"
"浦东新区","上海市浦东新区杨南路689弄",121.50710462868419,31.15691772109531,"2022-03-25"
"浦东新区","上海市浦东新区芳华路933弄",121.53688426481492,31.18970225553777,"2022-03-25"
"浦东新区","上海市浦东新区临沂路81弄",121.52588604096461,31.20134163205489,"2022-03-25"
"浦东新区","上海市浦东新区龙阳路1629号",121.55447075110595,31.206934576271852,"2022-03-25"
"浦东新区","上海市浦东新区妙镜路600弄",121.69493446734324,31.205248920469533,"2022-03-25"
"浦东新区","上海市浦东新区周秀路118弄",121.61180608841637,31.10575986233398,"2022-03-25"
"浦东新区","上海市浦东新区成山路1658号",121.5352833945656,31.182504967045293,"2022-03-25"
"浦东新区","上海市浦东新区晚霞路550弄",121.75739158784087,31.182755441039625,"2022-03-25"
"浦东新区","上海市浦东新区张杨路1673弄",121.54977189464437,31.243332632552367,"2022-03-25"
"浦东新区","上海市浦东新区芳华路673弄",121.56950497178207,31.20367904785373,"2022-03-25"
"浦东新区","上海市浦东新区南团公路858弄",121.76883132884932,31.029976482139237,"2022-03-25"
"浦东新区","上海市浦东新区安盛街256号",121.53325151733257,31.150306808206157,"2022-03-25"
"浦东新区","上海市浦东新区杨新路80弄",121.50033351024607,31.169613156321486,"2022-03-25"
"浦东新区","上海市浦东新区成山路608弄100支弄",121.51633813136016,31.174838115527916,"2022-03-25"
"浦东新区","上海市浦东新区上南路3651弄",121.51345942152287,31.160585322193327,"2022-03-25"
"浦东新区","上海市浦东新区上南路3520弄",121.50697751845452,31.159691418476573,"2022-03-25"
"浦东新区","上海市浦东新区下南路386号",121.54711497643751,31.17689542546674,"2022-03-25"
"浦东新区","上海市浦东新区康弘路428弄",121.58485970786411,31.120077939878794,"2022-03-25"
"浦东新区","上海市浦东新区永宁路122弄",121.61777218446088,31.272611269373353,"2022-03-25"
"浦东新区","上海市浦东新区康士路11号",121.5706061146762,31.15558751008565,"2022-03-25"
"浦东新区","上海市浦东新区周康一村",121.57494025910073,31.14220238105798,"2022-03-25"
"浦东新区","上海市浦东新区康弘路515弄",121.60653348422555,31.127466032407003,"2022-03-25"
"浦东新区","上海市浦东新区川周公路4318弄",121.58742940060596,31.12689477181507,"2022-03-25"
"浦东新区","上海市浦东新区苗桥路935弄",121.60251662130713,31.104273708865044,"2022-03-25"
"浦东新区","上海市浦东新区杨高南路2828号",121.52553121028816,31.18218034619194,"2022-03-25"
"浦东新区","上海市浦东新区杨高南路2030弄",121.5289322847795,31.19671087465208,"2022-03-25"
"浦东新区","上海市浦东新区菏泽路287弄",121.59958095890053,31.274795904406922,"2022-03-25"
"浦东新区","上海市浦东新区凌河路618弄",121.60815285956838,31.276965751274,"2022-03-25"
"浦东新区","上海市浦东新区浦东大道1851弄",121.5524974433922,31.253101686701353,"2022-03-25"
"浦东新区","上海市浦东新区博山东路41弄",121.56481087633966,31.25377945400249,"2022-03-25"
"浦东新区","上海市浦东新区洋泾镇路117号",121.55745303556854,31.2483270002024,"2022-03-25"
"浦东新区","上海市浦东新区浦东大道1623弄",121.54904390785909,31.25176759291442,"2022-03-25"
"浦东新区","上海市浦东新区光泽路120弄",121.62307622934456,31.336400104686092,"2022-03-25"
"浦东新区","上海市浦东新区杨思路855弄",121.50659726573217,31.168965631905674,"2022-03-25"
"浦东新区","上海市浦东新区齐恒路159号",121.52757602312053,31.192770994591644,"2022-03-25"
"浦东新区","上海市浦东新区窑墩村",121.65713790818025,31.11750889265373,"2022-03-25"
"浦东新区","上海市浦东新区周祝公路35号",121.59240601313122,31.10579418287934,"2022-03-25"
"浦东新区","上海市浦东新区已对相关居住地落实终末消毒措施",121.55045460683195,31.227348292436346,"2022-03-25"
"黄浦区","上海市黄浦区永年路149弄",121.48509928775901,31.217075940321728,"2022-03-25"
"黄浦区","上海市黄浦区顺昌路560号",121.48608095602033,31.217586430818955,"2022-03-25"
"黄浦区","上海市黄浦区丽园路873号",121.48254324926093,31.212775263924414,"2022-03-25"
"黄浦区","上海市黄浦区丽园路857号",121.4835898650106,31.212863360979554,"2022-03-25"
"黄浦区","上海市黄浦区徐家汇路388号",121.48062815174421,31.21536957552073,"2022-03-25"
"黄浦区","上海市黄浦区瞿溪路1200弄34号",121.47805127255828,31.20247969134102,"2022-03-25"
"黄浦区","上海市黄浦区滇池路119号",121.49418367172032,31.24507507259369,"2022-03-25"
"黄浦区","上海市黄浦区制造局路567弄",121.49182867399537,31.209308606024834,"2022-03-25"
"黄浦区","上海市黄浦区丽园路871号",121.48247138482013,31.21267844199958,"2022-03-25"
"黄浦区","上海市黄浦区黄陂南路783号",121.48418822631079,31.218270940779707,"2022-03-25"
"黄浦区","上海市黄浦区顺昌路612弄40号",121.4855653286576,31.220331389007576,"2022-03-25"
"黄浦区","上海市黄浦区大吉路173弄",121.49031718514428,31.22014540391755,"2022-03-25"
"黄浦区","上海市黄浦区中山南路1667号",121.50157097691218,31.210511890127517,"2022-03-25"
"黄浦区","上海市黄浦区海潮路256弄",121.50354920089032,31.212886788443296,"2022-03-25"
"黄浦区","上海市黄浦区中华路429弄",121.50449801558588,31.224494841427173,"2022-03-25"
"黄浦区","上海市黄浦区西藏南路750号",121.49090629389772,31.221189355292193,"2022-03-25"
"黄浦区","上海市黄浦区已对相关居住地落实终末消毒措施",121.49158559252436,31.23724715206362,"2022-03-25"
"静安区","上海市静安区恒通路360号",121.46343296733332,31.246703867693732,"2022-03-25"
"静安区","上海市静安区育婴堂路38弄",121.47318802618837,31.254010906319873,"2022-03-25"
"静安区","上海市静安区已对相关居住地落实终末消毒措施",121.45343177276851,31.233844930401652,"2022-03-25"
"徐汇区","上海市徐汇区龙吴路2418弄",121.46907800898856,31.125376030198847,"2022-03-25"
"徐汇区","上海市徐汇区新乐路7号",121.4644507474761,31.224509277968284,"2022-03-25"
"徐汇区","上海市徐汇区已对相关居住地落实终末消毒措施",121.44339635276381,31.194556772822725,"2022-03-25"
"长宁区","上海市长宁区天山路288弄",121.38970032056598,31.22158919129804,"2022-03-25"
"长宁区","上海市长宁区东诸安浜路103号",121.44081255662545,31.223642463948327,"2022-03-25"
"长宁区","上海市长宁区新华路569弄",121.42822954219443,31.209841530601583,"2022-03-25"
"长宁区","上海市长宁区沪青平公路58号",121.36327926907595,31.1891754720003,"2022-03-25"
"长宁区","上海市长宁区已对相关居住地落实终末消毒措施",121.43045437545099,31.226847968225428,"2022-03-25"
"普陀区","上海市普陀区交通路1461弄",121.45179191606006,31.26187878657188,"2022-03-25"
"普陀区","上海市普陀区曹杨七村",121.416892028353,31.246969606437972,"2022-03-25"
"普陀区","上海市普陀区宜昌路715弄",121.4378643179417,31.24823013787844,"2022-03-25"
"普陀区","上海市普陀区石泉路300弄",121.43423633147856,31.25806558938439,"2022-03-25"
"普陀区","上海市普陀区新村路1388弄",121.4198542806027,31.272292285081285,"2022-03-25"
"普陀区","上海市普陀区金迈路358弄",121.33527800836333,31.293253733179814,"2022-03-25"
"普陀区","上海市普陀区已对相关居住地落实终末消毒措施",121.40356934916508,31.254973368279597,"2022-03-25"
"虹口区","上海市虹口区场中路803弄",121.47577918843189,31.31289429907711,"2022-03-25"
"虹口区","上海市虹口区大连路975弄",121.51215050056429,31.273118833328333,"2022-03-25"
"虹口区","上海市虹口区车站西路80弄",121.48978260353529,31.301827199062874,"2022-03-25"
"虹口区","上海市虹口区已对相关居住地落实终末消毒措施",121.51158645453457,31.269746698931357,"2022-03-25"
"杨浦区","上海市杨浦区怀德路398号",121.53282060017943,31.26237660830946,"2022-03-25"
"杨浦区","上海市杨浦区闸殷路75弄",121.53665627487649,31.3413812449805,"2022-03-25"
"杨浦区","上海市杨浦区军工路2866号",121.54902585191834,31.341007751583398,"2022-03-25"
"杨浦区","上海市杨浦区双辽支路70弄",121.52344812964108,31.27646330064205,"2022-03-25"
"杨浦区","上海市杨浦区黄兴路2053号",121.52307371590453,31.302542872463192,"2022-03-25"
"杨浦区","上海市杨浦区许昌路1588弄",121.52045847907333,31.27844145290411,"2022-03-25"
"杨浦区","上海市杨浦区安图路6弄",121.53251993732523,31.265524144657057,"2022-03-25"
"杨浦区","上海市杨浦区已对相关居住地落实终末消毒措施",121.53251993732523,31.265524144657057,"2022-03-25"
"宝山区","上海市宝山区友谊路2858弄",121.44120098392797,31.39150489692532,"2022-03-25"
"宝山区","上海市宝山区高境路477弄",121.47848641174733,31.32976477614167,"2022-03-25"
"宝山区","上海市宝山区祁华路655弄",121.3794708665711,31.32701609157915,"2022-03-25"
"宝山区","上海市宝山区淞南四村",121.49906838759193,31.3513775739445,"2022-03-25"
"宝山区","上海市宝山区已对相关居住地落实终末消毒措施",121.4965630135246,31.41027947347614,"2022-03-25"
"闵行区","上海市闵行区报春路862弄",121.38266982232268,31.12624769444071,"2022-03-25"
"闵行区","上海市闵行区北青公路2055弄58支弄",121.32250751757239,31.202521235108193,"2022-03-25"
"闵行区","上海市闵行区北沈路260弄",121.34049985829283,31.233986502342006,"2022-03-25"
"闵行区","上海市闵行区北翟路2900弄",121.3303421789082,31.228948833312963,"2022-03-25"
"闵行区","上海市闵行区碧江路401弄",121.40774898504189,31.01701611482239,"2022-03-25"
"闵行区","上海市闵行区碧江路501弄",121.40600672150529,31.02193982513389,"2022-03-25"
"闵行区","上海市闵行区碧江路502弄",121.40611344019987,31.020731803340915,"2022-03-25"
"闵行区","上海市闵行区沧源路755弄",121.4352205149953,31.020990909612987,"2022-03-25"
"闵行区","上海市闵行区曹行村",121.44784107859662,31.097940016919736,"2022-03-25"
"闵行区","上海市闵行区漕宝路1467弄",121.38557098979771,31.166283825765817,"2022-03-25"
"闵行区","上海市闵行区春申路1717弄",121.43669948518692,31.120278653396348,"2022-03-25"
"闵行区","上海市闵行区灯辉路1169弄",121.4338888669073,31.040730795775076,"2022-03-25"
"闵行区","上海市闵行区东川路2626弄",121.4099421979445,31.015737466332922,"2022-03-25"
"闵行区","上海市闵行区东川路2718弄",121.40681052527563,31.015161581410176,"2022-03-25"
"闵行区","上海市闵行区东川路800号",121.44328397474452,31.032028841151515,"2022-03-25"
"闵行区","上海市闵行区东川路811弄",121.44215956573767,31.0204535863186,"2022-03-25"
"闵行区","上海市闵行区东兰路751弄",121.39743805473726,31.159289850453263,"2022-03-25"
"闵行区","上海市闵行区顾戴路35弄",121.41465183407222,31.15221198990936,"2022-03-25"
"闵行区","上海市闵行区行南村",121.43434538576747,31.122192250156367,"2022-03-25"
"闵行区","上海市闵行区鹤庆路411弄",121.42140475591293,31.01399649271418,"2022-03-25"
"闵行区","上海市闵行区红松路528号",121.37067735393393,31.18663395661758,"2022-03-25"
"闵行区","上海市闵行区虹梅南路1555弄",121.43301068344074,31.12380347459045,"2022-03-25"
"闵行区","上海市闵行区虹梅南路1781弄",121.43407742123384,31.113478423057806,"2022-03-25"
"闵行区","上海市闵行区虹梅南路2555弄",121.43927438810071,31.103561775366988,"2022-03-25"
"闵行区","上海市闵行区虹梅南路2638弄",121.44397261574845,31.102049768429453,"2022-03-25"
"闵行区","上海市闵行区沪光路39弄",121.42910089853912,31.08452255101005,"2022-03-25"
"闵行区","上海市闵行区沪闵路3131弄",121.4162969907832,31.061325513380435,"2022-03-25"
"闵行区","上海市闵行区华宁路1399弄",121.39689880193963,31.029361771422135,"2022-03-25"
"闵行区","上海市闵行区华展路168弄",121.4568294336989,31.118136553544623,"2022-03-25"
"闵行区","上海市闵行区建设路39弄",121.43054501447695,31.00493975497621,"2022-03-25"
"闵行区","上海市闵行区剑川路150弄",121.47059255207839,31.04974024307159,"2022-03-25"
"闵行区","上海市闵行区江航路60弄",121.54521955181146,31.052998712921138,"2022-03-25"
"闵行区","上海市闵行区金汇路588弄",121.37986621082604,31.189274171736187,"2022-03-25"
"闵行区","上海市闵行区金平路555弄",121.41730497939595,31.026085232269768,"2022-03-25"
"闵行区","上海市闵行区金平路777弄",121.41431128645338,31.02712739650283,"2022-03-25"
"闵行区","上海市闵行区金阳路116弄",121.4295399902724,31.046002183833977,"2022-03-25"
"闵行区","上海市闵行区景谷中路58弄",121.42133325079433,31.025337816029474,"2022-03-25"
"闵行区","上海市闵行区黎安路380弄",121.3807764637993,31.137019680885658,"2022-03-25"
"闵行区","上海市闵行区龙柏二村",121.36833619011382,31.188788008886583,"2022-03-25"
"闵行区","上海市闵行区龙柏四村",121.3694825177751,31.185563747026247,"2022-03-25"
"闵行区","上海市闵行区龙柏七村",121.36887167002831,31.18121543631459,"2022-03-25"
"闵行区","上海市闵行区龙吴路5413弄",121.47174202380894,31.052898864497998,"2022-03-25"
"闵行区","上海市闵行区龙吴路5511弄",121.47244099532627,31.050396277321234,"2022-03-25"
"闵行区","上海市闵行区龙吴路5599弄",121.47442095050081,31.044616877687368,"2022-03-25"
"闵行区","上海市闵行区罗秀路1501号",121.42003519933242,31.13369882233902,"2022-03-25"
"闵行区","上海市闵行区梅陇一村",121.42046602665499,31.142594827275744,"2022-03-25"
"闵行区","上海市闵行区民建村",121.4617121732984,31.101919515160706,"2022-03-25"
"闵行区","上海市闵行区南江燕路229弄",121.50876739218316,31.084071797686594,"2022-03-25"
"闵行区","上海市闵行区平南一村",121.40235196553796,31.159538841371205,"2022-03-25"
"闵行区","上海市闵行区平阳路1375弄",121.39194303010218,31.140166950475688,"2022-03-25"
"闵行区","上海市闵行区浦连路282弄",121.5466385601103,31.061522794877238,"2022-03-25"
"闵行区","上海市闵行区浦涛路100弄",121.55004192528067,31.056318322716844,"2022-03-25"
"闵行区","上海市闵行区曲吴路175弄",121.46656356203559,31.060186129250216,"2022-03-25"
"闵行区","上海市闵行区上中西路925弄",121.41958433979696,31.135219206707013,"2022-03-25"
"闵行区","上海市闵行区尚义路229弄",121.4574487255175,31.048501484502985,"2022-03-25"
"闵行区","上海市闵行区莘朱路820弄",121.40704022199452,31.119890287423026,"2022-03-25"
"闵行区","上海市闵行区塘口村",121.4864078493954,31.093782000019353,"2022-03-25"
"闵行区","上海市闵行区塘湾村",121.44902908763356,31.06164598926759,"2022-03-25"
"闵行区","上海市闵行区万源路580弄",121.40449918519845,31.151728493546962,"2022-03-25"
"闵行区","上海市闵行区王泥浜村",121.32005505369958,31.231969583731637,"2022-03-25"
"闵行区","上海市闵行区吴河路328号",121.43789503999015,31.049485392411327,"2022-03-25"
"闵行区","上海市闵行区向阳路228弄",121.44118526358154,31.081272362452705,"2022-03-25"
"闵行区","上海市闵行区新建村",121.45240653668998,31.06953048171609,"2022-03-25"
"闵行区","上海市闵行区许泾村",121.43710372266641,31.085241432374588,"2022-03-25"
"闵行区","上海市闵行区杨家巷村",121.30853401604246,31.230214548177734,"2022-03-25"
"闵行区","上海市闵行区宜山路2328弄",121.38902775923064,31.171778831109695,"2022-03-25"
"闵行区","上海市闵行区银春路1799弄",121.40304500823889,31.0313618487119,"2022-03-25"
"闵行区","上海市闵行区银春路1800弄",121.40174039914676,31.03327392749752,"2022-03-25"
"闵行区","上海市闵行区银都路2688弄",121.4131855299883,31.103773268877724,"2022-03-25"
"闵行区","上海市闵行区银林路1002弄",121.37740611135642,31.022098892305028,"2022-03-25"
"闵行区","上海市闵行区银林路100弄",121.394775080496,31.027396064753034,"2022-03-25"
"闵行区","上海市闵行区友好村",121.39821904154765,31.00085888625429,"2022-03-25"
"闵行区","上海市闵行区元江路4805弄",121.38373862621845,31.047632735013206,"2022-03-25"
"闵行区","上海市闵行区闸航路2715号",121.53855080119703,31.025546622798167,"2022-03-25"
"闵行区","上海市闵行区已对相关居住地落实终末消毒措施",121.38861193361008,31.118842580087428,"2022-03-25"
"嘉定区","上海市嘉定区新源路1288弄",121.15751834964071,31.314514584726894,"2022-03-25"
"嘉定区","上海市嘉定区福海路111弄",121.26192839906544,31.37601894380055,"2022-03-25"
"嘉定区","上海市嘉定区北和公路1650号",121.18609344791311,31.430564684513747,"2022-03-25"
"嘉定区","上海市嘉定区华江路157号",121.34804094129542,31.260091538203607,"2022-03-25"
"嘉定区","上海市嘉定区张掖路355号",121.34132962309239,31.265650852613664,"2022-03-25"
"嘉定区","上海市嘉定区黄家花园路88弄",121.32726602151983,31.258432855230087,"2022-03-25"
"嘉定区","上海市嘉定区丰庄路295号",121.36905339723299,31.2512608391224,"2022-03-25"
"嘉定区","上海市嘉定区金鼎路2388弄",121.3689868327947,31.265268413215196,"2022-03-25"
"嘉定区","上海市嘉定区曹安公路1936号",121.36683251652067,31.260835520789467,"2022-03-25"
"嘉定区","上海市嘉定区嘉定工业区陆渡村草庵村艾米公寓",121.24646748352676,31.36151930813377,"2022-03-25"
"嘉定区","上海市嘉定区已对相关居住地落实终末消毒措施",121.27259505835202,31.3801553396772,"2022-03-25"
"金山区","上海市金山区新巷村",121.3115759479909,30.855964306933544,"2022-03-25"
"金山区","上海市金山区已对相关居住地落实终末消毒措施",121.34848004512126,30.747852376570318,"2022-03-25"
"松江区","上海市松江区陈坊村",121.19006988708357,31.11166536259012,"2022-03-25"
"松江区","上海市松江区沪松公路1399弄",121.32530502059156,31.14312905837619,"2022-03-25"
"松江区","上海市松江区九亭大街671弄",121.32963368535248,31.132729318139614,"2022-03-25"
"松江区","上海市松江区九亭大街851弄",121.32613999556307,31.132257853888564,"2022-03-25"
"松江区","上海市松江区沪亭南路1059号",121.34556962509949,31.117442810638895,"2022-03-25"
"松江区","上海市松江区涞坊路288弄",121.32426181840282,31.160382454462308,"2022-03-25"
"松江区","上海市松江区沪亭南路751弄",121.34149077910088,31.124419269110113,"2022-03-25"
"松江区","上海市松江区涞亭南路1600弄",121.35070442922508,31.122886112569297,"2022-03-25"
"松江区","上海市松江区古楼公路656弄",121.26407148652059,31.111944160495963,"2022-03-25"
"松江区","上海市松江区车泾路279号",121.31688143016339,31.02720885982408,"2022-03-25"
"松江区","上海市松江区沪亭北路618弄",121.32251012265836,31.154279221671437,"2022-03-25"
"松江区","上海市松江区已对相关居住地落实终末消毒措施",121.23447959624146,31.037135176464492,"2022-03-25"
"青浦区","上海市青浦区秀龙村",121.25856667035545,31.232411135767112,"2022-03-25"
"青浦区","上海市青浦区盈港东路8300弄",121.14859548101009,31.17019932813101,"2022-03-25"
"青浦区","上海市青浦区久远路1660弄",121.11480392264126,31.216405473376795,"2022-03-25"
"青浦区","上海市青浦区华益村",121.24498465036679,31.258013420384863,"2022-03-25"
"青浦区","上海市青浦区蟠中路南侧3801",121.29236568466003,31.16155747434149,"2022-03-25"
"青浦区","上海市青浦区育才路42弄",121.27654714061023,31.173070510987216,"2022-03-25"
"青浦区","上海市青浦区诸光路488号",121.32251685994967,31.17216914530829,"2022-03-25"
"青浦区","上海市青浦区已对相关居住地落实终末消毒措施",121.13055310467274,31.155454317980737,"2022-03-25"
"崇明区","上海市崇明区潘圆公路161弄",121.7805002275934,31.34295978548574,"2022-03-25"
"崇明区","上海市崇明区丰福路599弄",121.71287138710524,31.38915345406862,"2022-03-25"
"崇明区","上海市崇明区酱园弄101号",121.40717892036527,31.629841331366578,"2022-03-25"
"崇明区","上海市崇明区小漾村",121.67945927298383,31.55449914449029,"2022-03-25"
"崇明区","上海市崇明区江南大道",121.76544086783761,31.358963780322465,"2022-03-25"
"崇明区","上海市崇明区已对相关居住地落实终末消毒措施",121.40355686271847,31.62856998440405,"2022-03-25"
"崇明区","上海市崇明区资料各区卫健委新闻办",121.40355686271847,31.62856998440405,"2022-03-25"
"崇明区","上海市崇明区编辑黄景源",121.40355686271847,31.62856998440405,"2022-03-25"
