"district","address","lng","lat","date"
"浦东新区","上海市浦东新区板泉路2000弄",121.53688426481492,31.18970225553777,"2022-04-26"
"浦东新区","上海市浦东新区板泉路2101弄",121.53960469322134,31.168815850763366,"2022-04-26"
"浦东新区","上海市浦东新区北艾路862弄",121.54340838824224,31.19022772322093,"2022-04-26"
"浦东新区","上海市浦东新区北蔡大街31弄",121.56054356584508,31.19367809757782,"2022-04-26"
"浦东新区","上海市浦东新区北蔡镇北蔡村丁家宅",121.56985791601693,31.192184222632797,"2022-04-26"
"浦东新区","上海市浦东新区北蔡镇南新村东钟家宅",121.54865494157326,31.173251634963325,"2022-04-26"
"浦东新区","上海市浦东新区北蔡镇杨桥村蒋家队北季家宅",121.57876102192631,31.19930987845819,"2022-04-26"
"浦东新区","上海市浦东新区北蔡镇一六村船舫队",121.59622237425982,31.175098805881348,"2022-04-26"
"浦东新区","上海市浦东新区北蔡镇一六村油车队",121.59681489657422,31.16801997511156,"2022-04-26"
"浦东新区","上海市浦东新区北蔡镇中界村陈家队陈家宅",121.57857947438275,31.194413133383005,"2022-04-26"
"浦东新区","上海市浦东新区北蔡镇中界村复兴队陈家宅",121.57857947438275,31.194413133383005,"2022-04-26"
"浦东新区","上海市浦东新区北蔡镇中界村复兴队顾家宅",121.57806672159766,31.193715783941315,"2022-04-26"
"浦东新区","上海市浦东新区北蔡镇中界村黄家队黄家宅",121.57417373500905,31.19544617406339,"2022-04-26"
"浦东新区","上海市浦东新区北蔡镇中界村陆家队陆家宅",121.50741975425709,31.19056320545643,"2022-04-26"
"浦东新区","上海市浦东新区北蔡镇中界村沈家队沈家宅",121.57417373500905,31.19544617406339,"2022-04-26"
"浦东新区","上海市浦东新区北蔡镇中界村沈家队姚家宅",121.57417373500905,31.19544617406339,"2022-04-26"
"浦东新区","上海市浦东新区北蔡镇中界村庄家队蔡家宅",121.57857947438275,31.194413133383005,"2022-04-26"
"浦东新区","上海市浦东新区北新园路350弄",121.63335446132862,31.32701601446308,"2022-04-26"
"浦东新区","上海市浦东新区北新园路460弄",121.6347431518165,31.326191717177842,"2022-04-26"
"浦东新区","上海市浦东新区北张家浜路188弄",121.5317007725307,31.22227722330735,"2022-04-26"
"浦东新区","上海市浦东新区博华路1018弄",121.55750199321884,31.176850857976813,"2022-04-26"
"浦东新区","上海市浦东新区博华路237弄",121.55145226493134,31.18913415400487,"2022-04-26"
"浦东新区","上海市浦东新区博山东路811弄",121.57981814785047,31.265442810713736,"2022-04-26"
"浦东新区","上海市浦东新区博山路12弄",121.56321782134827,31.253252567913812,"2022-04-26"
"浦东新区","上海市浦东新区博山路200弄",121.55886598030519,31.25030798637263,"2022-04-26"
"浦东新区","上海市浦东新区博山路78弄",121.56207131402589,31.25146659723759,"2022-04-26"
"浦东新区","上海市浦东新区博兴路462弄",121.58940908628885,31.27201836204534,"2022-04-26"
"浦东新区","上海市浦东新区博兴路465弄",121.58987225260978,31.272066665151705,"2022-04-26"
"浦东新区","上海市浦东新区博兴路616弄",121.59050564782487,31.26885013299071,"2022-04-26"
"浦东新区","上海市浦东新区博兴路760弄",121.59481931088379,31.27043152166808,"2022-04-26"
"浦东新区","上海市浦东新区博兴路799弄",121.59697731021042,31.27188533546996,"2022-04-26"
"浦东新区","上海市浦东新区博兴路986弄",121.59726297136258,31.27067103482398,"2022-04-26"
"浦东新区","上海市浦东新区曹路镇东海村胡家宅",121.67786990104503,31.30705492876369,"2022-04-26"
"浦东新区","上海市浦东新区曹路镇顾东村顾路老街",121.67338142773387,31.28469907607124,"2022-04-26"
"浦东新区","上海市浦东新区曹路镇顾东村水洞港",121.66964303952355,31.29976692689286,"2022-04-26"
"浦东新区","上海市浦东新区曹路镇顾东村吴家宅",121.66813478457229,31.299381001669992,"2022-04-26"
"浦东新区","上海市浦东新区曹路镇顾东村新屋宅",121.66573451224963,31.301817865497682,"2022-04-26"
"浦东新区","上海市浦东新区曹路镇光明村沙桥宅",121.65818551206597,31.29296768284297,"2022-04-26"
"浦东新区","上海市浦东新区曹路镇光明村双盘宅",121.65932860582741,31.296363355434945,"2022-04-26"
"浦东新区","上海市浦东新区曹路镇联合村路北宅",121.69192757380122,31.275051532610338,"2022-04-26"
"浦东新区","上海市浦东新区曹路镇联合村路南宅",121.34867488758638,31.408630188595996,"2022-04-26"
"浦东新区","上海市浦东新区曹路镇联合村西浜宅",121.68165491131131,31.303733155222663,"2022-04-26"
"浦东新区","上海市浦东新区曹路镇民建村北邵家宅",121.65451647304103,31.28037867132429,"2022-04-26"
"浦东新区","上海市浦东新区曹路镇日新村北万家宅",121.67504212513016,31.269511195913047,"2022-04-26"
"浦东新区","上海市浦东新区曹路镇日新村龚家宅",121.6774724906874,31.270006739254697,"2022-04-26"
"浦东新区","上海市浦东新区曹路镇日新村南万家宅",121.67894220833227,31.266455312945922,"2022-04-26"
"浦东新区","上海市浦东新区曹路镇日新村杨薛家宅",121.67495543864845,31.26547221132191,"2022-04-26"
"浦东新区","上海市浦东新区曹路镇五四村沈孙家宅",121.6580400764039,31.26039873322475,"2022-04-26"
"浦东新区","上海市浦东新区曹路镇新华村新宅",121.66875344757702,31.27036315536467,"2022-04-26"
"浦东新区","上海市浦东新区曹路镇新星村胡家宅",121.70827942899935,31.261838735382085,"2022-04-26"
"浦东新区","上海市浦东新区曹路镇新星村黄家圈",121.71142565421749,31.262994116567363,"2022-04-26"
"浦东新区","上海市浦东新区曹路镇星火村",121.70831760698351,31.261823069883153,"2022-04-26"
"浦东新区","上海市浦东新区曹路镇迅建村蔡家宅",121.69714879491686,31.289202814595352,"2022-04-26"
"浦东新区","上海市浦东新区曹路镇迅建村撑圩村",121.69948528754833,31.28675034579566,"2022-04-26"
"浦东新区","上海市浦东新区曹路镇迅建村黄家宅南",121.69922513827262,31.284090892321522,"2022-04-26"
"浦东新区","上海市浦东新区曹路镇永乐村曹家油车",121.64748831039206,31.28342653789337,"2022-04-26"
"浦东新区","上海市浦东新区曹路镇永乐村钱家宅",121.64781493427549,31.277677217362378,"2022-04-26"
"浦东新区","上海市浦东新区曹路镇永利村冯家宅",121.70205902266495,31.270195403071813,"2022-04-26"
"浦东新区","上海市浦东新区草高支路170弄",121.58842607056927,31.35798885280393,"2022-04-26"
"浦东新区","上海市浦东新区长岛路1203弄",121.60099758668976,31.270094010785566,"2022-04-26"
"浦东新区","上海市浦东新区长岛路1280弄",121.59964231316687,31.26688312097201,"2022-04-26"
"浦东新区","上海市浦东新区长岛路1560弄",121.60831428506853,31.270698813371908,"2022-04-26"
"浦东新区","上海市浦东新区长岛路823弄",121.59383198329778,31.268428892953793,"2022-04-26"
"浦东新区","上海市浦东新区长岛路99号",121.58323161895783,31.273668138186082,"2022-04-26"
"浦东新区","上海市浦东新区长清路119弄",121.49688038486127,31.174483266516244,"2022-04-26"
"浦东新区","上海市浦东新区长清路773弄",121.49801207014275,31.16197386509983,"2022-04-26"
"浦东新区","上海市浦东新区长清路807弄",121.4992229859702,31.16205328041866,"2022-04-26"
"浦东新区","上海市浦东新区长清路94号工地生活区",121.49513142894862,31.176750909317537,"2022-04-26"
"浦东新区","上海市浦东新区昌里东路395弄",121.5189664834518,31.18330234169044,"2022-04-26"
"浦东新区","上海市浦东新区昌里东路411弄",121.51930155140703,31.185511228668684,"2022-04-26"
"浦东新区","上海市浦东新区昌里东路650弄",121.52139900494227,31.18353589919409,"2022-04-26"
"浦东新区","上海市浦东新区昌里东路675弄",121.52415096387209,31.186762393304466,"2022-04-26"
"浦东新区","上海市浦东新区昌里东路71弄",121.51070692360975,31.18266438072873,"2022-04-26"
"浦东新区","上海市浦东新区昌里路167弄",121.50454544611682,31.181091626219736,"2022-04-26"
"浦东新区","上海市浦东新区昌邑路55弄",121.51912198013558,31.24605885186431,"2022-04-26"
"浦东新区","上海市浦东新区陈春路620弄",121.55290760968805,31.178078194108803,"2022-04-26"
"浦东新区","上海市浦东新区陈邵路103号工地生活区",121.63919118651121,31.293293005844543,"2022-04-26"
"浦东新区","上海市浦东新区成山路1488弄",121.53343153775677,31.18197984224341,"2022-04-26"
"浦东新区","上海市浦东新区成山路2008弄",121.54348528319389,31.183276545290262,"2022-04-26"
"浦东新区","上海市浦东新区成山路24弄",121.49230899795155,31.17414687706441,"2022-04-26"
"浦东新区","上海市浦东新区成山路544弄",121.51475873061251,31.174425412250987,"2022-04-26"
"浦东新区","上海市浦东新区成山路608弄",121.51511598671382,31.177611823719104,"2022-04-26"
"浦东新区","上海市浦东新区成山路668弄",121.51947303792888,31.175870831284065,"2022-04-26"
"浦东新区","上海市浦东新区城南路555弄",121.63978695759393,30.90924540339421,"2022-04-26"
"浦东新区","上海市浦东新区川北公路3056号",121.62022797206407,31.211787891784848,"2022-04-26"
"浦东新区","上海市浦东新区川环南路918弄",121.70236759060764,31.192514446419413,"2022-04-26"
"浦东新区","上海市浦东新区川沙路1666弄",121.67243200864038,31.28581336211361,"2022-04-26"
"浦东新区","上海市浦东新区川沙路4586弄",121.69958688590148,31.205495427525655,"2022-04-26"
"浦东新区","上海市浦东新区川沙路4650弄",121.70311273502816,31.20415787499188,"2022-04-26"
"浦东新区","上海市浦东新区川沙新镇陈桥村",121.70777440164164,31.20232857380201,"2022-04-26"
"浦东新区","上海市浦东新区川沙新镇陈行村东陈家宅",121.76648145146576,31.197053052111507,"2022-04-26"
"浦东新区","上海市浦东新区川沙新镇陈行村张家宅",121.72543805237599,31.172091669652595,"2022-04-26"
"浦东新区","上海市浦东新区川沙新镇杜尹村",121.75318042144063,31.167449733740366,"2022-04-26"
"浦东新区","上海市浦东新区川沙新镇果园村",121.70777440164164,31.20232857380201,"2022-04-26"
"浦东新区","上海市浦东新区川沙新镇华路村瞿家宅",121.73420838873099,31.197253369367186,"2022-04-26"
"浦东新区","上海市浦东新区川沙新镇栏杆村奚家宅",121.66941244449913,31.18114561454695,"2022-04-26"
"浦东新区","上海市浦东新区川沙新镇栏杆村周家宅",121.67290191225264,31.179777437248575,"2022-04-26"
"浦东新区","上海市浦东新区川沙新镇鹿溪村",121.70777440164164,31.20232857380201,"2022-04-26"
"浦东新区","上海市浦东新区川沙新镇吴店村郭家宅",121.72479190122266,31.147767252663712,"2022-04-26"
"浦东新区","上海市浦东新区川沙新镇药师村",121.68830201276296,31.209451836559015,"2022-04-26"
"浦东新区","上海市浦东新区川沙新镇长丰村杨家宅",121.67899889140996,31.190286185566155,"2022-04-26"
"浦东新区","上海市浦东新区川周公路2788号生活区",121.63096218392499,31.14987290440756,"2022-04-26"
"浦东新区","上海市浦东新区川周路8288弄",121.71551664267741,31.183847890376406,"2022-04-26"
"浦东新区","上海市浦东新区川周路8682弄",121.71448124040968,31.18912604486345,"2022-04-26"
"浦东新区","上海市浦东新区创新西路199弄",121.66081045059668,31.207582255485885,"2022-04-26"
"浦东新区","上海市浦东新区创新西路75弄",121.66373147062347,31.209726792242737,"2022-04-26"
"浦东新区","上海市浦东新区创新中路593弄",121.67577702886787,31.216838837693654,"2022-04-26"
"浦东新区","上海市浦东新区大同路1010弄",121.57860112354555,31.341412626376524,"2022-04-26"
"浦东新区","上海市浦东新区大团镇赵桥村",121.74557222292388,30.994066049458617,"2022-04-26"
"浦东新区","上海市浦东新区德平路100弄",121.56868266291822,31.253939981179144,"2022-04-26"
"浦东新区","上海市浦东新区德平路25弄",121.56473182545479,31.260091745972705,"2022-04-26"
"浦东新区","上海市浦东新区德州路150弄",121.49257031502441,31.17204431909572,"2022-04-26"
"浦东新区","上海市浦东新区德州路255弄",121.49763226657313,31.176228764666757,"2022-04-26"
"浦东新区","上海市浦东新区德州路262号",121.49929754532752,31.173466524744164,"2022-04-26"
"浦东新区","上海市浦东新区德州路295弄",121.49738298679412,31.17397910671918,"2022-04-26"
"浦东新区","上海市浦东新区德州路380弄",121.4933411509825,31.171454327607343,"2022-04-26"
"浦东新区","上海市浦东新区德州路420弄",121.49035248855083,31.172388749436156,"2022-04-26"
"浦东新区","上海市浦东新区东波路195弄",121.5862415712301,31.29079458195699,"2022-04-26"
"浦东新区","上海市浦东新区东波路49弄",121.58337804275595,31.290723839031642,"2022-04-26"
"浦东新区","上海市浦东新区东波路585弄",121.59286001673597,31.289979530718124,"2022-04-26"
"浦东新区","上海市浦东新区东昌新村",121.5180936898183,31.23898198660225,"2022-04-26"
"浦东新区","上海市浦东新区东方路1369号",121.53565304728295,31.218310392983337,"2022-04-26"
"浦东新区","上海市浦东新区东高路26弄",121.58267206445566,31.294097375993264,"2022-04-26"
"浦东新区","上海市浦东新区东海二村",121.90873702219533,30.960845876256776,"2022-04-26"
"浦东新区","上海市浦东新区东环龙路181弄",121.53536361324763,31.209338796414407,"2022-04-26"
"浦东新区","上海市浦东新区东靖路315弄",121.58962611690005,31.28158489894264,"2022-04-26"
"浦东新区","上海市浦东新区东靖路393弄",121.5880005432492,31.297865826686017,"2022-04-26"
"浦东新区","上海市浦东新区东靖路626弄",121.59251937928659,31.297546620102786,"2022-04-26"
"浦东新区","上海市浦东新区东靖路669弄",121.58962611690005,31.28158489894264,"2022-04-26"
"浦东新区","上海市浦东新区东陆路1018弄",121.59902095524562,31.277911928226455,"2022-04-26"
"浦东新区","上海市浦东新区东陆路1268弄",121.60156055475287,31.272878863483545,"2022-04-26"
"浦东新区","上海市浦东新区东三街102弄",121.51710618257118,31.20763978042601,"2022-04-26"
"浦东新区","上海市浦东新区东三里桥路160弄",121.5161398753341,31.20602821937022,"2022-04-26"
"浦东新区","上海市浦东新区东三里桥路170弄",121.51756719295891,31.206359166517448,"2022-04-26"
"浦东新区","上海市浦东新区东三里桥路79弄",121.51530166646273,31.20609578333686,"2022-04-26"
"浦东新区","上海市浦东新区东书房路390弄",121.5416177958692,31.16966648705868,"2022-04-26"
"浦东新区","上海市浦东新区东书房路560弄",121.54307367960921,31.167733309908424,"2022-04-26"
"浦东新区","上海市浦东新区东塘路222弄",121.57404581630445,31.306423442223387,"2022-04-26"
"浦东新区","上海市浦东新区东绣路1155弄",121.54128120079461,31.204941938527192,"2022-04-26"
"浦东新区","上海市浦东新区东义路21弄",121.59205495533793,31.35351688365208,"2022-04-26"
"浦东新区","上海市浦东新区东园四村",121.51943288367258,31.23609222457476,"2022-04-26"
"浦东新区","上海市浦东新区杜鹃路55弄",121.52969618510942,31.207201251711854,"2022-04-26"
"浦东新区","上海市浦东新区峨山路187弄",121.53406151941093,31.22075037523499,"2022-04-26"
"浦东新区","上海市浦东新区峨山路605弄",121.5284466608208,31.22089304783959,"2022-04-26"
"浦东新区","上海市浦东新区峨山路681弄",121.52639034967791,31.219607056449476,"2022-04-26"
"浦东新区","上海市浦东新区繁荣东路159弄",121.59187017389452,31.112814326185486,"2022-04-26"
"浦东新区","上海市浦东新区方竹路222弄",121.91359649568211,30.89871410251902,"2022-04-26"
"浦东新区","上海市浦东新区芳草路253弄",121.56208676488066,31.202336604581813,"2022-04-26"
"浦东新区","上海市浦东新区芳草路258号",121.56304902974296,31.19953351173709,"2022-04-26"
"浦东新区","上海市浦东新区芳草路352弄",121.5616260239846,31.199214895930286,"2022-04-26"
"浦东新区","上海市浦东新区芳甸路333弄",121.52969618510942,31.207201251711854,"2022-04-26"
"浦东新区","上海市浦东新区芳华路455弄",121.56615060917726,31.20261752700328,"2022-04-26"
"浦东新区","上海市浦东新区芳华路478弄",121.53688426481492,31.18970225553777,"2022-04-26"
"浦东新区","上海市浦东新区芳华路573弄",121.56906579021823,31.202881074402363,"2022-04-26"
"浦东新区","上海市浦东新区芳华路63号",121.55817159014597,31.20073105268403,"2022-04-26"
"浦东新区","上海市浦东新区芳华路916弄",121.57459800470143,31.202853893456744,"2022-04-26"
"浦东新区","上海市浦东新区芳华路933弄",121.53688426481492,31.18970225553777,"2022-04-26"
"浦东新区","上海市浦东新区芳华路9弄",121.57037246541304,31.20356677292133,"2022-04-26"
"浦东新区","上海市浦东新区芳芯路210弄",121.56219528018626,31.197753542850066,"2022-04-26"
"浦东新区","上海市浦东新区芳芯路363弄",121.53688426481492,31.18970225553777,"2022-04-26"
"浦东新区","上海市浦东新区高宝路379弄",121.58962611690005,31.28158489894264,"2022-04-26"
"浦东新区","上海市浦东新区高宝路528弄",121.58962611690005,31.28158489894264,"2022-04-26"
"浦东新区","上海市浦东新区高东二路47弄",121.62814150462366,31.330491493692474,"2022-04-26"
"浦东新区","上海市浦东新区高东新路500弄",121.62788908077536,31.342361696575296,"2022-04-26"
"浦东新区","上海市浦东新区高东镇革新村周家桥",121.6415321855387,31.329295306188307,"2022-04-26"
"浦东新区","上海市浦东新区高东镇珊黄村苍头宅",121.6465324234989,31.336547689860097,"2022-04-26"
"浦东新区","上海市浦东新区高东镇先锋村王朱家宅",121.63711090547969,31.31057125951238,"2022-04-26"
"浦东新区","上海市浦东新区高东镇踊跃村东孙家沟",121.66411432843182,31.31208005788978,"2022-04-26"
"浦东新区","上海市浦东新区高荷路428号",121.5830170137715,31.342940663971127,"2022-04-26"
"浦东新区","上海市浦东新区高科东路500弄",121.66018424182568,31.216640029263594,"2022-04-26"
"浦东新区","上海市浦东新区高科西路2960弄",121.56655619411501,31.19571190392392,"2022-04-26"
"浦东新区","上海市浦东新区高科西路3030弄",121.56984875330073,31.195892840738562,"2022-04-26"
"浦东新区","上海市浦东新区高桥镇陆凌村西凌家宅",121.58173863520024,31.35356684063773,"2022-04-26"
"浦东新区","上海市浦东新区高桥镇南塘村龚家宅",121.5746809183,31.34539427690696,"2022-04-26"
"浦东新区","上海市浦东新区高桥镇南塘村顾家宅",121.5746809183,31.34539427690696,"2022-04-26"
"浦东新区","上海市浦东新区高桥镇南塘村姚家宅",121.5746809183,31.34539427690696,"2022-04-26"
"浦东新区","上海市浦东新区高桥镇三岔港村草高路宅",121.51877191047834,31.380404513349472,"2022-04-26"
"浦东新区","上海市浦东新区高桥镇三岔港村三岔港",121.51447127284932,31.371531268842322,"2022-04-26"
"浦东新区","上海市浦东新区高桥镇西浜头",121.61563583429707,31.292504199206448,"2022-04-26"
"浦东新区","上海市浦东新区高青路2878弄",121.53438374159735,31.16614786788632,"2022-04-26"
"浦东新区","上海市浦东新区高青路4567弄",121.53688426481492,31.18970225553777,"2022-04-26"
"浦东新区","上海市浦东新区高翔环路562号",121.63967035753872,31.332176633033605,"2022-04-26"
"浦东新区","上海市浦东新区龚丰路576弄",121.69971210968959,31.26432959347796,"2022-04-26"
"浦东新区","上海市浦东新区龚华路425弄",121.65277879086253,31.290487771739045,"2022-04-26"
"浦东新区","上海市浦东新区龚华路479弄",121.69382398656333,31.26551897447492,"2022-04-26"
"浦东新区","上海市浦东新区龚华路50弄",121.69183253307827,31.27058283787956,"2022-04-26"
"浦东新区","上海市浦东新区龚新路549弄",121.69111478697579,31.26461835524657,"2022-04-26"
"浦东新区","上海市浦东新区拱海路79弄",121.74678161163196,31.07553127655628,"2022-04-26"
"浦东新区","上海市浦东新区拱乐路2400弄",121.74960696212194,31.067545829754987,"2022-04-26"
"浦东新区","上海市浦东新区古桐南路117弄",121.62298792591292,31.205939961452376,"2022-04-26"
"浦东新区","上海市浦东新区古棕路168弄",121.9238777819049,30.890266510779377,"2022-04-26"
"浦东新区","上海市浦东新区顾唐路3281弄",121.65277879086253,31.290487771739045,"2022-04-26"
"浦东新区","上海市浦东新区崮山路157号",121.55848599707447,31.253071819138345,"2022-04-26"
"浦东新区","上海市浦东新区崮山路717号",121.56675642641318,31.2457458744099,"2022-04-26"
"浦东新区","上海市浦东新区崮山路968号",121.56813927791524,31.241428762610123,"2022-04-26"
"浦东新区","上海市浦东新区观海路1118弄",121.79100626985479,31.064588067810718,"2022-04-26"
"浦东新区","上海市浦东新区光泽路429弄",121.62474869454303,31.336184046972157,"2022-04-26"
"浦东新区","上海市浦东新区国展路767号工地生活区",121.49211656672753,31.18691279208744,"2022-04-26"
"浦东新区","上海市浦东新区海春路150弄",121.59261513865395,31.354915900397863,"2022-04-26"
"浦东新区","上海市浦东新区海鸣路顾如路交界口工地生活区",121.68025903437936,31.29084873844594,"2022-04-26"
"浦东新区","上海市浦东新区海鹏路380弄",121.67648363598202,31.293987138169218,"2022-04-26"
"浦东新区","上海市浦东新区海顺路359弄",121.68936776241998,31.2816070420314,"2022-04-26"
"浦东新区","上海市浦东新区海松路52弄",121.68181436053933,31.28191619603565,"2022-04-26"
"浦东新区","上海市浦东新区海阳路1065弄",121.51253497532255,31.16475645125977,"2022-04-26"
"浦东新区","上海市浦东新区海阳路1080弄",121.51343947914056,31.16413535922777,"2022-04-26"
"浦东新区","上海市浦东新区航昌路376弄",121.61521767308216,31.084972297071307,"2022-04-26"
"浦东新区","上海市浦东新区航昌路489弄",121.61637509481649,31.080440873866234,"2022-04-26"
"浦东新区","上海市浦东新区航鹤路1858弄",121.590976180251,31.05615119264956,"2022-04-26"
"浦东新区","上海市浦东新区航梅路525弄",121.5806510567193,31.03066676980315,"2022-04-26"
"浦东新区","上海市浦东新区航三路航吉路交界口工地生活区",121.61429035230421,31.04579326766702,"2022-04-26"
"浦东新区","上海市浦东新区航头镇福善村飞桥",121.61737320835678,31.05637150033304,"2022-04-26"
"浦东新区","上海市浦东新区航头镇果园村航西",121.64244189952865,31.025361102765,"2022-04-26"
"浦东新区","上海市浦东新区航头镇果园村倪桥",121.60975462812323,31.030346188555583,"2022-04-26"
"浦东新区","上海市浦东新区航头镇鹤东村沙东",121.60297826050872,31.06114895730399,"2022-04-26"
"浦东新区","上海市浦东新区航头镇鹤东村沿江",121.60803796629367,31.060273364197414,"2022-04-26"
"浦东新区","上海市浦东新区航头镇鹤鸣村许冯",121.60056208817852,31.050200132685855,"2022-04-26"
"浦东新区","上海市浦东新区航头镇梅园村沙北",121.59123174816858,31.06555502677004,"2022-04-26"
"浦东新区","上海市浦东新区航头镇牌楼村谈弄",121.56382300977033,31.06163647708877,"2022-04-26"
"浦东新区","上海市浦东新区航头镇沈庄村大桥",121.57493271782597,31.081014986360636,"2022-04-26"
"浦东新区","上海市浦东新区合庆镇蔡路村东蔡家宅",121.75183443079128,31.230186868212748,"2022-04-26"
"浦东新区","上海市浦东新区合庆镇蔡路村杨家宅",121.74440496474422,31.209984837533348,"2022-04-26"
"浦东新区","上海市浦东新区合庆镇大星村尹家宅",121.72831855882428,31.227287614469063,"2022-04-26"
"浦东新区","上海市浦东新区合庆镇东风村曹家宅",121.705700034558,31.232450813592735,"2022-04-26"
"浦东新区","上海市浦东新区合庆镇共一村包家宅",121.76420748089782,31.205888844405063,"2022-04-26"
"浦东新区","上海市浦东新区合庆镇共一村张家宅",121.732101682649,31.261476576156298,"2022-04-26"
"浦东新区","上海市浦东新区合庆镇勤奋村九队新村",121.73073086844077,31.268245472765493,"2022-04-26"
"浦东新区","上海市浦东新区合庆镇勤俭村北杨家宅",121.74440496474422,31.209984837533348,"2022-04-26"
"浦东新区","上海市浦东新区合庆镇庆丰村顾家宅",121.72371950410485,31.24705219137166,"2022-04-26"
"浦东新区","上海市浦东新区合庆镇奚家村卫家宅",121.71794366916734,31.25361962114071,"2022-04-26"
"浦东新区","上海市浦东新区和炯路501弄",121.51479241706913,31.1304419100536,"2022-04-26"
"浦东新区","上海市浦东新区和龙路371弄",121.57735930600855,31.35036930823437,"2022-04-26"
"浦东新区","上海市浦东新区和龙路55弄",121.57975787174837,31.344955201239863,"2022-04-26"
"浦东新区","上海市浦东新区菏泽路567弄",121.60177210044444,31.270406002106668,"2022-04-26"
"浦东新区","上海市浦东新区鹤洁路346弄",121.61259507014579,31.07484742609801,"2022-04-26"
"浦东新区","上海市浦东新区鹤洁路625弄",121.61322873485253,31.0753186370206,"2022-04-26"
"浦东新区","上海市浦东新区鹤沙路588弄",121.60146802928533,31.08802188513857,"2022-04-26"
"浦东新区","上海市浦东新区鹤永路750弄",121.6099678858513,31.07777749395087,"2022-04-26"
"浦东新区","上海市浦东新区鹤永路751弄",121.61042602166138,31.07756872557462,"2022-04-26"
"浦东新区","上海市浦东新区洪山路121弄",121.50500277345195,31.18470970220126,"2022-04-26"
"浦东新区","上海市浦东新区洪山路1889弄",121.5163869991799,31.15759657107878,"2022-04-26"
"浦东新区","上海市浦东新区洪山路237弄",121.50688247773158,31.178985516539065,"2022-04-26"
"浦东新区","上海市浦东新区沪南公路3150弄",121.57177489997522,31.127929792678614,"2022-04-26"
"浦东新区","上海市浦东新区沪南公路4699弄工地生活区",121.59392889715409,31.077476749927833,"2022-04-26"
"浦东新区","上海市浦东新区沪南路1168弄",121.53688426481492,31.18970225553777,"2022-04-26"
"浦东新区","上海市浦东新区沪南路1391弄",121.53688426481492,31.18970225553777,"2022-04-26"
"浦东新区","上海市浦东新区沪南路2000号",121.56787580490915,31.17000814528788,"2022-04-26"
"浦东新区","上海市浦东新区沪南路3219弄",121.57455838942843,31.129993849742835,"2022-04-26"
"浦东新区","上海市浦东新区沪南路3468弄",121.57159649650094,31.122291020369307,"2022-04-26"
"浦东新区","上海市浦东新区花木街道龙王庙村南杨家堂",121.55896380577522,31.20272323948302,"2022-04-26"
"浦东新区","上海市浦东新区花山路796弄",121.5849213316221,31.35474267231962,"2022-04-26"
"浦东新区","上海市浦东新区华丰路50弄",121.51450495930594,31.197495463859788,"2022-04-26"
"浦东新区","上海市浦东新区华丰路51弄",121.51521084777569,31.199322311123414,"2022-04-26"
"浦东新区","上海市浦东新区华夏东路1881弄",121.69275572165087,31.20578298106578,"2022-04-26"
"浦东新区","上海市浦东新区华夏东路2345弄",121.70462197811548,31.206484796404514,"2022-04-26"
"浦东新区","上海市浦东新区华绣路179弄",121.53195032180136,31.190764154415543,"2022-04-26"
"浦东新区","上海市浦东新区华绣路255弄",121.53584932703689,31.19083713538742,"2022-04-26"
"浦东新区","上海市浦东新区环林东路875弄",121.53759150074292,31.147101543815356,"2022-04-26"
"浦东新区","上海市浦东新区环林东路879弄",121.53643753748482,31.144278100822874,"2022-04-26"
"浦东新区","上海市浦东新区环林西路613弄",121.53057519572668,31.14668408261998,"2022-04-26"
"浦东新区","上海市浦东新区环林西路618弄",121.52907170179465,31.14571896209596,"2022-04-26"
"浦东新区","上海市浦东新区环龙路259弄",121.53337683095121,31.21079533602553,"2022-04-26"
"浦东新区","上海市浦东新区环龙路439弄",121.5316519945415,31.207919914797163,"2022-04-26"
"浦东新区","上海市浦东新区环桥路1481弄",121.58485970786411,31.120077939878794,"2022-04-26"
"浦东新区","上海市浦东新区环庆南路508弄",121.73790500573512,31.23380795492502,"2022-04-26"
"浦东新区","上海市浦东新区环镇东路200弄",121.61055241324665,31.02659962387937,"2022-04-26"
"浦东新区","上海市浦东新区惠南镇黄路村富强",121.77243425258874,31.03565606179299,"2022-04-26"
"浦东新区","上海市浦东新区惠南镇惠东村",121.7830716271157,31.046320700815905,"2022-04-26"
"浦东新区","上海市浦东新区惠南镇陆楼村长路",121.78080403451686,31.0810009735505,"2022-04-26"
"浦东新区","上海市浦东新区惠南镇团结村",121.78377401219396,31.02723694260512,"2022-04-26"
"浦东新区","上海市浦东新区惠南镇徐庙村",121.72120272155755,31.036218516427077,"2022-04-26"
"浦东新区","上海市浦东新区吉灿路17弄",121.71289573118457,31.116515338861625,"2022-04-26"
"浦东新区","上海市浦东新区季景北路180弄",121.5909265039563,31.347849135892478,"2022-04-26"
"浦东新区","上海市浦东新区季景路19弄",121.59338067460956,31.34651061354801,"2022-04-26"
"浦东新区","上海市浦东新区济阳路65弄",121.48830893334616,31.173016198002603,"2022-04-26"
"浦东新区","上海市浦东新区江东路25号",121.55593013823747,31.368827676072844,"2022-04-26"
"浦东新区","上海市浦东新区江高路118弄",121.4856155439356,31.155665231145377,"2022-04-26"
"浦东新区","上海市浦东新区江耀路123弄",121.48339160898455,31.15822458212775,"2022-04-26"
"浦东新区","上海市浦东新区金高路1058弄",121.61602012939423,31.289339442423078,"2022-04-26"
"浦东新区","上海市浦东新区金高路2131弄",121.61704653326993,31.267471971131776,"2022-04-26"
"浦东新区","上海市浦东新区金沪路1218弄",121.61069129127848,31.246915347325004,"2022-04-26"
"浦东新区","上海市浦东新区金口路53弄",121.58303381208452,31.256732646879147,"2022-04-26"
"浦东新区","上海市浦东新区金桥路1490弄",121.59547094170073,31.256168039053936,"2022-04-26"
"浦东新区","上海市浦东新区金桥路1506弄",121.59646078454217,31.255564377215766,"2022-04-26"
"浦东新区","上海市浦东新区金桥路226弄",121.62178482534341,31.26066381567406,"2022-04-26"
"浦东新区","上海市浦东新区金桥路2552弄",121.60918438378549,31.23991303336551,"2022-04-26"
"浦东新区","上海市浦东新区金桥路2618号",121.61007999437895,31.23895589678164,"2022-04-26"
"浦东新区","上海市浦东新区金桥路989弄",121.62178482534341,31.26066381567406,"2022-04-26"
"浦东新区","上海市浦东新区金皖路55号工地生活区",121.62062897564373,31.264899862386446,"2022-04-26"
"浦东新区","上海市浦东新区金杨路220弄",121.58118716544766,31.253056383701526,"2022-04-26"
"浦东新区","上海市浦东新区金杨路660弄",121.58839992987893,31.25750168417267,"2022-04-26"
"浦东新区","上海市浦东新区金杨路785弄",121.58943756257352,31.25969878847117,"2022-04-26"
"浦东新区","上海市浦东新区金豫路100号",121.62110750298889,31.261451495825547,"2022-04-26"
"浦东新区","上海市浦东新区金钻路398弄",121.67726893465885,31.293179906356418,"2022-04-26"
"浦东新区","上海市浦东新区锦和路289弄",121.54364599004963,31.21064083456777,"2022-04-26"
"浦东新区","上海市浦东新区锦绣路1650弄",121.54600404201332,31.218861486801792,"2022-04-26"
"浦东新区","上海市浦东新区锦绣路3336弄",121.54705955098754,31.183574979857113,"2022-04-26"
"浦东新区","上海市浦东新区锦绣路3338弄",121.54528809252187,31.185490375783257,"2022-04-26"
"浦东新区","上海市浦东新区京浦路160弄",121.57469457254375,31.15991251964416,"2022-04-26"
"浦东新区","上海市浦东新区京浦路82弄",121.57334019732636,31.15969157298491,"2022-04-26"
"浦东新区","上海市浦东新区泾东一村",121.56393242338147,31.250398131937715,"2022-04-26"
"浦东新区","上海市浦东新区居家桥路199弄",121.56871509174714,31.264171399185773,"2022-04-26"
"浦东新区","上海市浦东新区居家桥路19弄",121.56689072308691,31.2680211548644,"2022-04-26"
"浦东新区","上海市浦东新区巨峰路176弄",121.60320166908903,31.285412489153977,"2022-04-26"
"浦东新区","上海市浦东新区巨峰路399弄",121.60283534010208,31.286491277884508,"2022-04-26"
"浦东新区","上海市浦东新区巨峰路667弄",121.60281279263377,31.28804660034745,"2022-04-26"
"浦东新区","上海市浦东新区巨峰路997弄",121.6237273211782,31.2870005408357,"2022-04-26"
"浦东新区","上海市浦东新区巨野路482弄",121.55494415810973,31.242174152454698,"2022-04-26"
"浦东新区","上海市浦东新区康达路688弄",121.58485970786411,31.120077939878794,"2022-04-26"
"浦东新区","上海市浦东新区康桥路90弄",121.58485970786411,31.120077939878794,"2022-04-26"
"浦东新区","上海市浦东新区康桥镇花墙村",121.55274169266035,31.156328175262196,"2022-04-26"
"浦东新区","上海市浦东新区康桥镇火箭村",121.61498941365208,31.14512934591589,"2022-04-26"
"浦东新区","上海市浦东新区康桥镇人南村",121.63357553431462,31.14529322728839,"2022-04-26"
"浦东新区","上海市浦东新区康桥镇营房村",121.572398952813,31.14248533811398,"2022-04-26"
"浦东新区","上海市浦东新区康沈路250弄",121.58485970786411,31.120077939878794,"2022-04-26"
"浦东新区","上海市浦东新区康沈路465弄",121.58485970786411,31.120077939878794,"2022-04-26"
"浦东新区","上海市浦东新区康士路15弄",121.56951673958423,31.15566839870212,"2022-04-26"
"浦东新区","上海市浦东新区康梧路189号工地生活区",121.55714895915341,31.14227717699841,"2022-04-26"
"浦东新区","上海市浦东新区康新公路79号",121.64730146284599,31.034815583857995,"2022-04-26"
"浦东新区","上海市浦东新区康泽路秀海路交界口工地生活区",121.56779935911025,31.126095062976034,"2022-04-26"
"浦东新区","上海市浦东新区莱阳路2328弄",121.5896571982707,31.31588063765626,"2022-04-26"
"浦东新区","上海市浦东新区莱阳路301弄",121.5859471965145,31.280357685263912,"2022-04-26"
"浦东新区","上海市浦东新区莱阳路350弄",121.58832150780792,31.280456057381212,"2022-04-26"
"浦东新区","上海市浦东新区莱阳路3777弄",121.58657538155761,31.338805467132957,"2022-04-26"
"浦东新区","上海市浦东新区莱阳路880弄",121.59082230051713,31.28833690890775,"2022-04-26"
"浦东新区","上海市浦东新区兰城路115弄",121.58550415223696,31.27245247181405,"2022-04-26"
"浦东新区","上海市浦东新区兰嵩路360弄",121.59949355377441,31.329141154812422,"2022-04-26"
"浦东新区","上海市浦东新区蓝村路471弄",121.5336015869898,31.217902204702717,"2022-04-26"
"浦东新区","上海市浦东新区蓝村路60弄",121.53698819876243,31.214791283664812,"2022-04-26"
"浦东新区","上海市浦东新区崂山路502号",121.52356526867958,31.242727884421647,"2022-04-26"
"浦东新区","上海市浦东新区崂山路551弄",121.52875567791624,31.232572857538436,"2022-04-26"
"浦东新区","上海市浦东新区崂山路645弄",121.53134881643189,31.227805460283697,"2022-04-26"
"浦东新区","上海市浦东新区崂山四村",121.52454199626058,31.24117281086977,"2022-04-26"
"浦东新区","上海市浦东新区老港镇大河村港南",121.84849764283229,31.02562994422893,"2022-04-26"
"浦东新区","上海市浦东新区历城路100弄",121.49791550230043,31.179897773390458,"2022-04-26"
"浦东新区","上海市浦东新区历城路22弄",121.53688426481492,31.18970225553777,"2022-04-26"
"浦东新区","上海市浦东新区利川路421弄",121.68866573666394,31.21415577617192,"2022-04-26"
"浦东新区","上海市浦东新区利津路185弄",121.58734837344896,31.284879686517,"2022-04-26"
"浦东新区","上海市浦东新区利津路385弄",121.59099567348056,31.28276487908113,"2022-04-26"
"浦东新区","上海市浦东新区莲安东路243弄",121.56697498414376,31.187509840356512,"2022-04-26"
"浦东新区","上海市浦东新区莲溪路1099弄",121.56986339568053,31.18174774834683,"2022-04-26"
"浦东新区","上海市浦东新区莲溪路126弄",121.56566040386045,31.193483178521433,"2022-04-26"
"浦东新区","上海市浦东新区莲溪路550弄",121.56673648403086,31.186506523771744,"2022-04-26"
"浦东新区","上海市浦东新区林悦路125弄",121.52553031198265,31.139159418419815,"2022-04-26"
"浦东新区","上海市浦东新区林展路411弄",121.51568173952401,31.128169902288004,"2022-04-26"
"浦东新区","上海市浦东新区临沂北路100弄",121.52618984788808,31.212369290621975,"2022-04-26"
"浦东新区","上海市浦东新区临沂路181弄",121.52066814357934,31.19757925080322,"2022-04-26"
"浦东新区","上海市浦东新区临沂路280弄",121.51602965324803,31.198943924920997,"2022-04-26"
"浦东新区","上海市浦东新区临沂路8弄",121.55045460683195,31.227348292436346,"2022-04-26"
"浦东新区","上海市浦东新区临沂路98号",121.52073398937323,31.201799081349517,"2022-04-26"
"浦东新区","上海市浦东新区灵山路1390弄",121.56966576846834,31.243150012150576,"2022-04-26"
"浦东新区","上海市浦东新区灵山路1415弄",121.57078020628401,31.244998737805226,"2022-04-26"
"浦东新区","上海市浦东新区灵山路1671弄",121.57231100870358,31.245771344870743,"2022-04-26"
"浦东新区","上海市浦东新区灵山路1840弄",121.578033843616,31.248054473360007,"2022-04-26"
"浦东新区","上海市浦东新区灵岩路56弄",121.50007296264374,31.17253829314167,"2022-04-26"
"浦东新区","上海市浦东新区灵岩南路144号",121.50050792217166,31.165827284606216,"2022-04-26"
"浦东新区","上海市浦东新区灵岩南路156弄",121.50071075955583,31.164839185970084,"2022-04-26"
"浦东新区","上海市浦东新区灵岩南路380弄",121.50329428620252,31.159025485187325,"2022-04-26"
"浦东新区","上海市浦东新区铃兰路杞青路交界口工地生活区",121.894828827476,30.900192727463445,"2022-04-26"
"浦东新区","上海市浦东新区凌河路188弄",121.60216197029179,31.281903851498075,"2022-04-26"
"浦东新区","上海市浦东新区凌河路38弄",121.60075360691324,31.282569682663706,"2022-04-26"
"浦东新区","上海市浦东新区凌河路420弄",121.60593224834773,31.279917054061343,"2022-04-26"
"浦东新区","上海市浦东新区凌空北路东靖路交界口工地生活区",121.70417291519104,31.25620932746729,"2022-04-26"
"浦东新区","上海市浦东新区凌兆路285弄",121.52553031198265,31.139159418419815,"2022-04-26"
"浦东新区","上海市浦东新区凌兆路379弄",121.52553031198265,31.139159418419815,"2022-04-26"
"浦东新区","上海市浦东新区凌兆路586弄",121.52553031198265,31.139159418419815,"2022-04-26"
"浦东新区","上海市浦东新区柳埠路135弄",121.58893424199627,31.268891029980523,"2022-04-26"
"浦东新区","上海市浦东新区龙东大道3166号",121.64506629907605,31.229273755284677,"2022-04-26"
"浦东新区","上海市浦东新区龙东大道5401弄",121.68832707548668,31.24013602934504,"2022-04-26"
"浦东新区","上海市浦东新区龙汇路168号工地生活区",121.5578943730656,31.20518856893416,"2022-04-26"
"浦东新区","上海市浦东新区龙阳路1188号",121.53717495647795,31.204222274391203,"2022-04-26"
"浦东新区","上海市浦东新区龙阳路1880弄",121.55929249576131,31.206698915055398,"2022-04-26"
"浦东新区","上海市浦东新区罗山路108弄",121.55887945488784,31.254641589752865,"2022-04-26"
"浦东新区","上海市浦东新区罗山路1502弄",121.575171482939,31.234888265801676,"2022-04-26"
"浦东新区","上海市浦东新区罗山路4088弄",121.5847599959525,31.18633584071891,"2022-04-26"
"浦东新区","上海市浦东新区绿林路320弄",121.55483474449859,31.176162646734344,"2022-04-26"
"浦东新区","上海市浦东新区绿林路50弄",121.55494703268735,31.17853089093836,"2022-04-26"
"浦东新区","上海市浦东新区茂兴路98号",121.52020273149462,31.21484849534141,"2022-04-26"
"浦东新区","上海市浦东新区苗圃路112弄",121.55248522643726,31.25072498606167,"2022-04-26"
"浦东新区","上海市浦东新区苗圃路218弄",121.55407971871747,31.248664744062587,"2022-04-26"
"浦东新区","上海市浦东新区妙境路162弄",121.69502043967206,31.20233359303947,"2022-04-26"
"浦东新区","上海市浦东新区民冬路169号生活区",121.66090279640311,31.292515616607304,"2022-04-26"
"浦东新区","上海市浦东新区民唐路秦家港路交界口工地生活区",121.69745116455151,31.27622735160854,"2022-04-26"
"浦东新区","上海市浦东新区民同路40弄",121.65727175570123,31.279284766642558,"2022-04-26"
"浦东新区","上海市浦东新区民耀路268弄",121.65922925323802,31.278209443845476,"2022-04-26"
"浦东新区","上海市浦东新区民耀路358弄",121.65277879086253,31.290487771739045,"2022-04-26"
"浦东新区","上海市浦东新区民耀路97弄",121.65950790760722,31.28071167009252,"2022-04-26"
"浦东新区","上海市浦东新区牡丹路145弄",121.55178149390075,31.21356574093363,"2022-04-26"
"浦东新区","上海市浦东新区牡丹路340弄",121.55639375371118,31.21414133803395,"2022-04-26"
"浦东新区","上海市浦东新区南码头路1316弄",121.5195835295066,31.186370595211883,"2022-04-26"
"浦东新区","上海市浦东新区南码头路144弄",121.51408347436066,31.20463778072207,"2022-04-26"
"浦东新区","上海市浦东新区南码头路1453弄",121.52288102937263,31.184649305537228,"2022-04-26"
"浦东新区","上海市浦东新区南码头路260弄",121.51478334418348,31.201976454318665,"2022-04-26"
"浦东新区","上海市浦东新区南码头路450弄",121.5163195364361,31.200368116304254,"2022-04-26"
"浦东新区","上海市浦东新区南码头路551弄",121.51842453573764,31.197425268104805,"2022-04-26"
"浦东新区","上海市浦东新区南门路150弄",121.77485958763513,31.060910455271795,"2022-04-26"
"浦东新区","上海市浦东新区南桥路237弄",121.71515946106972,31.197580409147527,"2022-04-26"
"浦东新区","上海市浦东新区南桥路86弄",121.71613160729262,31.198286764843505,"2022-04-26"
"浦东新区","上海市浦东新区南泉北路101弄",121.52204021541529,31.24412385486496,"2022-04-26"
"浦东新区","上海市浦东新区南泉路1211弄",121.52972225464497,31.219263571698672,"2022-04-26"
"浦东新区","上海市浦东新区泥城镇彭庙村学士",121.79245927901718,30.909953846627857,"2022-04-26"
"浦东新区","上海市浦东新区年家浜路28弄",121.59212753842314,31.1211568569416,"2022-04-26"
"浦东新区","上海市浦东新区宁阳路14弄",121.52273343777735,31.217447767916333,"2022-04-26"
"浦东新区","上海市浦东新区农科路21弄",121.55045460683195,31.227348292436346,"2022-04-26"
"浦东新区","上海市浦东新区欧高路138弄",121.58406785155705,31.355366970307948,"2022-04-26"
"浦东新区","上海市浦东新区鹏飞路333弄",121.53688426481492,31.18970225553777,"2022-04-26"
"浦东新区","上海市浦东新区鹏岳路152弄",121.56093334060584,31.177214966797443,"2022-04-26"
"浦东新区","上海市浦东新区鹏岳路233弄",121.53688426481492,31.18970225553777,"2022-04-26"
"浦东新区","上海市浦东新区浦城路580弄",121.52108055563897,31.230158967011022,"2022-04-26"
"浦东新区","上海市浦东新区浦电路149弄",121.52770699606388,31.22447785725831,"2022-04-26"
"浦东新区","上海市浦东新区浦电路221号",121.53004456666196,31.22498830738765,"2022-04-26"
"浦东新区","上海市浦东新区浦电路29弄",121.52179830174146,31.22198277216662,"2022-04-26"
"浦东新区","上海市浦东新区浦电路330弄",121.53452881793721,31.22662717934152,"2022-04-26"
"浦东新区","上海市浦东新区浦电路48弄",121.52301829045456,31.224774384963634,"2022-04-26"
"浦东新区","上海市浦东新区浦东北路4588弄",121.56919622417827,31.35421774378967,"2022-04-26"
"浦东新区","上海市浦东新区浦东大道136弄",121.52017353656555,31.24402420953977,"2022-04-26"
"浦东新区","上海市浦东新区浦东大道140弄",121.52166903557857,31.244048831438676,"2022-04-26"
"浦东新区","上海市浦东新区浦东大道1558号工地生活区",121.54571360187585,31.249014789279563,"2022-04-26"
"浦东新区","上海市浦东新区浦东大道1851弄",121.5524974433922,31.253101686701353,"2022-04-26"
"浦东新区","上海市浦东新区浦东大道2511弄",121.56640626692538,31.265127505972,"2022-04-26"
"浦东新区","上海市浦东新区浦东大道2778弄",121.5813748214687,31.275651133477883,"2022-04-26"
"浦东新区","上海市浦东新区浦东大道2894号",121.5828239679174,31.278944432984467,"2022-04-26"
"浦东新区","上海市浦东新区浦东大道2970弄",121.58527436568751,31.2829352319847,"2022-04-26"
"浦东新区","上海市浦东新区浦东大道3036弄",121.58404099222233,31.28568683580724,"2022-04-26"
"浦东新区","上海市浦东新区浦东大道604弄",121.5286538100714,31.24519470737441,"2022-04-26"
"浦东新区","上海市浦东新区浦东大道637号",121.52928909172805,31.246789771703828,"2022-04-26"
"浦东新区","上海市浦东新区浦东南路1288号",121.52355987884653,31.230896186745355,"2022-04-26"
"浦东新区","上海市浦东新区浦东南路1399号",121.52445117757352,31.230066872032918,"2022-04-26"
"浦东新区","上海市浦东新区浦东南路1449号",121.52469003700863,31.229342846411402,"2022-04-26"
"浦东新区","上海市浦东新区浦东南路1533号",121.5276446536615,31.227372301137734,"2022-04-26"
"浦东新区","上海市浦东新区浦东南路1700弄",121.5250607676926,31.22378497774176,"2022-04-26"
"浦东新区","上海市浦东新区浦东南路1862弄",121.5241351536951,31.221747612042826,"2022-04-26"
"浦东新区","上海市浦东新区浦东南路2192弄",121.5198796110027,31.212275556710914,"2022-04-26"
"浦东新区","上海市浦东新区浦东南路2351弄",121.51946171927945,31.20559866583432,"2022-04-26"
"浦东新区","上海市浦东新区浦东南路2362号",121.51810914067308,31.205290958198496,"2022-04-26"
"浦东新区","上海市浦东新区浦东南路2366号",121.51781314900754,31.204944486684365,"2022-04-26"
"浦东新区","上海市浦东新区浦东南路3405弄",121.51540326481592,31.20034881113828,"2022-04-26"
"浦东新区","上海市浦东新区浦东南路3606弄",121.51135909341001,31.196098875064006,"2022-04-26"
"浦东新区","上海市浦东新区浦东南路3643弄",121.51224617010111,31.19512553650647,"2022-04-26"
"浦东新区","上海市浦东新区浦东南路3666弄",121.51043608449851,31.194622028301904,"2022-04-26"
"浦东新区","上海市浦东新区浦东南路3905弄",121.50819768682872,31.188934282771708,"2022-04-26"
"浦东新区","上海市浦东新区浦东南路978号",121.52113418447793,31.236312064831985,"2022-04-26"
"浦东新区","上海市浦东新区浦建路1086弄",121.54495742626365,31.21291640447759,"2022-04-26"
"浦东新区","上海市浦东新区浦建路60弄",121.52445369282894,31.213159230587877,"2022-04-26"
"浦东新区","上海市浦东新区浦建路729号",121.5378676398567,31.21475190718692,"2022-04-26"
"浦东新区","上海市浦东新区浦建路83弄",121.5253901763231,31.215623976480853,"2022-04-26"
"浦东新区","上海市浦东新区浦明路1188弄",121.52046449772024,31.220537060756545,"2022-04-26"
"浦东新区","上海市浦东新区浦明路258弄",121.51506190872213,31.232378328213766,"2022-04-26"
"浦东新区","上海市浦东新区浦三路12弄",121.51782779138736,31.202722003983574,"2022-04-26"
"浦东新区","上海市浦东新区浦三路2801弄",121.53688426481492,31.18970225553777,"2022-04-26"
"浦东新区","上海市浦东新区浦三路657号",121.53688426481492,31.18970225553777,"2022-04-26"
"浦东新区","上海市浦东新区浦三路817弄",121.52567502900033,31.188961853906115,"2022-04-26"
"浦东新区","上海市浦东新区浦三路秀浦路交界口工地生活区",121.61602489041343,31.135717238318502,"2022-04-26"
"浦东新区","上海市浦东新区普庆路301弄",121.73065891416942,31.161213390490985,"2022-04-26"
"浦东新区","上海市浦东新区栖山路100弄",121.5504374491967,31.247552793436665,"2022-04-26"
"浦东新区","上海市浦东新区栖山路1636弄",121.57377461787098,31.2647932169634,"2022-04-26"
"浦东新区","上海市浦东新区栖山路1689弄",121.57390154843955,31.265103198293538,"2022-04-26"
"浦东新区","上海市浦东新区栖山路1876弄",121.57928653064965,31.26737165620498,"2022-04-26"
"浦东新区","上海市浦东新区栖山路1899弄",121.58012761409864,31.267992295212288,"2022-04-26"
"浦东新区","上海市浦东新区栖山路400弄",121.55757897800103,31.25201788165849,"2022-04-26"
"浦东新区","上海市浦东新区栖山路401弄",121.55603344337112,31.253987830572694,"2022-04-26"
"浦东新区","上海市浦东新区栖山路465弄",121.5573284405943,31.253880941167854,"2022-04-26"
"浦东新区","上海市浦东新区栖霞路190弄",121.52608115292138,31.244186142787363,"2022-04-26"
"浦东新区","上海市浦东新区齐河路28弄",121.53688426481492,31.18970225553777,"2022-04-26"
"浦东新区","上海市浦东新区齐河路438弄",121.51495483070534,31.185495627621506,"2022-04-26"
"浦东新区","上海市浦东新区千汇路1000弄",121.77126178423713,31.126797320222785,"2022-04-26"
"浦东新区","上海市浦东新区千汇路581弄",121.77147603010125,31.117495908121153,"2022-04-26"
"浦东新区","上海市浦东新区清溪路365弄",121.57808163346913,31.347103664355974,"2022-04-26"
"浦东新区","上海市浦东新区清溪路400弄",121.57747563657209,31.347650837499692,"2022-04-26"
"浦东新区","上海市浦东新区庆利路425弄",121.73224478271673,31.237548888222076,"2022-04-26"
"浦东新区","上海市浦东新区人民东路2437弄",121.78355976632982,31.054319857694352,"2022-04-26"
"浦东新区","上海市浦东新区乳山路114弄",121.52785099443713,31.240750133905028,"2022-04-26"
"浦东新区","上海市浦东新区瑞安路211弄",121.59732225952624,31.09677571959406,"2022-04-26"
"浦东新区","上海市浦东新区瑞福路52弄",121.60760264744353,31.101758418286778,"2022-04-26"
"浦东新区","上海市浦东新区瑞和路269弄",121.59563991296716,31.09350693638289,"2022-04-26"
"浦东新区","上海市浦东新区瑞浦路611弄",121.59207364009254,31.097330078746456,"2022-04-26"
"浦东新区","上海市浦东新区瑞浦路8弄",121.55045460683195,31.227348292436346,"2022-04-26"
"浦东新区","上海市浦东新区瑞阳路351弄",121.59661493376767,31.100857693060114,"2022-04-26"
"浦东新区","上海市浦东新区瑞意路399弄",121.59268628445034,31.102791860761887,"2022-04-26"
"浦东新区","上海市浦东新区三林路1466弄",121.52779952153142,31.151570340712677,"2022-04-26"
"浦东新区","上海市浦东新区三林路1662弄",121.53161588266,31.152710549465624,"2022-04-26"
"浦东新区","上海市浦东新区三林路168号",121.50263852318024,31.141592189223104,"2022-04-26"
"浦东新区","上海市浦东新区三林路184号",121.5025309960107,31.14241486936929,"2022-04-26"
"浦东新区","上海市浦东新区三林路235号",121.50273652831137,31.143691257217654,"2022-04-26"
"浦东新区","上海市浦东新区三林路380号",121.50559457712193,31.144386197092153,"2022-04-26"
"浦东新区","上海市浦东新区三林路788弄",121.51430643378824,31.147340445444716,"2022-04-26"
"浦东新区","上海市浦东新区三林路88弄",121.53688426481492,31.18970225553777,"2022-04-26"
"浦东新区","上海市浦东新区三林镇红旗村东桥队毛家塘",121.50789055617487,31.133660107274697,"2022-04-26"
"浦东新区","上海市浦东新区三林镇胡巷村东朱家宅",121.52256446651091,31.166204800272343,"2022-04-26"
"浦东新区","上海市浦东新区三林镇胡巷村金家宅",121.52500489308987,31.158715770519464,"2022-04-26"
"浦东新区","上海市浦东新区三林镇胡巷村马家宅",121.52500489308987,31.158715770519464,"2022-04-26"
"浦东新区","上海市浦东新区三林镇胡巷村张家宅",121.52958652068241,31.167835971840162,"2022-04-26"
"浦东新区","上海市浦东新区三林镇金光村陆家湾队陆家湾",121.5260931902152,31.13616743498578,"2022-04-26"
"浦东新区","上海市浦东新区三林镇联丰村顾家队顾家宅",121.5202445925314,31.157059254807656,"2022-04-26"
"浦东新区","上海市浦东新区三林镇临江村临江队王家渡",121.48103454515693,31.130823354677393,"2022-04-26"
"浦东新区","上海市浦东新区三林镇临江村庞家队庞家宅",121.482806722267,31.124007039641032,"2022-04-26"
"浦东新区","上海市浦东新区三林镇临江村泰保队泰保堂",121.48492124360695,31.12396584750807,"2022-04-26"
"浦东新区","上海市浦东新区三林镇临江村王家宅队王家宅",121.48402985504939,31.126877924520862,"2022-04-26"
"浦东新区","上海市浦东新区三林镇临江村益民队小金家宅",121.48845769273862,31.12994199578137,"2022-04-26"
"浦东新区","上海市浦东新区三林镇临江村张塘队塘湾宅",121.49501181956997,31.131568697329346,"2022-04-26"
"浦东新区","上海市浦东新区三林镇临江村周南队庞信隆",121.47992289208833,31.12193527708931,"2022-04-26"
"浦东新区","上海市浦东新区三林镇临江村周南队周家宅",121.47873641017075,31.124012372204763,"2022-04-26"
"浦东新区","上海市浦东新区三林镇南阜村东汤队东汤家宅",121.52616765974199,31.136051601892248,"2022-04-26"
"浦东新区","上海市浦东新区三林镇南阜村红光队顾家宅",121.52616765974199,31.136051601892248,"2022-04-26"
"浦东新区","上海市浦东新区三林镇三林村镇前队金家宅",121.59324952200511,31.131094754366096,"2022-04-26"
"浦东新区","上海市浦东新区三林镇天花庵村北陈队大陈家宅",121.53193954213525,31.128535900177152,"2022-04-26"
"浦东新区","上海市浦东新区三林镇天花庵村东瞿队大瞿家宅",121.53261120516505,31.1270776188598,"2022-04-26"
"浦东新区","上海市浦东新区三林镇天花庵村乐耕队",121.52853496425243,31.13252183088585,"2022-04-26"
"浦东新区","上海市浦东新区三林镇天花庵村闵北队闵家宅",121.53989017471241,31.12623849791897,"2022-04-26"
"浦东新区","上海市浦东新区三林镇天花庵村南陈队大陈家宅",121.53193954213525,31.128535900177152,"2022-04-26"
"浦东新区","上海市浦东新区三林镇天花庵村南王家队南王家宅",121.55380142367048,31.162845112362536,"2022-04-26"
"浦东新区","上海市浦东新区三林镇天花庵村南周家队大周家宅",121.53193954213525,31.128535900177152,"2022-04-26"
"浦东新区","上海市浦东新区三林镇天花庵村卫家队",121.53126967571646,31.13278372068077,"2022-04-26"
"浦东新区","上海市浦东新区三林镇天花庵村西瞿队大瞿家宅",121.53261120516505,31.1270776188598,"2022-04-26"
"浦东新区","上海市浦东新区三林镇西林村圈门队西林街",121.50505047347453,31.142465402882358,"2022-04-26"
"浦东新区","上海市浦东新区三林镇新春村陈桥队陈家桥",121.48244489558725,31.134022953659134,"2022-04-26"
"浦东新区","上海市浦东新区三林镇新春村方家队方巷",121.48507108096601,31.129238448295137,"2022-04-26"
"浦东新区","上海市浦东新区三林镇新春村方家队许家宅",121.48507108096601,31.129238448295137,"2022-04-26"
"浦东新区","上海市浦东新区三林镇新任村",121.50281306394082,31.161867720395563,"2022-04-26"
"浦东新区","上海市浦东新区三林镇懿德村吴家队吴家宅",121.5221809798887,31.125604863131734,"2022-04-26"
"浦东新区","上海市浦东新区三林镇懿德村小陈家队小陈家宅",121.52472668787344,31.1243504097577,"2022-04-26"
"浦东新区","上海市浦东新区三林镇中林村三林桥队天打桥",121.50504616160806,31.14249746924122,"2022-04-26"
"浦东新区","上海市浦东新区三林镇中林村小中林队小中林",121.51426493207367,31.145698409425464,"2022-04-26"
"浦东新区","上海市浦东新区商城路1317弄",121.53766659908355,31.242637577090154,"2022-04-26"
"浦东新区","上海市浦东新区上南路1000弄",121.50066746123024,31.180593835385782,"2022-04-26"
"浦东新区","上海市浦东新区上南路1251弄",121.50260627401242,31.178521236106434,"2022-04-26"
"浦东新区","上海市浦东新区上南路1500弄",121.50233130269582,31.17495691317739,"2022-04-26"
"浦东新区","上海市浦东新区上南路1551弄",121.50452460542898,31.17454150695551,"2022-04-26"
"浦东新区","上海市浦东新区上南路3521号",121.51158546639851,31.161595328123152,"2022-04-26"
"浦东新区","上海市浦东新区上南路3651弄",121.51345942152287,31.160585322193327,"2022-04-26"
"浦东新区","上海市浦东新区上南路3899弄",121.5152621410203,31.15811542021869,"2022-04-26"
"浦东新区","上海市浦东新区上南路4071弄",121.51537568683676,31.15270251443411,"2022-04-26"
"浦东新区","上海市浦东新区上南路4185弄",121.51939174128022,31.151945982231677,"2022-04-26"
"浦东新区","上海市浦东新区上南路4265弄",121.51980478215371,31.151809926314225,"2022-04-26"
"浦东新区","上海市浦东新区上南路6500弄",121.58485970786411,31.120077939878794,"2022-04-26"
"浦东新区","上海市浦东新区上南路6555弄",121.58485970786411,31.120077939878794,"2022-04-26"
"浦东新区","上海市浦东新区上浦路606弄",121.50851218358778,31.152423451182038,"2022-04-26"
"浦东新区","上海市浦东新区尚博路650弄",121.52844791844852,31.155241395638473,"2022-04-26"
"浦东新区","上海市浦东新区申江路985弄",121.63373516320374,31.292824425912787,"2022-04-26"
"浦东新区","上海市浦东新区申启路轲桥路交界口工地生活区",121.63667774256278,31.29081163122542,"2022-04-26"
"浦东新区","上海市浦东新区沈家弄路900弄",121.55137033946883,31.24494602122636,"2022-04-26"
"浦东新区","上海市浦东新区沈家弄路936号",121.55367107954098,31.2460098406675,"2022-04-26"
"浦东新区","上海市浦东新区沈梅路123弄",121.58174312672779,31.097036317505232,"2022-04-26"
"浦东新区","上海市浦东新区盛荣路288弄",121.63626380338377,31.194416454082223,"2022-04-26"
"浦东新区","上海市浦东新区世博家园大道站路94弄",121.5456103147083,31.165459346349106,"2022-04-26"
"浦东新区","上海市浦东新区双桥路1108弄",121.58962611690005,31.28158489894264,"2022-04-26"
"浦东新区","上海市浦东新区硕川路125弄",121.69351928133435,31.206800376084324,"2022-04-26"
"浦东新区","上海市浦东新区思浦路13弄",121.50015946946435,31.164910255877725,"2022-04-26"
"浦东新区","上海市浦东新区思浦路17弄",121.49938162672326,31.16382581592963,"2022-04-26"
"浦东新区","上海市浦东新区孙建路665弄",121.64188773485955,31.18897289780361,"2022-04-26"
"浦东新区","上海市浦东新区孙农路397弄",121.63572841329983,31.175210419751828,"2022-04-26"
"浦东新区","上海市浦东新区孙桥路788号工地生活区",121.63755511755437,31.176727814519445,"2022-04-26"
"浦东新区","上海市浦东新区台儿庄路663弄",121.60033796095378,31.264978881782035,"2022-04-26"
"浦东新区","上海市浦东新区唐镇大众村包家宅",121.65488720372498,31.245149014624616,"2022-04-26"
"浦东新区","上海市浦东新区唐镇大众村小包新村",121.64158985675243,31.231177255064335,"2022-04-26"
"浦东新区","上海市浦东新区唐镇大众村中心新村",121.65463612733495,31.23453194599384,"2022-04-26"
"浦东新区","上海市浦东新区唐镇虹三村龚家宅",121.67957668151398,31.259966342393376,"2022-04-26"
"浦东新区","上海市浦东新区唐镇虹四村卫家宅",121.66270452776448,31.24662382947495,"2022-04-26"
"浦东新区","上海市浦东新区唐镇虹四村吴张家宅",121.65836822740671,31.246790543527457,"2022-04-26"
"浦东新区","上海市浦东新区唐镇吕三村东蒋家宅",121.64844419728523,31.222081282929306,"2022-04-26"
"浦东新区","上海市浦东新区唐镇吕三村三林新村",121.64844419728523,31.222081282929306,"2022-04-26"
"浦东新区","上海市浦东新区唐镇民丰村东龚家宅",121.64474219044806,31.207675762451128,"2022-04-26"
"浦东新区","上海市浦东新区唐镇民丰村李家宅",121.64861595329873,31.214212833818383,"2022-04-26"
"浦东新区","上海市浦东新区唐镇暮二村顾家宅",121.68257405750913,31.224491521794413,"2022-04-26"
"浦东新区","上海市浦东新区唐镇暮二村小丁家宅",121.66972460566384,31.2288207632593,"2022-04-26"
"浦东新区","上海市浦东新区唐镇前进村顾家宅",121.64855217360753,31.2141666626809,"2022-04-26"
"浦东新区","上海市浦东新区唐镇前进村西李家宅",121.64855217360753,31.2141666626809,"2022-04-26"
"浦东新区","上海市浦东新区唐镇唐四村费家宅",121.66677699579395,31.218435852424488,"2022-04-26"
"浦东新区","上海市浦东新区唐镇小湾村北街",121.69783994129489,31.23973798369629,"2022-04-26"
"浦东新区","上海市浦东新区唐镇小湾村张家宅",121.69194760601408,31.236233793114234,"2022-04-26"
"浦东新区","上海市浦东新区唐镇新虹村刘家宅",121.65503362752312,31.248713367963926,"2022-04-26"
"浦东新区","上海市浦东新区唐镇新虹村陆家宅",121.65503362752312,31.248713367963926,"2022-04-26"
"浦东新区","上海市浦东新区唐镇新虹村缪家宅",121.65503362752312,31.248713367963926,"2022-04-26"
"浦东新区","上海市浦东新区唐镇一心村缪家宅",121.68884881132688,31.250038784030753,"2022-04-26"
"浦东新区","上海市浦东新区唐镇一心村袁家宅",121.68884881132688,31.250038784030753,"2022-04-26"
"浦东新区","上海市浦东新区唐镇一心村朱家宅",121.68884881132688,31.250038784030753,"2022-04-26"
"浦东新区","上海市浦东新区塘南路159弄",121.51640083308476,31.208002070914677,"2022-04-26"
"浦东新区","上海市浦东新区塘桥路400弄",121.52454792507694,31.217074087356593,"2022-04-26"
"浦东新区","上海市浦东新区塘桥路551号",121.52765300790274,31.21690585341106,"2022-04-26"
"浦东新区","上海市浦东新区听民路242弄",121.76628903442554,31.07406188889486,"2022-04-26"
"浦东新区","上海市浦东新区听悦路685弄",121.74498086840666,31.060350004053333,"2022-04-26"
"浦东新区","上海市浦东新区听悦路686弄",121.74553889578945,31.060316904304834,"2022-04-26"
"浦东新区","上海市浦东新区晚霞路715弄",121.76062899106826,31.184636677841034,"2022-04-26"
"浦东新区","上海市浦东新区万安街333弄",121.62048704337315,31.302043336402377,"2022-04-26"
"浦东新区","上海市浦东新区万德路45弄",121.56391661320447,31.25764761918562,"2022-04-26"
"浦东新区","上海市浦东新区万德路67弄",121.56710955030915,31.254592197175523,"2022-04-26"
"浦东新区","上海市浦东新区王桥街41弄",121.70667209095035,31.208840615134932,"2022-04-26"
"浦东新区","上海市浦东新区微山二村",121.51989685846848,31.214418673428547,"2022-04-26"
"浦东新区","上海市浦东新区潍坊路154弄",121.53230434400284,31.231346466894244,"2022-04-26"
"浦东新区","上海市浦东新区潍坊路208弄",121.5368199461404,31.23191076143255,"2022-04-26"
"浦东新区","上海市浦东新区潍坊路278号",121.54073009036425,31.234260459648702,"2022-04-26"
"浦东新区","上海市浦东新区潍坊路328号工地生活区",121.54157988737668,31.234246410575576,"2022-04-26"
"浦东新区","上海市浦东新区潍坊路716号",121.52839779300106,31.229747279368976,"2022-04-26"
"浦东新区","上海市浦东新区潍坊新村",121.53626066112989,31.234929949572674,"2022-04-26"
"浦东新区","上海市浦东新区五莲路100弄",121.58579735915542,31.281678100479343,"2022-04-26"
"浦东新区","上海市浦东新区五莲路108弄",121.58877362497108,31.277157873113886,"2022-04-26"
"浦东新区","上海市浦东新区五莲路30弄",121.58450074498232,31.281555271944608,"2022-04-26"
"浦东新区","上海市浦东新区五莲路759弄",121.59770287157082,31.276387222961237,"2022-04-26"
"浦东新区","上海市浦东新区五莲路780弄",121.59713693909953,31.274305479007058,"2022-04-26"
"浦东新区","上海市浦东新区五星路239弄",121.56995448385925,31.181781423237346,"2022-04-26"
"浦东新区","上海市浦东新区西门路450弄",121.74659665052745,31.053029185617888,"2022-04-26"
"浦东新区","上海市浦东新区西三里桥路9弄",121.55045460683195,31.227348292436346,"2022-04-26"
"浦东新区","上海市浦东新区西泰林路901弄",121.54507097208011,31.149459936767588,"2022-04-26"
"浦东新区","上海市浦东新区西营路33弄",121.49042273604171,31.176566691455395,"2022-04-26"
"浦东新区","上海市浦东新区西营南路11弄",121.49253501161785,31.167063880290602,"2022-04-26"
"浦东新区","上海市浦东新区西营南路17弄",121.49259825232576,31.165951192105105,"2022-04-26"
"浦东新区","上海市浦东新区西营南路18弄",121.4931336424097,31.165473482991562,"2022-04-26"
"浦东新区","上海市浦东新区下南路1071弄",121.54152697718213,31.191389935442906,"2022-04-26"
"浦东新区","上海市浦东新区下南路161弄",121.54990421504598,31.172731479156155,"2022-04-26"
"浦东新区","上海市浦东新区下南路276弄",121.53688426481492,31.18970225553777,"2022-04-26"
"浦东新区","上海市浦东新区下南路309弄",121.52969618510942,31.207201251711854,"2022-04-26"
"浦东新区","上海市浦东新区下南路320弄",121.547891741212,31.175548813657176,"2022-04-26"
"浦东新区","上海市浦东新区下南路339弄",121.55064127471694,31.17679107417024,"2022-04-26"
"浦东新区","上海市浦东新区下南路500弄",121.5437208188986,31.177967587760506,"2022-04-26"
"浦东新区","上海市浦东新区下南路526弄",121.54440200396682,31.17804189176027,"2022-04-26"
"浦东新区","上海市浦东新区下沙街北桥弄",121.59924573913167,31.05543200159553,"2022-04-26"
"浦东新区","上海市浦东新区小园浜路88弄",121.58658463410438,31.35853734960907,"2022-04-26"
"浦东新区","上海市浦东新区新场镇金建村长桥",121.68072920119515,31.04408340872747,"2022-04-26"
"浦东新区","上海市浦东新区新场镇坦西村",121.65331067755497,31.091888312065223,"2022-04-26"
"浦东新区","上海市浦东新区新场镇新卫村",121.64761515113007,31.044082628274037,"2022-04-26"
"浦东新区","上海市浦东新区新场镇祝桥村",121.68087122958441,31.07432873566681,"2022-04-26"
"浦东新区","上海市浦东新区新村路59弄",121.50318639971077,31.170014556678424,"2022-04-26"
"浦东新区","上海市浦东新区新德路330弄",121.70575860407725,31.205259067738275,"2022-04-26"
"浦东新区","上海市浦东新区新德西路207弄",121.68014000889929,31.197583884180386,"2022-04-26"
"浦东新区","上海市浦东新区新德西路508弄",121.67638760712302,31.198096102613977,"2022-04-26"
"浦东新区","上海市浦东新区新德西路511弄",121.6741505569115,31.19703598574109,"2022-04-26"
"浦东新区","上海市浦东新区新金桥路1568号",121.62539807959618,31.262790081548378,"2022-04-26"
"浦东新区","上海市浦东新区新浦路199弄",121.54524578233234,31.1712264561122,"2022-04-26"
"浦东新区","上海市浦东新区新浦路251弄",121.54134201607764,31.17422589586613,"2022-04-26"
"浦东新区","上海市浦东新区新浦路543弄",121.536926664835,31.1758010055361,"2022-04-26"
"浦东新区","上海市浦东新区新浦路629弄",121.54201269097139,31.17757706597876,"2022-04-26"
"浦东新区","上海市浦东新区新元南路正茂路交界口工地生活区",121.82788341781985,30.883671131631182,"2022-04-26"
"浦东新区","上海市浦东新区秀浦路3188号",121.62964419008077,31.136153062108015,"2022-04-26"
"浦东新区","上海市浦东新区秀沿路1028弄",121.58514977071329,31.138215393031583,"2022-04-26"
"浦东新区","上海市浦东新区秀沿路3668号",121.62337150236567,31.143296806623685,"2022-04-26"
"浦东新区","上海市浦东新区秀沿路苗桥路交界口工地生活区",121.63643960177208,31.131122574335443,"2022-04-26"
"浦东新区","上海市浦东新区宣桥镇光明村",121.72842581650218,31.077006827055797,"2022-04-26"
"浦东新区","上海市浦东新区雪野二路246号工地生活区",121.48105017567279,31.183008076943693,"2022-04-26"
"浦东新区","上海市浦东新区雪野路34弄",121.50382231018129,31.186552940240503,"2022-04-26"
"浦东新区","上海市浦东新区严民路40弄",121.53536082850054,31.198209156327895,"2022-04-26"
"浦东新区","上海市浦东新区严桥路58弄",121.53246496102804,31.19679983627834,"2022-04-26"
"浦东新区","上海市浦东新区严杨路165弄",121.53577251722662,31.201033280595517,"2022-04-26"
"浦东新区","上海市浦东新区严杨路30弄",121.53251293054227,31.198276108155607,"2022-04-26"
"浦东新区","上海市浦东新区严镇路75弄",121.53464398070359,31.197513842937667,"2022-04-26"
"浦东新区","上海市浦东新区严中路173弄",121.53796995685428,31.198821837128346,"2022-04-26"
"浦东新区","上海市浦东新区严中路373弄",121.53998216119663,31.194854708119824,"2022-04-26"
"浦东新区","上海市浦东新区杨高北路4705弄",121.61156103067324,31.284400886766342,"2022-04-26"
"浦东新区","上海市浦东新区杨高南路2140弄",121.5300002802003,31.194284938858367,"2022-04-26"
"浦东新区","上海市浦东新区杨高南路3288弄",121.52558241370224,31.17462515993693,"2022-04-26"
"浦东新区","上海市浦东新区杨高南路3340弄",121.52561843575319,31.17425926448967,"2022-04-26"
"浦东新区","上海市浦东新区杨高南路5055弄",121.5375261041018,31.15615318813709,"2022-04-26"
"浦东新区","上海市浦东新区杨高南路5777弄",121.55032695761899,31.13422383103704,"2022-04-26"
"浦东新区","上海市浦东新区杨高中路10弄",121.60637358584478,31.263420011224802,"2022-04-26"
"浦东新区","上海市浦东新区杨高中路750弄",121.59125249902587,31.258041279869,"2022-04-26"
"浦东新区","上海市浦东新区杨高中路758号",121.59413264615196,31.253475146199005,"2022-04-26"
"浦东新区","上海市浦东新区杨莲路310弄",121.53688426481492,31.18970225553777,"2022-04-26"
"浦东新区","上海市浦东新区杨思路1121弄",121.51244631256873,31.17079365323609,"2022-04-26"
"浦东新区","上海市浦东新区杨思路436弄",121.50076043585052,31.165660812615332,"2022-04-26"
"浦东新区","上海市浦东新区杨思路502弄",121.50139050733522,31.165181479780415,"2022-04-26"
"浦东新区","上海市浦东新区杨思新村",121.60064563059096,31.22441717742983,"2022-04-26"
"浦东新区","上海市浦东新区杨新路197弄",121.4985201517392,31.168845590720398,"2022-04-26"
"浦东新区","上海市浦东新区杨新路198弄",121.49847972799125,31.16923244104267,"2022-04-26"
"浦东新区","上海市浦东新区杨新路20弄",121.50290855381654,31.170494328286757,"2022-04-26"
"浦东新区","上海市浦东新区杨新路281弄",121.49519282813023,31.167353482958347,"2022-04-26"
"浦东新区","上海市浦东新区杨新路282弄",121.49415285984134,31.16735402369335,"2022-04-26"
"浦东新区","上海市浦东新区杨新路77弄",121.5001680033667,31.169243023786645,"2022-04-26"
"浦东新区","上海市浦东新区杨新路80弄",121.50033351024607,31.169613156321486,"2022-04-26"
"浦东新区","上海市浦东新区杨新路93弄",121.500194952532,31.169327994680454,"2022-04-26"
"浦东新区","上海市浦东新区洋泾镇路61号生活区",121.54805029213449,31.248138832504296,"2022-04-26"
"浦东新区","上海市浦东新区耀华路220弄",121.49739223934087,31.179261334020538,"2022-04-26"
"浦东新区","上海市浦东新区耀华路331弄",121.49318888819857,31.18096820214458,"2022-04-26"
"浦东新区","上海市浦东新区耀华路400弄",121.4915611586145,31.1795851153661,"2022-04-26"
"浦东新区","上海市浦东新区耀华路414弄",121.4922269826585,31.1790527910542,"2022-04-26"
"浦东新区","上海市浦东新区耀华路421弄",121.48966977636323,31.181385819746097,"2022-04-26"
"浦东新区","上海市浦东新区耀华路500弄",121.48875934372887,31.17679431825375,"2022-04-26"
"浦东新区","上海市浦东新区耀华支路2号工地生活区",121.47580380200287,31.18162347553838,"2022-04-26"
"浦东新区","上海市浦东新区沂南路54弄",121.51635555848705,31.203704529765993,"2022-04-26"
"浦东新区","上海市浦东新区益江路299弄",121.63722957163755,31.203502759161672,"2022-04-26"
"浦东新区","上海市浦东新区银冬路568号生活区",121.6430255286185,31.211687980386134,"2022-04-26"
"浦东新区","上海市浦东新区银峰路676弄",121.65277879086253,31.290487771739045,"2022-04-26"
"浦东新区","上海市浦东新区银融路88弄",121.5403030359248,31.215086838346664,"2022-04-26"
"浦东新区","上海市浦东新区银山路200弄",121.5865512171394,31.249723658859708,"2022-04-26"
"浦东新区","上海市浦东新区银山路342弄",121.58944654562862,31.250482180250152,"2022-04-26"
"浦东新区","上海市浦东新区樱花路802弄",121.567473903024,31.213807021168357,"2022-04-26"
"浦东新区","上海市浦东新区迎春路1355弄",121.56908249870071,31.235478938541977,"2022-04-26"
"浦东新区","上海市浦东新区迎春路736弄",121.55892356168839,31.229490292109006,"2022-04-26"
"浦东新区","上海市浦东新区永安新村",121.55708014895134,31.254939565357265,"2022-04-26"
"浦东新区","上海市浦东新区永晨路258弄",121.75945176169745,30.980932171234148,"2022-04-26"
"浦东新区","上海市浦东新区永宁路136弄",121.61639696855566,31.271543122962676,"2022-04-26"
"浦东新区","上海市浦东新区永宁路33弄",121.62099198090031,31.278981853544852,"2022-04-26"
"浦东新区","上海市浦东新区永泰路1129弄",121.52972387159488,31.14879972560635,"2022-04-26"
"浦东新区","上海市浦东新区永泰路136弄",121.51114125432383,31.140667892100943,"2022-04-26"
"浦东新区","上海市浦东新区永泰路2079弄",121.52553031198265,31.139159418419815,"2022-04-26"
"浦东新区","上海市浦东新区永泰路595弄",121.52107274038106,31.1462686284638,"2022-04-26"
"浦东新区","上海市浦东新区永业路94弄",121.62124979458167,31.270001029178218,"2022-04-26"
"浦东新区","上海市浦东新区羽山路600弄",121.55465445458276,31.240309084356323,"2022-04-26"
"浦东新区","上海市浦东新区羽山路801弄",121.556670880961,31.241696677568697,"2022-04-26"
"浦东新区","上海市浦东新区玉兰路158弄",121.55493140217149,31.211643506653495,"2022-04-26"
"浦东新区","上海市浦东新区玉泉街77弄",121.50199264151856,31.168991123257296,"2022-04-26"
"浦东新区","上海市浦东新区御桥路1679弄",121.57801623682799,31.165627672680262,"2022-04-26"
"浦东新区","上海市浦东新区御青路56弄",121.57846907263557,31.165031924344618,"2022-04-26"
"浦东新区","上海市浦东新区御山路360弄",121.57468244541937,31.162035666910167,"2022-04-26"
"浦东新区","上海市浦东新区园二路299弄",121.64100182596562,31.32307691964883,"2022-04-26"
"浦东新区","上海市浦东新区云汉路1096弄",121.8111422370137,30.9176762778764,"2022-04-26"
"浦东新区","上海市浦东新区云汉路978弄",121.8143022961367,30.916615866358676,"2022-04-26"
"浦东新区","上海市浦东新区云台路1000弄",121.51443273554295,31.16092222380419,"2022-04-26"
"浦东新区","上海市浦东新区云台路183弄",121.51061853034757,31.18339896227592,"2022-04-26"
"浦东新区","上海市浦东新区枣庄路1029弄",121.59182229421084,31.253388167854528,"2022-04-26"
"浦东新区","上海市浦东新区枣庄路998弄",121.59064021399027,31.25339580836896,"2022-04-26"
"浦东新区","上海市浦东新区张江镇韩荡村南曹家宅",121.61271849732285,31.16192990853745,"2022-04-26"
"浦东新区","上海市浦东新区张江镇沔北村顾家宅",121.64093463271347,31.173306554720508,"2022-04-26"
"浦东新区","上海市浦东新区张江镇钱堂村立达宅",121.59951870632868,31.16388174546565,"2022-04-26"
"浦东新区","上海市浦东新区张江镇新丰村龚家宅",121.65172867172136,31.16654067747195,"2022-04-26"
"浦东新区","上海市浦东新区张江镇长元村徐家宅",121.62837272846193,31.184125737428683,"2022-04-26"
"浦东新区","上海市浦东新区张杨北路5428弄",121.58364969034217,31.348498922535285,"2022-04-26"
"浦东新区","上海市浦东新区张杨北路588弄",121.59521528395258,31.275260170384,"2022-04-26"
"浦东新区","上海市浦东新区张杨路1662弄",121.5512059495605,31.242232042066657,"2022-04-26"
"浦东新区","上海市浦东新区招远路19弄",121.5212299438453,31.241645116927586,"2022-04-26"
"浦东新区","上海市浦东新区赵高公路587号",121.63309898324158,31.32217407933106,"2022-04-26"
"浦东新区","上海市浦东新区赵高公路610号",121.63297295097853,31.3220401216688,"2022-04-26"
"浦东新区","上海市浦东新区赵高公路950968号",121.63917054035296,31.31389726291588,"2022-04-26"
"浦东新区","上海市浦东新区赵高公路958号",121.63712932074266,31.316872849079196,"2022-04-26"
"浦东新区","上海市浦东新区赵高路610号",121.63347411562255,31.321740894877177,"2022-04-26"
"浦东新区","上海市浦东新区中科路2500弄",121.64225927401847,31.19489787699694,"2022-04-26"
"浦东新区","上海市浦东新区中科路2635弄",121.64420248849765,31.19692918571442,"2022-04-26"
"浦东新区","上海市浦东新区中科路2660弄",121.64532501106294,31.194467886292184,"2022-04-26"
"浦东新区","上海市浦东新区周康路869弄",121.58121707902114,31.10748746882412,"2022-04-26"
"浦东新区","上海市浦东新区周浦镇北庄村窑港",121.67260286634837,31.108271567533365,"2022-04-26"
"浦东新区","上海市浦东新区周浦镇里仁村",121.57510536765346,31.11385058423264,"2022-04-26"
"浦东新区","上海市浦东新区周浦镇瓦南村陆弄",121.65220621093046,31.1034918958276,"2022-04-26"
"浦东新区","上海市浦东新区周浦镇周南村",121.58997088655478,31.111919735760996,"2022-04-26"
"浦东新区","上海市浦东新区周星路500弄",121.58569980317705,31.10805931117418,"2022-04-26"
"浦东新区","上海市浦东新区周秀路168弄",121.61309686360366,31.104055414085327,"2022-04-26"
"浦东新区","上海市浦东新区周秀路398弄",121.61298601270373,31.098074836686873,"2022-04-26"
"浦东新区","上海市浦东新区周祝公路1218号",121.64587360623788,31.11220386614623,"2022-04-26"
"浦东新区","上海市浦东新区周祝公路周泰北路交界口工地生活区",121.60866363608137,31.109520206494043,"2022-04-26"
"浦东新区","上海市浦东新区祝潘公路301弄",121.76684274994189,31.114088797527916,"2022-04-26"
"浦东新区","上海市浦东新区祝桥镇卫东村朱家宅",121.75973356013593,31.183969647299826,"2022-04-26"
"浦东新区","上海市浦东新区梓康路188弄",121.57565279503125,31.128640846099366,"2022-04-26"
"浦东新区","上海市浦东新区梓康路580弄",121.5673160707459,31.12887508064723,"2022-04-26"
"浦东新区","上海市浦东新区紫薇路35弄",121.63626380338377,31.194416454082223,"2022-04-26"
"黄浦区","上海市黄浦区白河路39号",121.47824198281805,31.241398119450132,"2022-04-26"
"黄浦区","上海市黄浦区半淞园路585弄",121.50075091381213,31.20549511865994,"2022-04-26"
"黄浦区","上海市黄浦区保屯路211弄",121.4983058160445,31.209535149529046,"2022-04-26"
"黄浦区","上海市黄浦区保屯路50弄",121.4963149913733,31.211889115666636,"2022-04-26"
"黄浦区","上海市黄浦区北海路267弄",121.48451934172178,31.236080259939193,"2022-04-26"
"黄浦区","上海市黄浦区北京东路288弄",121.49064632428312,31.24648026991378,"2022-04-26"
"黄浦区","上海市黄浦区北京东路316弄",121.47709924837882,31.20540045126984,"2022-04-26"
"黄浦区","上海市黄浦区北京东路395号",121.48906279133014,31.24577149923715,"2022-04-26"
"黄浦区","上海市黄浦区北京东路431弄",121.48868846742414,31.24544624864965,"2022-04-26"
"黄浦区","上海市黄浦区北京东路432号",121.48809298070158,31.245994404064763,"2022-04-26"
"黄浦区","上海市黄浦区曹家街62号",121.49293996774175,31.224360898011767,"2022-04-26"
"黄浦区","上海市黄浦区曹家弄3号",121.49158559252436,31.23724715206362,"2022-04-26"
"黄浦区","上海市黄浦区成都北路262弄",121.47445122339649,31.23499100854444,"2022-04-26"
"黄浦区","上海市黄浦区成都南路108弄",121.47377165527818,31.227700316508475,"2022-04-26"
"黄浦区","上海市黄浦区成都南路132弄",121.4741907147986,31.227598106146772,"2022-04-26"
"黄浦区","上海市黄浦区长乐路169弄",121.46880061224708,31.227226936462426,"2022-04-26"
"黄浦区","上海市黄浦区长乐路306号",121.47049248084457,31.22756274936424,"2022-04-26"
"黄浦区","上海市黄浦区重庆北路106号",121.47698911612329,31.23153675264214,"2022-04-26"
"黄浦区","上海市黄浦区重庆北路116号",121.47688634997294,31.2315855398385,"2022-04-26"
"黄浦区","上海市黄浦区重庆北路216弄",121.47648597520714,31.233229391023045,"2022-04-26"
"黄浦区","上海市黄浦区重庆北路235号",121.47546702726717,31.233620838718963,"2022-04-26"
"黄浦区","上海市黄浦区重庆南路169弄",121.47815610481129,31.223155630252226,"2022-04-26"
"黄浦区","上海市黄浦区重庆南路179弄",121.47811002173864,31.221948880116926,"2022-04-26"
"黄浦区","上海市黄浦区重庆南路22号",121.4776285299853,31.226101915861,"2022-04-26"
"黄浦区","上海市黄浦区重庆南路26弄",121.49158559252436,31.23724715206362,"2022-04-26"
"黄浦区","上海市黄浦区重庆南路30弄",121.47781816227844,31.225337947135458,"2022-04-26"
"黄浦区","上海市黄浦区打浦路303弄",121.47819518110099,31.205904673705177,"2022-04-26"
"黄浦区","上海市黄浦区打浦路316弄",121.4771429060266,31.205298679857936,"2022-04-26"
"黄浦区","上海市黄浦区打浦路339弄",121.4785522575412,31.20529674944314,"2022-04-26"
"黄浦区","上海市黄浦区打浦路38弄",121.47639291075632,31.210670792891353,"2022-04-26"
"黄浦区","上海市黄浦区打浦路457弄",121.48065285514573,31.20307504728536,"2022-04-26"
"黄浦区","上海市黄浦区打浦路470弄",121.4793632477556,31.203063078428812,"2022-04-26"
"黄浦区","上海市黄浦区打浦路58号",121.47644375484818,31.21029044500982,"2022-04-26"
"黄浦区","上海市黄浦区打浦路78号",121.47671477362054,31.209753816767908,"2022-04-26"
"黄浦区","上海市黄浦区打浦路90弄",121.47722528064186,31.20856086958744,"2022-04-26"
"黄浦区","上海市黄浦区打浦路92号",121.47714245687384,31.20872726539746,"2022-04-26"
"黄浦区","上海市黄浦区大沽路139弄",121.47815089463933,31.232003780930505,"2022-04-26"
"黄浦区","上海市黄浦区大沽路145号",121.47794185894716,31.232378636990795,"2022-04-26"
"黄浦区","上海市黄浦区大沽路183弄",121.4776655401723,31.231942951592927,"2022-04-26"
"黄浦区","上海市黄浦区大沽路191号",121.47719725350996,31.23195283250325,"2022-04-26"
"黄浦区","上海市黄浦区大沽路218号",121.47646019383902,31.231990040296797,"2022-04-26"
"黄浦区","上海市黄浦区大沽路254号",121.47588581729593,31.231991738577477,"2022-04-26"
"黄浦区","上海市黄浦区大吉路26弄",121.44960310485445,31.229682897526317,"2022-04-26"
"黄浦区","上海市黄浦区大吉路310弄",121.4683930510372,31.223077810739706,"2022-04-26"
"黄浦区","上海市黄浦区大吉路57号",121.49302997795387,31.221047841193307,"2022-04-26"
"黄浦区","上海市黄浦区大境路50号",121.49363238162884,31.231105849432982,"2022-04-26"
"黄浦区","上海市黄浦区大林路43弄",121.49331950181971,31.219241105018995,"2022-04-26"
"黄浦区","上海市黄浦区丹凤路102弄",121.501388351402,31.232937830513404,"2022-04-26"
"黄浦区","上海市黄浦区淡水路205号",121.47982955814584,31.223561942787075,"2022-04-26"
"黄浦区","上海市黄浦区淡水路214弄",121.47901048318184,31.22338754436811,"2022-04-26"
"黄浦区","上海市黄浦区淡水路223弄",121.47991148360833,31.222843579792674,"2022-04-26"
"黄浦区","上海市黄浦区淡水路227弄",121.4798842649514,31.222721059943833,"2022-04-26"
"黄浦区","上海市黄浦区淡水路274号",121.47971205978513,31.222110156753878,"2022-04-26"
"黄浦区","上海市黄浦区淡水路345弄",121.48143608771989,31.219080518285622,"2022-04-26"
"黄浦区","上海市黄浦区淡水路460弄",121.48045567708628,31.21706227470301,"2022-04-26"
"黄浦区","上海市黄浦区滇池路116号",121.49415654289393,31.245342359637938,"2022-04-26"
"黄浦区","上海市黄浦区定兴路36号",121.47746629601019,31.241107665019452,"2022-04-26"
"黄浦区","上海市黄浦区东江阴街184号",121.50385357121303,31.219622806225765,"2022-04-26"
"黄浦区","上海市黄浦区东街123号",121.50393028650359,31.22994953379037,"2022-04-26"
"黄浦区","上海市黄浦区多稼路208号",121.50854919377478,31.217548136407576,"2022-04-26"
"黄浦区","上海市黄浦区多稼路2号",121.51227788028561,31.215310742787516,"2022-04-26"
"黄浦区","上海市黄浦区方浜西路63弄",121.48894178957794,31.22685144217224,"2022-04-26"
"黄浦区","上海市黄浦区方浜中路523号",121.49424817005594,31.230240022868117,"2022-04-26"
"黄浦区","上海市黄浦区方斜路401弄",121.49001086296538,31.22040782112921,"2022-04-26"
"黄浦区","上海市黄浦区凤阳路228弄",121.4782059607671,31.240573683460127,"2022-04-26"
"黄浦区","上海市黄浦区福建中路195弄",121.48805704848118,31.239509570614192,"2022-04-26"
"黄浦区","上海市黄浦区福建中路205号",121.48785430092758,31.239766144411494,"2022-04-26"
"黄浦区","上海市黄浦区福州路105号",121.494982804302,31.240828710592687,"2022-04-26"
"黄浦区","上海市黄浦区福州路384弄",121.4896390543148,31.24003344662922,"2022-04-26"
"黄浦区","上海市黄浦区福州路614弄",121.48585503218456,31.238969867958666,"2022-04-26"
"黄浦区","上海市黄浦区福州路623号",121.48554269135875,31.238306659286682,"2022-04-26"
"黄浦区","上海市黄浦区抚安街10号",121.50384872036328,31.226729236365895,"2022-04-26"
"黄浦区","上海市黄浦区复兴东路330号",121.50468549194582,31.226560942574764,"2022-04-26"
"黄浦区","上海市黄浦区复兴东路404弄",121.50363519314355,31.226892511933613,"2022-04-26"
"黄浦区","上海市黄浦区复兴东路451弄",121.51830479161315,31.200364100830058,"2022-04-26"
"黄浦区","上海市黄浦区复兴东路519弄",121.50140092767914,31.227994595264793,"2022-04-26"
"黄浦区","上海市黄浦区复兴东路663弄",121.49812238205936,31.227977302939546,"2022-04-26"
"黄浦区","上海市黄浦区复兴东路671号",121.49816496174054,31.227828851283707,"2022-04-26"
"黄浦区","上海市黄浦区复兴东路673号",121.49788082770775,31.2278543266236,"2022-04-26"
"黄浦区","上海市黄浦区复兴中路408弄",121.48013579049419,31.222547895195856,"2022-04-26"
"黄浦区","上海市黄浦区复兴中路598弄",121.47063585040398,31.221046837546464,"2022-04-26"
"黄浦区","上海市黄浦区复兴中路616弄",121.47034767399637,31.22099541993162,"2022-04-26"
"黄浦区","上海市黄浦区高家横弄18弄",121.47198797985759,31.216227432867615,"2022-04-26"
"黄浦区","上海市黄浦区高家弄45弄",121.49158559252436,31.23724715206362,"2022-04-26"
"黄浦区","上海市黄浦区高家弄66弄",121.48457854005488,31.235498236464565,"2022-04-26"
"黄浦区","上海市黄浦区牯岭路145弄",121.47755549774732,31.24176792074311,"2022-04-26"
"黄浦区","上海市黄浦区光启路111号",121.50087721556682,31.22962600370282,"2022-04-26"
"黄浦区","上海市黄浦区光启路129号",121.50078774433803,31.229329722961083,"2022-04-26"
"黄浦区","上海市黄浦区光启路135号",121.50085969860937,31.22904347689279,"2022-04-26"
"黄浦区","上海市黄浦区光启路215号",121.50080651892318,31.22807796893098,"2022-04-26"
"黄浦区","上海市黄浦区光启南路154弄",121.50058050525688,31.2250675921171,"2022-04-26"
"黄浦区","上海市黄浦区广东路138号",121.49468869907803,31.239072374652263,"2022-04-26"
"黄浦区","上海市黄浦区广东路212号",121.4937263443852,31.2388859636763,"2022-04-26"
"黄浦区","上海市黄浦区广东路543号",121.48757789232216,31.237774668670987,"2022-04-26"
"黄浦区","上海市黄浦区广东路544号",121.48735637018339,31.237806779623895,"2022-04-26"
"黄浦区","上海市黄浦区广东路566号",121.48719656163316,31.237783005169433,"2022-04-26"
"黄浦区","上海市黄浦区广西北路109弄",121.48528865056052,31.237306434148554,"2022-04-26"
"黄浦区","上海市黄浦区广西北路228弄",121.48509955725068,31.239119228201453,"2022-04-26"
"黄浦区","上海市黄浦区广西北路425号",121.48325982756623,31.242142814863154,"2022-04-26"
"黄浦区","上海市黄浦区广西北路442号",121.48334085472322,31.24238772635196,"2022-04-26"
"黄浦区","上海市黄浦区贵州路131弄",121.4825359729863,31.24229487155161,"2022-04-26"
"黄浦区","上海市黄浦区贵州路151号",121.48253462552802,31.242566952065015,"2022-04-26"
"黄浦区","上海市黄浦区贵州路155号",121.4824879136415,31.24258200330435,"2022-04-26"
"黄浦区","上海市黄浦区贵州路157号",121.48247884075586,31.242613186377117,"2022-04-26"
"黄浦区","上海市黄浦区贵州路159号",121.48249887296873,31.242656178863864,"2022-04-26"
"黄浦区","上海市黄浦区贵州路161号",121.48245270006552,31.24269060371332,"2022-04-26"
"黄浦区","上海市黄浦区贵州路167号",121.48242548140857,31.242783149378084,"2022-04-26"
"黄浦区","上海市黄浦区贵州路169号",121.48244407633263,31.242832856936698,"2022-04-26"
"黄浦区","上海市黄浦区贵州路198弄",121.4825858289421,31.24344455105009,"2022-04-26"
"黄浦区","上海市黄浦区贵州路77弄",121.4828650222946,31.241418342393125,"2022-04-26"
"黄浦区","上海市黄浦区国货路370弄",121.49096774352816,31.212175378451143,"2022-04-26"
"黄浦区","上海市黄浦区海潮路222弄",121.50365558467864,31.213898746099275,"2022-04-26"
"黄浦区","上海市黄浦区海潮路230弄",121.50483703608535,31.215277852030805,"2022-04-26"
"黄浦区","上海市黄浦区海潮路256弄",121.50354920089032,31.212886788443296,"2022-04-26"
"黄浦区","上海市黄浦区海南西弄51弄",121.50368495926881,31.216586910667893,"2022-04-26"
"黄浦区","上海市黄浦区海南西弄95号",121.50313214205798,31.216732446283398,"2022-04-26"
"黄浦区","上海市黄浦区汉口路457号",121.48824659094377,31.24049155593043,"2022-04-26"
"黄浦区","上海市黄浦区汉口路558号",121.486326103594,31.240046414202215,"2022-04-26"
"黄浦区","上海市黄浦区汉口路678号",121.48426682804292,31.239647583321876,"2022-04-26"
"黄浦区","上海市黄浦区合肥路271号",121.4813038571488,31.22028753701466,"2022-04-26"
"黄浦区","上海市黄浦区合肥路349弄",121.47981087339123,31.219844846907478,"2022-04-26"
"黄浦区","上海市黄浦区和顺街45号",121.50331153366831,31.226227596456525,"2022-04-26"
"黄浦区","上海市黄浦区河南南路600弄",121.49730555285915,31.22561733375389,"2022-04-26"
"黄浦区","上海市黄浦区河南中路154号",121.49282390666987,31.239259865896795,"2022-04-26"
"黄浦区","上海市黄浦区河南中路166弄",121.49293673384192,31.239567539063756,"2022-04-26"
"黄浦区","上海市黄浦区河南中路192号",121.49274207103791,31.23997192782091,"2022-04-26"
"黄浦区","上海市黄浦区河南中路541弄",121.4903367682044,31.245362813278643,"2022-04-26"
"黄浦区","上海市黄浦区淮海东路89弄",121.48837091642636,31.230855813500817,"2022-04-26"
"黄浦区","上海市黄浦区淮海中路475号",121.47688320590366,31.227273718745824,"2022-04-26"
"黄浦区","上海市黄浦区淮海中路613弄",121.47382303835336,31.225783544850167,"2022-04-26"
"黄浦区","上海市黄浦区淮海中路697弄",121.47197423578328,31.224941446761353,"2022-04-26"
"黄浦区","上海市黄浦区淮海中路701号",121.4716277593481,31.225284833475623,"2022-04-26"
"黄浦区","上海市黄浦区淮海中路796号",121.469207364982,31.224978502942243,"2022-04-26"
"黄浦区","上海市黄浦区淮海中路833弄",121.46898988521804,31.224196151207956,"2022-04-26"
"黄浦区","上海市黄浦区淮海中路927弄",121.46719695725068,31.22261969336921,"2022-04-26"
"黄浦区","上海市黄浦区黄陂北路249弄",121.47628116155087,31.235480405184227,"2022-04-26"
"黄浦区","上海市黄浦区黄陂南路584号",121.48307280035905,31.221956445996966,"2022-04-26"
"黄浦区","上海市黄浦区黄陂南路596弄",121.48299842066284,31.2218577034941,"2022-04-26"
"黄浦区","上海市黄浦区黄陂南路685弄",121.48388621599834,31.22012262863205,"2022-04-26"
"黄浦区","上海市黄浦区黄陂南路783号",121.48418822631079,31.218270940779707,"2022-04-26"
"黄浦区","上海市黄浦区黄河路125弄",121.47631799207679,31.241027544823773,"2022-04-26"
"黄浦区","上海市黄浦区黄河路215弄",121.4344569553118,31.2533728868238,"2022-04-26"
"黄浦区","上海市黄浦区黄河路253弄",121.47529419328706,31.242852770826993,"2022-04-26"
"黄浦区","上海市黄浦区黄河路275号",121.47572412230414,31.243207592417193,"2022-04-26"
"黄浦区","上海市黄浦区黄河路288号",121.47590926306974,31.243495416033404,"2022-04-26"
"黄浦区","上海市黄浦区黄家路55弄",121.50334800487202,31.22150874557353,"2022-04-26"
"黄浦区","上海市黄浦区黄家路88弄",121.50359063719026,31.22123451932127,"2022-04-26"
"黄浦区","上海市黄浦区黄家阙路68弄",121.49395002245718,31.220714861457605,"2022-04-26"
"黄浦区","上海市黄浦区黄家阙路72弄",121.49399359027441,31.220593342473972,"2022-04-26"
"黄浦区","上海市黄浦区黄家阙路76弄",121.49405377674357,31.2203405763063,"2022-04-26"
"黄浦区","上海市黄浦区黄家阙路88弄",121.49395819703733,31.219937955604067,"2022-04-26"
"黄浦区","上海市黄浦区徽宁路509号",121.49441642267796,31.215144281468078,"2022-04-26"
"黄浦区","上海市黄浦区会稽路38弄",121.48823877568583,31.22873345319458,"2022-04-26"
"黄浦区","上海市黄浦区火腿弄21号",121.49158559252436,31.23724715206362,"2022-04-26"
"黄浦区","上海市黄浦区建国东路119号",121.48543821842793,31.21886951616378,"2022-04-26"
"黄浦区","上海市黄浦区建国东路139号",121.48515085049529,31.218742358782745,"2022-04-26"
"黄浦区","上海市黄浦区建国东路143弄",121.48532709803635,31.21823318708983,"2022-04-26"
"黄浦区","上海市黄浦区建国东路153号",121.48490570292162,31.218646546701503,"2022-04-26"
"黄浦区","上海市黄浦区建国东路187号",121.48429584331089,31.21846310605316,"2022-04-26"
"黄浦区","上海市黄浦区建国东路45号",121.48673716819535,31.219307964606568,"2022-04-26"
"黄浦区","上海市黄浦区建国东路61弄",121.48644240421402,31.219232432313035,"2022-04-26"
"黄浦区","上海市黄浦区建国西路25弄",121.4723274495098,31.213908551705266,"2022-04-26"
"黄浦区","上海市黄浦区建国西路91弄",121.47809636749489,31.218166326734593,"2022-04-26"
"黄浦区","上海市黄浦区建国中路155弄",121.47445041492153,31.21479027995086,"2022-04-26"
"黄浦区","上海市黄浦区江西中路128号",121.49436512943333,31.239559511477676,"2022-04-26"
"黄浦区","上海市黄浦区江西中路135弄",121.49403509198896,31.239906240817817,"2022-04-26"
"黄浦区","上海市黄浦区江西中路141号",121.49407623438132,31.239927776279842,"2022-04-26"
"黄浦区","上海市黄浦区江西中路147号",121.4939873919664,31.2400644761759,"2022-04-26"
"黄浦区","上海市黄浦区江西中路304号",121.49311001697481,31.2440498348388,"2022-04-26"
"黄浦区","上海市黄浦区江西中路412弄",121.49218557077448,31.246727331150872,"2022-04-26"
"黄浦区","上海市黄浦区江西中路460弄",121.49170039596855,31.247648653100814,"2022-04-26"
"黄浦区","上海市黄浦区江阴街308弄",121.49679935770428,31.218984938166418,"2022-04-26"
"黄浦区","上海市黄浦区江阴街310号",121.49672398987198,31.21916621604781,"2022-04-26"
"黄浦区","上海市黄浦区江阴路104号",121.4750411406249,31.235650921487732,"2022-04-26"
"黄浦区","上海市黄浦区江阴路106弄",121.47505317791872,31.235742625011795,"2022-04-26"
"黄浦区","上海市黄浦区江阴路130弄",121.47452066241242,31.235710744924816,"2022-04-26"
"黄浦区","上海市黄浦区江阴路140号",121.47455551666621,31.235549568919275,"2022-04-26"
"黄浦区","上海市黄浦区江阴路88弄",121.47555173747676,31.235860033180316,"2022-04-26"
"黄浦区","上海市黄浦区金陵东路59号",121.4978543276952,31.237064905731295,"2022-04-26"
"黄浦区","上海市黄浦区金陵东路63号",121.49771877339374,31.23702291414992,"2022-04-26"
"黄浦区","上海市黄浦区金陵东路67号",121.49757576315655,31.23695730226629,"2022-04-26"
"黄浦区","上海市黄浦区金陵西路60号",121.47816742346073,31.22996234836876,"2022-04-26"
"黄浦区","上海市黄浦区金坛路9号",121.50488024458039,31.224720112975348,"2022-04-26"
"黄浦区","上海市黄浦区进贤路138弄",121.46617046354442,31.227847456002312,"2022-04-26"
"黄浦区","上海市黄浦区进贤路154号",121.46581491422356,31.227802217966403,"2022-04-26"
"黄浦区","上海市黄浦区静修路107号",121.49339244422714,31.225406732368153,"2022-04-26"
"黄浦区","上海市黄浦区静修路114弄",121.49302979829275,31.2257417798045,"2022-04-26"
"黄浦区","上海市黄浦区静修路126弄",121.48653334267514,31.22551241911987,"2022-04-26"
"黄浦区","上海市黄浦区静修路89号",121.49358899347271,31.22551203312026,"2022-04-26"
"黄浦区","上海市黄浦区静修路95号",121.49355360023563,31.22549373673709,"2022-04-26"
"黄浦区","上海市黄浦区九江路218弄",121.49263508285166,31.24293589969533,"2022-04-26"
"黄浦区","上海市黄浦区九江路619号",121.4851466284594,31.240162350399974,"2022-04-26"
"黄浦区","上海市黄浦区局门后路5号",121.48708121920568,31.21525368581015,"2022-04-26"
"黄浦区","上海市黄浦区局门后路85号",121.48721865994871,31.214225032877668,"2022-04-26"
"黄浦区","上海市黄浦区局门路241弄",121.48761041098162,31.212027091902875,"2022-04-26"
"黄浦区","上海市黄浦区局门路599弄",121.48965782889995,31.206398855387498,"2022-04-26"
"黄浦区","上海市黄浦区巨鹿路244弄",121.46860999181786,31.229099830691748,"2022-04-26"
"黄浦区","上海市黄浦区巨鹿路260弄",121.46855097314585,31.229130863865187,"2022-04-26"
"黄浦区","上海市黄浦区巨鹿路318号",121.46549412932596,31.228954545897167,"2022-04-26"
"黄浦区","上海市黄浦区巨鹿路367号",121.46612500928562,31.228929842827828,"2022-04-26"
"黄浦区","上海市黄浦区巨鹿路383弄",121.46518663934988,31.228627306896506,"2022-04-26"
"黄浦区","上海市黄浦区巨鹿路391弄",121.46500832570615,31.228665210788414,"2022-04-26"
"黄浦区","上海市黄浦区聚奎新村",121.50270850117947,31.22949600466016,"2022-04-26"
"黄浦区","上海市黄浦区跨龙路67号",121.50247655869678,31.219519274559552,"2022-04-26"
"黄浦区","上海市黄浦区老道前街20号",121.49374565795367,31.22393196898934,"2022-04-26"
"黄浦区","上海市黄浦区老道前街68弄",121.49419660731967,31.223279075953357,"2022-04-26"
"黄浦区","上海市黄浦区丽园路1032弄",121.47854025946738,31.21134075647708,"2022-04-26"
"黄浦区","上海市黄浦区丽园路25号",121.49642503379827,31.216835826617668,"2022-04-26"
"黄浦区","上海市黄浦区丽园路43弄",121.49571860634522,31.21691365131976,"2022-04-26"
"黄浦区","上海市黄浦区丽园路448弄",121.48931791009498,31.213919206614534,"2022-04-26"
"黄浦区","上海市黄浦区丽园路45弄",121.49574663347714,31.216842312011984,"2022-04-26"
"黄浦区","上海市黄浦区丽园路514弄",121.48829141638873,31.213318746538885,"2022-04-26"
"黄浦区","上海市黄浦区丽园路565号",121.48755130247905,31.213273347060653,"2022-04-26"
"黄浦区","上海市黄浦区丽园路710弄",121.48600639666299,31.212344042699645,"2022-04-26"
"黄浦区","上海市黄浦区丽园路866弄",121.48215949314707,31.212257643794672,"2022-04-26"
"黄浦区","上海市黄浦区丽园路885号",121.48191407608175,31.212574671021603,"2022-04-26"
"黄浦区","上海市黄浦区丽园路887号",121.48149061486434,31.21255799353228,"2022-04-26"
"黄浦区","上海市黄浦区丽园路8号",121.49663002711564,31.216699864854917,"2022-04-26"
"黄浦区","上海市黄浦区龙华东路526号",121.48457548581615,31.20062912175767,"2022-04-26"
"黄浦区","上海市黄浦区龙华东路888弄",121.47773012833846,31.19906060703334,"2022-04-26"
"黄浦区","上海市黄浦区鲁班路168弄",121.48069247041873,31.2107777316744,"2022-04-26"
"黄浦区","上海市黄浦区鲁班路299弄",121.4816728810523,31.210145208230895,"2022-04-26"
"黄浦区","上海市黄浦区鲁班路738弄",121.4849409164976,31.19988803425617,"2022-04-26"
"黄浦区","上海市黄浦区鲁班路88弄",121.47993304294059,31.212396777648934,"2022-04-26"
"黄浦区","上海市黄浦区陆家浜路1034弄",121.4960365166652,31.21713616166859,"2022-04-26"
"黄浦区","上海市黄浦区陆家浜路1060弄",121.49486800085782,31.217355119982727,"2022-04-26"
"黄浦区","上海市黄浦区陆家浜路1088号",121.49459024479414,31.21760364785768,"2022-04-26"
"黄浦区","上海市黄浦区陆家浜路1300号",121.49057401068958,31.21716588629347,"2022-04-26"
"黄浦区","上海市黄浦区陆家浜路1331号",121.48997834430591,31.21755284600338,"2022-04-26"
"黄浦区","上海市黄浦区陆家浜路305弄",121.50738552881717,31.21716202595311,"2022-04-26"
"黄浦区","上海市黄浦区陆家浜路413弄",121.50586370945271,31.217303468719948,"2022-04-26"
"黄浦区","上海市黄浦区陆家浜路468弄",121.50449810541643,31.21610714338139,"2022-04-26"
"黄浦区","上海市黄浦区陆家浜路688弄",121.50167895323447,31.218053065492683,"2022-04-26"
"黄浦区","上海市黄浦区露香园路18号",121.49112071942295,31.232663714945556,"2022-04-26"
"黄浦区","上海市黄浦区马当路278弄",121.48038956180075,31.223680369859316,"2022-04-26"
"黄浦区","上海市黄浦区马当路306弄",121.48012563964191,31.223088619009204,"2022-04-26"
"黄浦区","上海市黄浦区马当路318弄",121.48114997741496,31.223044305096334,"2022-04-26"
"黄浦区","上海市黄浦区马当路328弄",121.48128104018886,31.222870137319102,"2022-04-26"
"黄浦区","上海市黄浦区马当路357弄",121.48227007455534,31.219236318303054,"2022-04-26"
"黄浦区","上海市黄浦区马当路588弄",121.48231777457792,31.216113783241536,"2022-04-26"
"黄浦区","上海市黄浦区毛家园路161号",121.5097880469036,31.225420705568617,"2022-04-26"
"黄浦区","上海市黄浦区茂名南路159弄",121.46856965790046,31.222069084893775,"2022-04-26"
"黄浦区","上海市黄浦区茂名南路169弄",121.46913352426908,31.221248493144664,"2022-04-26"
"黄浦区","上海市黄浦区蒙自路345弄",121.48562317953244,31.210186208109956,"2022-04-26"
"黄浦区","上海市黄浦区蒙自路490弄",121.48548061844801,31.20723285827842,"2022-04-26"
"黄浦区","上海市黄浦区蒙自路601弄",121.48752812619689,31.205122548647797,"2022-04-26"
"黄浦区","上海市黄浦区蒙自西路72弄",121.48209804905018,31.2132159800014,"2022-04-26"
"黄浦区","上海市黄浦区梦花街13弄",121.49248865905355,31.22366492957156,"2022-04-26"
"黄浦区","上海市黄浦区梦花街151号",121.4936189070462,31.22432237476919,"2022-04-26"
"黄浦区","上海市黄浦区梦花街198弄",121.49318233056835,31.223949648068164,"2022-04-26"
"黄浦区","上海市黄浦区梦花街73弄",121.49469831094699,31.224742037936004,"2022-04-26"
"黄浦区","上海市黄浦区梦花街9号",121.4959380623813,31.225388976364556,"2022-04-26"
"黄浦区","上海市黄浦区面筋弄13号",121.5047955343708,31.226327415138474,"2022-04-26"
"黄浦区","上海市黄浦区面筋弄17号",121.5047955343708,31.226327415138474,"2022-04-26"
"黄浦区","上海市黄浦区面筋弄24号",121.5047955343708,31.226327415138474,"2022-04-26"
"黄浦区","上海市黄浦区面筋弄48号",121.5047955343708,31.226327415138474,"2022-04-26"
"黄浦区","上海市黄浦区南昌路282号",121.46927473789525,31.223424060752766,"2022-04-26"
"黄浦区","上海市黄浦区南昌路284号",121.46934714131935,31.223454246590638,"2022-04-26"
"黄浦区","上海市黄浦区南昌路310弄",121.46852698838873,31.222898007273322,"2022-04-26"
"黄浦区","上海市黄浦区南昌路328号",121.46775812870274,31.222126137717133,"2022-04-26"
"黄浦区","上海市黄浦区南昌路69弄",121.47210098669075,31.223981840967312,"2022-04-26"
"黄浦区","上海市黄浦区南昌路74弄",121.47776749784768,31.225337329534938,"2022-04-26"
"黄浦区","上海市黄浦区南车站路192弄",121.4977067360999,31.214937439740865,"2022-04-26"
"黄浦区","上海市黄浦区南车站路30弄",121.49621968115869,31.21723568121971,"2022-04-26"
"黄浦区","上海市黄浦区南车站路450弄",121.50015381013964,31.21062068218494,"2022-04-26"
"黄浦区","上海市黄浦区南京东路720号",121.4833157919995,31.24127925168162,"2022-04-26"
"黄浦区","上海市黄浦区南京西路455弄",121.47452057258187,31.236831713273617,"2022-04-26"
"黄浦区","上海市黄浦区南京西路465号",121.47468244723476,31.236746649213536,"2022-04-26"
"黄浦区","上海市黄浦区南京西路471弄",121.47474469980659,31.236838506044595,"2022-04-26"
"黄浦区","上海市黄浦区南京西路479弄",121.47440298439061,31.236773897509803,"2022-04-26"
"黄浦区","上海市黄浦区南京西路88号",121.47948326137173,31.24059166814451,"2022-04-26"
"黄浦区","上海市黄浦区南塘浜路93弄",121.48067306701971,31.209789334703416,"2022-04-26"
"黄浦区","上海市黄浦区宁波路120弄",121.49121189743221,31.245492713088552,"2022-04-26"
"黄浦区","上海市黄浦区宁波路201号",121.48994232225496,31.24475228947335,"2022-04-26"
"黄浦区","上海市黄浦区宁波路219号",121.48970076790333,31.244703123223573,"2022-04-26"
"黄浦区","上海市黄浦区宁波路232号",121.4893332711192,31.244821523536356,"2022-04-26"
"黄浦区","上海市黄浦区宁波路266号",121.48861857925546,31.244628408998597,"2022-04-26"
"黄浦区","上海市黄浦区宁波路284弄",121.48841178932706,31.244555624319137,"2022-04-26"
"黄浦区","上海市黄浦区宁波路540号",121.48389996007263,31.242886037820316,"2022-04-26"
"黄浦区","上海市黄浦区宁波路542弄",121.48377877865934,31.242755902832418,"2022-04-26"
"黄浦区","上海市黄浦区宁波路560号",121.48341613272497,31.24275536253256,"2022-04-26"
"黄浦区","上海市黄浦区宁波路561号",121.48334597506464,31.242371903221272,"2022-04-26"
"黄浦区","上海市黄浦区宁波路566号",121.48329351402286,31.242729505321673,"2022-04-26"
"黄浦区","上海市黄浦区宁波路579号",121.48314610208867,31.242528822247852,"2022-04-26"
"黄浦区","上海市黄浦区宁波路587弄",121.48300129524047,31.242358704412634,"2022-04-26"
"黄浦区","上海市黄浦区宁波路620弄",121.48223072877401,31.242562629657368,"2022-04-26"
"黄浦区","上海市黄浦区宁波路634号",121.4822177033441,31.24245989523122,"2022-04-26"
"黄浦区","上海市黄浦区宁波路636号",121.48212598635155,31.242470855633673,"2022-04-26"
"黄浦区","上海市黄浦区宁波路70号",121.49219572162674,31.24538033394089,"2022-04-26"
"黄浦区","上海市黄浦区宁波路74弄",121.49193530285939,31.245651788011045,"2022-04-26"
"黄浦区","上海市黄浦区宁海东路4号",121.48876036625745,31.234862263865118,"2022-04-26"
"黄浦区","上海市黄浦区牛庄路620号",121.48485917069621,31.243763942550494,"2022-04-26"
"黄浦区","上海市黄浦区牛庄路692号",121.48339475305383,31.243532078940483,"2022-04-26"
"黄浦区","上海市黄浦区牛庄路736号",121.48262822896218,31.243321363510006,"2022-04-26"
"黄浦区","上海市黄浦区牛庄路775号",121.4819904320501,31.242864039925824,"2022-04-26"
"黄浦区","上海市黄浦区牌楼路29号",121.49293269146713,31.219766947437606,"2022-04-26"
"黄浦区","上海市黄浦区牌楼路41弄",121.49317020344397,31.21940879433308,"2022-04-26"
"黄浦区","上海市黄浦区蓬莱路190弄",121.4968104966926,31.223366854317213,"2022-04-26"
"黄浦区","上海市黄浦区蓬莱路199弄",121.49736106813965,31.224282461893914,"2022-04-26"
"黄浦区","上海市黄浦区蓬莱路209号",121.49733052575233,31.22373749890186,"2022-04-26"
"黄浦区","上海市黄浦区蓬莱路252弄",121.49668257798798,31.223207201084016,"2022-04-26"
"黄浦区","上海市黄浦区蓬莱路285弄",121.49608412685724,31.22310815109306,"2022-04-26"
"黄浦区","上海市黄浦区蓬莱路291号",121.49593366068432,31.22302075849646,"2022-04-26"
"黄浦区","上海市黄浦区蓬莱路336号",121.49544480282579,31.2225912829158,"2022-04-26"
"黄浦区","上海市黄浦区蓬莱路421弄",121.49367271554624,31.222080356496264,"2022-04-26"
"黄浦区","上海市黄浦区普育东路200弄",121.50230875522753,31.21362364824667,"2022-04-26"
"黄浦区","上海市黄浦区普育东路71弄",121.50353934394565,31.215349192530727,"2022-04-26"
"黄浦区","上海市黄浦区普育西路208号",121.50031784072576,31.21513725549679,"2022-04-26"
"黄浦区","上海市黄浦区青岛路41号",121.47504239825261,31.24338558159626,"2022-04-26"
"黄浦区","上海市黄浦区青岛路43号",121.47493909311896,31.243386353447992,"2022-04-26"
"黄浦区","上海市黄浦区青岛路66弄",121.48457854005488,31.235498236464565,"2022-04-26"
"黄浦区","上海市黄浦区瞿溪路1003弄",121.48385693123872,31.205771630284882,"2022-04-26"
"黄浦区","上海市黄浦区瞿溪路1072弄",121.48143060805627,31.20475592286575,"2022-04-26"
"黄浦区","上海市黄浦区瞿溪路1111弄",121.48016264982894,31.204909430212833,"2022-04-26"
"黄浦区","上海市黄浦区瞿溪路1145弄",121.4794539766121,31.204640560538927,"2022-04-26"
"黄浦区","上海市黄浦区瞿溪路115号",121.50160178879116,31.212705234041426,"2022-04-26"
"黄浦区","上海市黄浦区瞿溪路118号",121.50141287514242,31.212315474705928,"2022-04-26"
"黄浦区","上海市黄浦区瞿溪路1200弄",121.47791751486785,31.202302396543868,"2022-04-26"
"黄浦区","上海市黄浦区瞿溪路120弄",121.5017221617295,31.212085926699476,"2022-04-26"
"黄浦区","上海市黄浦区瞿溪路121号",121.50109586312794,31.21231331280335,"2022-04-26"
"黄浦区","上海市黄浦区瞿溪路1254弄",121.47683415842282,31.20249351352583,"2022-04-26"
"黄浦区","上海市黄浦区瞿溪路131号",121.50023654407711,31.21170705158098,"2022-04-26"
"黄浦区","上海市黄浦区瞿溪路560号",121.49304075761998,31.207360571795583,"2022-04-26"
"黄浦区","上海市黄浦区瞿溪路800弄",121.48752803636634,31.205985827782268,"2022-04-26"
"黄浦区","上海市黄浦区瞿溪路883弄",121.4857689745167,31.2063427195683,"2022-04-26"
"黄浦区","上海市黄浦区瞿溪路937弄",121.48468409095231,31.206350981651095,"2022-04-26"
"黄浦区","上海市黄浦区人民路1006弄",121.48918118799635,31.2280059433515,"2022-04-26"
"黄浦区","上海市黄浦区瑞金二路132弄",121.47202436123074,31.216549851164665,"2022-04-26"
"黄浦区","上海市黄浦区瑞金二路225弄",121.47352803482389,31.213905849373006,"2022-04-26"
"黄浦区","上海市黄浦区瑞金二路24号",121.46994128058365,31.224197309223058,"2022-04-26"
"黄浦区","上海市黄浦区瑞金二路40弄",121.47082898608862,31.222843193782065,"2022-04-26"
"黄浦区","上海市黄浦区瑞金二路450号",121.47352794499334,31.211845954619815,"2022-04-26"
"黄浦区","上海市黄浦区瑞金二路456弄",121.47341718392396,31.211447466805947,"2022-04-26"
"黄浦区","上海市黄浦区瑞金二路48弄",121.47000784502195,31.221921087082976,"2022-04-26"
"黄浦区","上海市黄浦区瑞金二路52弄",121.47064600125623,31.221863184902386,"2022-04-26"
"黄浦区","上海市黄浦区瑞金二路70弄",121.47087210475308,31.221357118319393,"2022-04-26"
"黄浦区","上海市黄浦区瑞金二路81号",121.47141072873688,31.221967331598808,"2022-04-26"
"黄浦区","上海市黄浦区瑞金南路1号",121.4741731080106,31.210761362713356,"2022-04-26"
"黄浦区","上海市黄浦区瑞金南路333弄",121.47567794940092,31.204047839944533,"2022-04-26"
"黄浦区","上海市黄浦区桑园街38弄",121.50415836627258,31.219051566321212,"2022-04-26"
"黄浦区","上海市黄浦区桑园街6弄",121.49158559252436,31.23724715206362,"2022-04-26"
"黄浦区","上海市黄浦区山东北路83号",121.48831037063499,31.246164206554724,"2022-04-26"
"黄浦区","上海市黄浦区山西南路239号",121.4888610319126,31.243232832013504,"2022-04-26"
"黄浦区","上海市黄浦区山西南路294号",121.48816232988693,31.24457383979036,"2022-04-26"
"黄浦区","上海市黄浦区山西南路9弄",121.49158559252436,31.23724715206362,"2022-04-26"
"黄浦区","上海市黄浦区陕西南路271弄",121.46934498538613,31.21423985704883,"2022-04-26"
"黄浦区","上海市黄浦区陕西南路287弄",121.46860289520434,31.21362758594266,"2022-04-26"
"黄浦区","上海市黄浦区陕西南路39弄",121.46472625777602,31.225395075166176,"2022-04-26"
"黄浦区","上海市黄浦区尚文路133弄",121.49799257691318,31.221508436760633,"2022-04-26"
"黄浦区","上海市黄浦区尚文路149弄",121.49790493223891,31.221349475187548,"2022-04-26"
"黄浦区","上海市黄浦区尚文路168号",121.49718185619042,31.221295201213213,"2022-04-26"
"黄浦区","上海市黄浦区尚文路185号",121.49733995796018,31.221459875920175,"2022-04-26"
"黄浦区","上海市黄浦区尚文路198号",121.49703192900081,31.22086069947048,"2022-04-26"
"黄浦区","上海市黄浦区尚文路275弄",121.52178994750021,31.246496092349336,"2022-04-26"
"黄浦区","上海市黄浦区绍兴路102弄",121.46861017147897,31.214989864395072,"2022-04-26"
"黄浦区","上海市黄浦区绍兴路45号",121.46891604450511,31.214407014858075,"2022-04-26"
"黄浦区","上海市黄浦区绍兴路96弄",121.46880842750501,31.215331511827483,"2022-04-26"
"黄浦区","上海市黄浦区顺昌路501号",121.4860437661722,31.21876829982897,"2022-04-26"
"黄浦区","上海市黄浦区顺昌路504弄",121.48567213718273,31.218513521385013,"2022-04-26"
"黄浦区","上海市黄浦区顺昌路507弄",121.4837827312036,31.22606872009813,"2022-04-26"
"黄浦区","上海市黄浦区思南路26弄",121.47224929693044,31.224894354510305,"2022-04-26"
"黄浦区","上海市黄浦区思南路53号",121.47457698616789,31.220474834291586,"2022-04-26"
"黄浦区","上海市黄浦区四川中路126弄",121.49640239649942,31.240246948227217,"2022-04-26"
"黄浦区","上海市黄浦区四川中路611弄",121.49262627945767,31.248081486817977,"2022-04-26"
"黄浦区","上海市黄浦区四川中路629号",121.49267541676907,31.24811683584547,"2022-04-26"
"黄浦区","上海市黄浦区四川中路668号",121.49268502863804,31.24871159280607,"2022-04-26"
"黄浦区","上海市黄浦区四牌楼路123号",121.50209837207709,31.229125691670326,"2022-04-26"
"黄浦区","上海市黄浦区泗泾路10号",121.49402098859248,31.239455847491712,"2022-04-26"
"黄浦区","上海市黄浦区泗泾路15号",121.49382461900798,31.239171793687525,"2022-04-26"
"黄浦区","上海市黄浦区泗泾路36号",121.49294203384443,31.239219264695816,"2022-04-26"
"黄浦区","上海市黄浦区泗泾路8号",121.49405018352155,31.23936013380623,"2022-04-26"
"黄浦区","上海市黄浦区泰康路328号",121.47378611799691,31.213477258490133,"2022-04-26"
"黄浦区","上海市黄浦区天津路138弄",121.49015872405232,31.244165534520228,"2022-04-26"
"黄浦区","上海市黄浦区天津路195弄",121.48894430483338,31.243440537423524,"2022-04-26"
"黄浦区","上海市黄浦区天津路478弄",121.48354683617669,31.242347049322753,"2022-04-26"
"黄浦区","上海市黄浦区天津路500号",121.48413100424982,31.242133166587784,"2022-04-26"
"黄浦区","上海市黄浦区天柱山路17弄",121.50017698642179,31.216806951166113,"2022-04-26"
"黄浦区","上海市黄浦区铁道路140号",121.49343843746924,31.20585927063233,"2022-04-26"
"黄浦区","上海市黄浦区威海路151号",121.47533165262682,31.232874068416944,"2022-04-26"
"黄浦区","上海市黄浦区威海路163号",121.47468226757367,31.23348165921903,"2022-04-26"
"黄浦区","上海市黄浦区威海路167号",121.47435869792898,31.23345873279235,"2022-04-26"
"黄浦区","上海市黄浦区威海路176号",121.47452766919538,31.233781940854414,"2022-04-26"
"黄浦区","上海市黄浦区文庙路103号",121.49632702866712,31.22416666041866,"2022-04-26"
"黄浦区","上海市黄浦区文庙路105号",121.49630169645175,31.224151220211123,"2022-04-26"
"黄浦区","上海市黄浦区文庙路124号",121.49583790131696,31.22375571842701,"2022-04-26"
"黄浦区","上海市黄浦区文庙路137号",121.4958337691116,31.22388889069595,"2022-04-26"
"黄浦区","上海市黄浦区文庙路60弄",121.49707226291821,31.224346924653062,"2022-04-26"
"黄浦区","上海市黄浦区五里桥路252号",121.48682762756022,31.209417013414257,"2022-04-26"
"黄浦区","上海市黄浦区五里桥路269弄",121.48593902374974,31.209584102620525,"2022-04-26"
"黄浦区","上海市黄浦区五里桥路345弄",121.48871412177073,31.20967884151918,"2022-04-26"
"黄浦区","上海市黄浦区西仓桥街112弄",121.49629127610783,31.225973533112793,"2022-04-26"
"黄浦区","上海市黄浦区西仓桥街162弄",121.49564243003799,31.225699011143245,"2022-04-26"
"黄浦区","上海市黄浦区西仓桥街93号",121.4967025203703,31.226371650297605,"2022-04-26"
"黄浦区","上海市黄浦区西藏南路1135弄",121.44504680947728,31.234199168621856,"2022-04-26"
"黄浦区","上海市黄浦区西藏南路1200弄",121.49070103108869,31.213950862497263,"2022-04-26"
"黄浦区","上海市黄浦区西藏南路1265号",121.49404138012754,31.214310657875597,"2022-04-26"
"黄浦区","上海市黄浦区西藏南路1277弄",121.49416058526872,31.213954877388943,"2022-04-26"
"黄浦区","上海市黄浦区西藏南路1335号",121.49451622442011,31.212457465269782,"2022-04-26"
"黄浦区","上海市黄浦区西藏南路1341弄",121.4946357888835,31.211611849990653,"2022-04-26"
"黄浦区","上海市黄浦区西藏南路1374弄",121.493515512082,31.211693925657812,"2022-04-26"
"黄浦区","上海市黄浦区西藏南路1421弄",121.49516560947329,31.210473206760817,"2022-04-26"
"黄浦区","上海市黄浦区西藏南路1433弄",121.4955320282908,31.210358932450475,"2022-04-26"
"黄浦区","上海市黄浦区西藏南路1501弄",121.4956678520839,31.20879405527981,"2022-04-26"
"黄浦区","上海市黄浦区西藏南路1558弄",121.49511099249828,31.208737843682584,"2022-04-26"
"黄浦区","上海市黄浦区西藏南路1739弄",121.49815948207694,31.204502959505437,"2022-04-26"
"黄浦区","上海市黄浦区西藏南路311弄",121.48819457905475,31.229152093020186,"2022-04-26"
"黄浦区","上海市黄浦区西藏南路381号",121.4883917571142,31.228126217546457,"2022-04-26"
"黄浦区","上海市黄浦区西藏南路555弄",121.48905380827505,31.225934624536166,"2022-04-26"
"黄浦区","上海市黄浦区西藏南路688弄",121.4895768915735,31.222731250636816,"2022-04-26"
"黄浦区","上海市黄浦区西藏南路897号",121.492501774314,31.218914604106843,"2022-04-26"
"黄浦区","上海市黄浦区西藏中路200号",121.48382001088227,31.237429861181408,"2022-04-26"
"黄浦区","上海市黄浦区西藏中路555号",121.47944409525151,31.24234357595132,"2022-04-26"
"黄浦区","上海市黄浦区西凌家宅路111弄",121.49301659320176,31.210318627559108,"2022-04-26"
"黄浦区","上海市黄浦区西凌家宅路27弄",121.49375212575332,31.210565784292413,"2022-04-26"
"黄浦区","上海市黄浦区西姚家弄29号",121.50316088783428,31.228153236760257,"2022-04-26"
"黄浦区","上海市黄浦区先棉祠街37号",121.49793158196904,31.223206274662125,"2022-04-26"
"黄浦区","上海市黄浦区县左街14号",121.50163808033378,31.230110719443687,"2022-04-26"
"黄浦区","上海市黄浦区县左街20弄",121.50137038529179,31.22977360334704,"2022-04-26"
"黄浦区","上海市黄浦区县左街24弄",121.50137757173589,31.229682743133356,"2022-04-26"
"黄浦区","上海市黄浦区县左街32号",121.50129861068154,31.230074128472033,"2022-04-26"
"黄浦区","上海市黄浦区香山路36号",121.4716427610501,31.221882022415738,"2022-04-26"
"黄浦区","上海市黄浦区小桃园街30弄",121.49613631840735,31.226987157593264,"2022-04-26"
"黄浦区","上海市黄浦区斜土东路158弄",121.49544579096184,31.21356450557723,"2022-04-26"
"黄浦区","上海市黄浦区斜土东路350号",121.49150833825051,31.212475532569158,"2022-04-26"
"黄浦区","上海市黄浦区斜土东路68弄",121.49727096809701,31.21408003382973,"2022-04-26"
"黄浦区","上海市黄浦区斜土路118弄",121.48937099995062,31.211599882225087,"2022-04-26"
"黄浦区","上海市黄浦区斜土路145弄",121.48850826733883,31.21225810705978,"2022-04-26"
"黄浦区","上海市黄浦区斜土路195弄",121.4886325928214,31.21209418827557,"2022-04-26"
"黄浦区","上海市黄浦区斜土路251弄",121.48710259887683,31.211316361550864,"2022-04-26"
"黄浦区","上海市黄浦区斜土路262弄",121.48748473804076,31.2107963397823,"2022-04-26"
"黄浦区","上海市黄浦区斜土路298弄",121.48664850544152,31.2107846035487,"2022-04-26"
"黄浦区","上海市黄浦区斜土路330弄",121.48571839991651,31.21017856406608,"2022-04-26"
"黄浦区","上海市黄浦区斜土路360弄",121.46239973633573,31.20121344701052,"2022-04-26"
"黄浦区","上海市黄浦区斜土路435弄",121.48354728532942,31.209895888429106,"2022-04-26"
"黄浦区","上海市黄浦区斜土路486弄",121.48399823469545,31.20840937579005,"2022-04-26"
"黄浦区","上海市黄浦区斜土路501弄",121.48315930717968,31.209705558681776,"2022-04-26"
"黄浦区","上海市黄浦区斜土路520号",121.48301135626217,31.209060442197963,"2022-04-26"
"黄浦区","上海市黄浦区斜土路550弄",121.48303138847504,31.20882324205738,"2022-04-26"
"黄浦区","上海市黄浦区斜土路556弄",121.48235604239265,31.208877832116915,"2022-04-26"
"黄浦区","上海市黄浦区斜土路645号",121.48075220773512,31.20891620728824,"2022-04-26"
"黄浦区","上海市黄浦区斜土路80弄",121.49047914962772,31.21070993944921,"2022-04-26"
"黄浦区","上海市黄浦区斜土路810弄",121.47650097690915,31.207091014222403,"2022-04-26"
"黄浦区","上海市黄浦区斜土支路5号",121.49068333447015,31.21176990156404,"2022-04-26"
"黄浦区","上海市黄浦区新昌路310弄",121.47466510993841,31.242175696178155,"2022-04-26"
"黄浦区","上海市黄浦区新昌路328弄",121.4746492099309,31.242473016839636,"2022-04-26"
"黄浦区","上海市黄浦区新昌路61弄",121.47561785276231,31.238338924435645,"2022-04-26"
"黄浦区","上海市黄浦区新闸路274号",121.47443599711809,31.24521981136301,"2022-04-26"
"黄浦区","上海市黄浦区徐家汇路101号",121.4871600005989,31.21574627399532,"2022-04-26"
"黄浦区","上海市黄浦区徐家汇路1弄",121.48837666558163,31.21657625606222,"2022-04-26"
"黄浦区","上海市黄浦区徐家汇路396号",121.48036683467136,31.215280477115094,"2022-04-26"
"黄浦区","上海市黄浦区徐家汇路518号",121.47771431816149,31.21351076755797,"2022-04-26"
"黄浦区","上海市黄浦区徐家汇路536弄",121.47704984157576,31.213221384705662,"2022-04-26"
"黄浦区","上海市黄浦区徐家汇路77弄",121.48724884301384,31.21627800381858,"2022-04-26"
"黄浦区","上海市黄浦区薛家浜路236号",121.50870262435589,31.216563130821683,"2022-04-26"
"黄浦区","上海市黄浦区薛家浜路242弄",121.50862932262628,31.216213998747815,"2022-04-26"
"黄浦区","上海市黄浦区学前街100号",121.4959146166075,31.22184589144417,"2022-04-26"
"黄浦区","上海市黄浦区学西街39弄",121.49334730437526,31.223264716424257,"2022-04-26"
"黄浦区","上海市黄浦区学院路127号",121.50130525814232,31.22904810871317,"2022-04-26"
"黄浦区","上海市黄浦区学院路137号",121.50106541057117,31.22900595913933,"2022-04-26"
"黄浦区","上海市黄浦区巡道街14号",121.50407338657132,31.226470928431983,"2022-04-26"
"黄浦区","上海市黄浦区巡道街21号",121.50416995441364,31.226302711375595,"2022-04-26"
"黄浦区","上海市黄浦区巡道街37弄",121.50421388155308,31.225976621094365,"2022-04-26"
"黄浦区","上海市黄浦区巡道街49号",121.50414614931763,31.225886374790704,"2022-04-26"
"黄浦区","上海市黄浦区巡道街53弄",121.50428781209655,31.22573336503335,"2022-04-26"
"黄浦区","上海市黄浦区延安东路1256弄",121.47833980828808,31.231823222667014,"2022-04-26"
"黄浦区","上海市黄浦区延安东路1292弄",121.47803330644808,31.231757993110342,"2022-04-26"
"黄浦区","上海市黄浦区延安东路1310弄",121.43025647874715,31.230194477204673,"2022-04-26"
"黄浦区","上海市黄浦区永年路118号",121.48573888128213,31.218104253105693,"2022-04-26"
"黄浦区","上海市黄浦区永年路126号",121.4856150049523,31.218080859675172,"2022-04-26"
"黄浦区","上海市黄浦区永年路128号",121.4855671252686,31.218058161093428,"2022-04-26"
"黄浦区","上海市黄浦区永年路44弄",121.48733207101934,31.218247392979013,"2022-04-26"
"黄浦区","上海市黄浦区永年路84号",121.48662389187055,31.21832359518475,"2022-04-26"
"黄浦区","上海市黄浦区云南南路297号",121.48894367601952,31.231416868806317,"2022-04-26"
"黄浦区","上海市黄浦区肇嘉浜路18号",121.47228873254234,31.21118641428827,"2022-04-26"
"黄浦区","上海市黄浦区肇嘉浜路18弄",121.47286885824066,31.21155293768474,"2022-04-26"
"黄浦区","上海市黄浦区肇周路179号",121.4875647770617,31.221979684053263,"2022-04-26"
"黄浦区","上海市黄浦区肇周路354号",121.48786948229069,31.218845659691983,"2022-04-26"
"黄浦区","上海市黄浦区肇周路384弄",121.48784810261954,31.218581925605033,"2022-04-26"
"黄浦区","上海市黄浦区浙江中路118弄",121.48669764275293,31.237833410093312,"2022-04-26"
"黄浦区","上海市黄浦区浙江中路128弄",121.4866102376268,31.237968878016,"2022-04-26"
"黄浦区","上海市黄浦区浙江中路137弄",121.48637928328019,31.23804367475078,"2022-04-26"
"黄浦区","上海市黄浦区浙江中路159号",121.48602005090673,31.238268064596273,"2022-04-26"
"黄浦区","上海市黄浦区浙江中路167弄",121.48600864242677,31.238373814010046,"2022-04-26"
"黄浦区","上海市黄浦区浙江中路419号",121.48416963138675,31.242341105998225,"2022-04-26"
"黄浦区","上海市黄浦区浙江中路535号",121.4831350529309,31.24395057535828,"2022-04-26"
"黄浦区","上海市黄浦区制造局路208弄",121.4903367682044,31.213930324779447,"2022-04-26"
"黄浦区","上海市黄浦区制造局路361号",121.49177423668145,31.2121371175751,"2022-04-26"
"黄浦区","上海市黄浦区制造局路370弄",121.49096774352816,31.212175378451143,"2022-04-26"
"黄浦区","上海市黄浦区制造局路455弄",121.49101040750632,31.210925129406952,"2022-04-26"
"黄浦区","上海市黄浦区制造局路833弄19号",121.49308935594807,31.204869972362424,"2022-04-26"
"黄浦区","上海市黄浦区中华路1022号",121.49728210708534,31.22024353059267,"2022-04-26"
"黄浦区","上海市黄浦区中华路1141弄",121.4952663993515,31.22080217900347,"2022-04-26"
"黄浦区","上海市黄浦区中华路1148弄",121.49465968381007,31.22081669331796,"2022-04-26"
"黄浦区","上海市黄浦区中华路1209号",121.4945507193517,31.22125706272593,"2022-04-26"
"黄浦区","上海市黄浦区中华路1299弄",121.49712880793531,31.218566318105758,"2022-04-26"
"黄浦区","上海市黄浦区中华路1349弄",121.52297633958723,31.187811118992286,"2022-04-26"
"黄浦区","上海市黄浦区中华路343号",121.50522151084363,31.225488950340896,"2022-04-26"
"黄浦区","上海市黄浦区中华路367号",121.50510571926338,31.225121555102913,"2022-04-26"
"黄浦区","上海市黄浦区中华路88弄",121.50519860405312,31.22896998531219,"2022-04-26"
"黄浦区","上海市黄浦区中华路989号",121.49759651401384,31.220345362965787,"2022-04-26"
"黄浦区","上海市黄浦区中华路999号",121.49714565447837,31.22050957611955,"2022-04-26"
"黄浦区","上海市黄浦区中山南路1358弄",121.50624378251398,31.216168060220113,"2022-04-26"
"黄浦区","上海市黄浦区中山南路1671号",121.50116655977159,31.210134244041726,"2022-04-26"
"黄浦区","上海市黄浦区中山南路1711弄",121.50028954410219,31.209655061393807,"2022-04-26"
"黄浦区","上海市黄浦区中山南路1726弄",121.49944953861981,31.209989701935054,"2022-04-26"
"黄浦区","上海市黄浦区中山南路1887弄",121.49909354014622,31.207753594767183,"2022-04-26"
"黄浦区","上海市黄浦区中山南路398弄",121.51018410980295,31.22655770021435,"2022-04-26"
"黄浦区","上海市黄浦区中山南路566弄",121.51042799974891,31.223865884717522,"2022-04-26"
"黄浦区","上海市黄浦区中山南路609号",121.51249194648864,31.22299142174079,"2022-04-26"
"黄浦区","上海市黄浦区中山南路943号",121.51304970437978,31.21747865054048,"2022-04-26"
"黄浦区","上海市黄浦区中山南一路1012弄",121.47947984781081,31.201312211286115,"2022-04-26"
"黄浦区","上海市黄浦区中山南一路1022号",121.47886891023347,31.201324720905465,"2022-04-26"
"黄浦区","上海市黄浦区中山南一路1040号",121.47767371475244,31.200915223053823,"2022-04-26"
"黄浦区","上海市黄浦区中山南一路1065号",121.47900410521271,31.201882323907988,"2022-04-26"
"黄浦区","上海市黄浦区中山南一路1079号",121.47797815048978,31.20152943055013,"2022-04-26"
"黄浦区","上海市黄浦区中山南一路1109弄",121.47688787709231,31.201485415311588,"2022-04-26"
"黄浦区","上海市黄浦区中山南一路247弄",121.49296071859904,31.20630496106852,"2022-04-26"
"黄浦区","上海市黄浦区中山南一路250号",121.49370855793609,31.206113079704476,"2022-04-26"
"黄浦区","上海市黄浦区中山南一路721弄",121.48667689189564,31.204362115140608,"2022-04-26"
"黄浦区","上海市黄浦区昼锦路180弄",121.49724069520134,31.228702960270365,"2022-04-26"
"黄浦区","上海市黄浦区自忠路349号",121.4808296416701,31.224091698187276,"2022-04-26"
"黄浦区","上海市黄浦区自忠路359号",121.48041597198274,31.224044837112036,"2022-04-26"
"静安区","上海市静安区安远路515弄",121.44648391863214,31.243867678946206,"2022-04-26"
"静安区","上海市静安区宝昌路220号",121.48314448513875,31.26225522061515,"2022-04-26"
"静安区","上海市静安区宝昌路222号",121.48313543021922,31.262265978056085,"2022-04-26"
"静安区","上海市静安区宝昌路520弄",121.47823138281304,31.266756877681747,"2022-04-26"
"静安区","上海市静安区宝昌路632弄",121.47799854202485,31.267667970754843,"2022-04-26"
"静安区","上海市静安区宝昌路731弄",121.47710230261755,31.270603131672043,"2022-04-26"
"静安区","上海市静安区宝昌路788弄",121.47551643407023,31.27074225591781,"2022-04-26"
"静安区","上海市静安区宝山路403弄",121.48406713472806,31.262179671550964,"2022-04-26"
"静安区","上海市静安区宝山路450弄",121.4836851752252,31.263011402418392,"2022-04-26"
"静安区","上海市静安区宝山路499弄",121.48471723842562,31.26366154873471,"2022-04-26"
"静安区","上海市静安区宝山路591号",121.48502993857365,31.26519533593651,"2022-04-26"
"静安区","上海市静安区宝通路214弄",121.48432970942861,31.262321200595697,"2022-04-26"
"静安区","上海市静安区宝通路239弄",121.48459120616258,31.262535654503093,"2022-04-26"
"静安区","上海市静安区宝通路416弄",121.48553164220097,31.259941879029363,"2022-04-26"
"静安区","上海市静安区宝源路209弄",121.486628203737,31.26230129085208,"2022-04-26"
"静安区","上海市静安区保德路448弄",121.46494517482881,31.32365562127286,"2022-04-26"
"静安区","上海市静安区保德路681弄",121.45986965886689,31.322221122563445,"2022-04-26"
"静安区","上海市静安区昌化路325号",121.45825684115427,31.24361898926912,"2022-04-26"
"静安区","上海市静安区昌化路410弄",121.45751358317531,31.244787948495482,"2022-04-26"
"静安区","上海市静安区昌化路509弄",121.4557742840469,31.24590587509885,"2022-04-26"
"静安区","上海市静安区昌平路428弄",121.45277070974372,31.242469003171372,"2022-04-26"
"静安区","上海市静安区昌平路88弄",121.45870231085667,31.2451041708738,"2022-04-26"
"静安区","上海市静安区昌平路923弄",121.445470809678,31.239353649972383,"2022-04-26"
"静安区","上海市静安区常德路519弄",121.4525393960749,31.236180685639255,"2022-04-26"
"静安区","上海市静安区常德路619号",121.45131365820654,31.237485283648496,"2022-04-26"
"静安区","上海市静安区长安路1001号",121.45863996845428,31.25134288001556,"2022-04-26"
"静安区","上海市静安区长安路490号",121.46341769613964,31.246194076324475,"2022-04-26"
"静安区","上海市静安区长乐路650号",121.46061201854032,31.225109897865405,"2022-04-26"
"静安区","上海市静安区长乐路682弄",121.45939146217,31.224719547674137,"2022-04-26"
"静安区","上海市静安区长乐路888号",121.45316641332087,31.22218542938305,"2022-04-26"
"静安区","上海市静安区长临路380弄",121.4431406051851,31.324593381735777,"2022-04-26"
"静安区","上海市静安区长兴路168弄",121.46813442888089,31.256205160039485,"2022-04-26"
"静安区","上海市静安区场中路2251弄",121.45322426419571,31.312649958052166,"2022-04-26"
"静安区","上海市静安区场中路2600弄",121.44826202455859,31.310232736781717,"2022-04-26"
"静安区","上海市静安区场中路2601弄",121.44665765091777,31.311671662005885,"2022-04-26"
"静安区","上海市静安区场中路2965弄",121.44406990223517,31.31112890535078,"2022-04-26"
"静安区","上海市静安区场中路3123弄",121.43768789073954,31.312019512059553,"2022-04-26"
"静安区","上海市静安区场中路3220弄",121.44154314849672,31.309532625609634,"2022-04-26"
"静安区","上海市静安区场中路3332弄",121.4374503787627,31.30971704451895,"2022-04-26"
"静安区","上海市静安区大沽路368弄",121.4719450408542,31.23178284982251,"2022-04-26"
"静安区","上海市静安区大沽路489弄",121.47167222547083,31.231059069065495,"2022-04-26"
"静安区","上海市静安区大宁路540弄",121.45728200001484,31.277818954401145,"2022-04-26"
"静安区","上海市静安区大统路1033弄",121.4661100075836,31.26279586923471,"2022-04-26"
"静安区","上海市静安区大统路159弄",121.47107898451203,31.249587744883513,"2022-04-26"
"静安区","上海市静安区大统路555号",121.46681904012263,31.25406485260959,"2022-04-26"
"静安区","上海市静安区大统路933弄",121.46622139746682,31.261523032628112,"2022-04-26"
"静安区","上海市静安区大统路988号",121.4657222989255,31.26183016951846,"2022-04-26"
"静安区","上海市静安区汾西路261弄",121.46833367304299,31.319468513689554,"2022-04-26"
"静安区","上海市静安区汾西路681号",121.46016565053242,31.319528206338774,"2022-04-26"
"静安区","上海市静安区汾西路700弄",121.45976877915811,31.319915205041998,"2022-04-26"
"静安区","上海市静安区汾西路815弄",121.45724004914753,31.319592526282378,"2022-04-26"
"静安区","上海市静安区汾西路850号",121.4570034354762,31.32045683086066,"2022-04-26"
"静安区","上海市静安区汾西路885弄",121.45590040614049,31.319208379773347,"2022-04-26"
"静安区","上海市静安区奉贤路290弄",121.46096945430276,31.235547870703186,"2022-04-26"
"静安区","上海市静安区富民路197弄",121.45779493246104,31.22536110715212,"2022-04-26"
"静安区","上海市静安区高平路458弄",121.43477702156503,31.292379842020235,"2022-04-26"
"静安区","上海市静安区高平路539号",121.4341227856621,31.292940450928633,"2022-04-26"
"静安区","上海市静安区高平路811号",121.43394608896828,31.297576396306795,"2022-04-26"
"静安区","上海市静安区公兴路203号",121.48043393809294,31.261077064979556,"2022-04-26"
"静安区","上海市静安区公兴路220弄",121.48022696850346,31.261046196747248,"2022-04-26"
"静安区","上海市静安区公兴路39弄",121.48229154405703,31.259114442485508,"2022-04-26"
"静安区","上海市静安区共和新路1207号",121.46810667124062,31.268705527264295,"2022-04-26"
"静安区","上海市静安区共和新路1700弄",121.46231502612613,31.274841119709045,"2022-04-26"
"静安区","上海市静安区共和新路2999弄",121.46114956455749,31.294451077299822,"2022-04-26"
"静安区","上海市静安区共和新路318弄",121.46895314452269,31.254511548301707,"2022-04-26"
"静安区","上海市静安区共和新路3795弄",121.4556400772037,31.312637154811615,"2022-04-26"
"静安区","上海市静安区共和新路4555弄",121.45578572767756,31.322527837771933,"2022-04-26"
"静安区","上海市静安区共和新路4699弄",121.45502231250448,31.323576265945533,"2022-04-26"
"静安区","上海市静安区共和新路555弄",121.47060997920528,31.25892390415751,"2022-04-26"
"静安区","上海市静安区共和新路635弄",121.46201678869683,31.27475115203856,"2022-04-26"
"静安区","上海市静安区共和新路710弄",121.46863730030537,31.261505283480474,"2022-04-26"
"静安区","上海市静安区共和新路736弄",121.46920377175995,31.262594071693048,"2022-04-26"
"静安区","上海市静安区共和新路802弄",121.46978497542491,31.263048752192734,"2022-04-26"
"静安区","上海市静安区共和新路970弄",121.46864206132457,31.265722077534534,"2022-04-26"
"静安区","上海市静安区光复路271号",121.47396398248787,31.246762371960752,"2022-04-26"
"静安区","上海市静安区广延路42弄",121.46281825687282,31.27847817926029,"2022-04-26"
"静安区","上海市静安区广中西路911弄",121.44401519542961,31.284445325905548,"2022-04-26"
"静安区","上海市静安区国庆路3弄",121.45343177276851,31.233844930401652,"2022-04-26"
"静安区","上海市静安区海防路100弄",121.45616037575508,31.247381141103308,"2022-04-26"
"静安区","上海市静安区海防路338弄",121.45322103029588,31.245084874933095,"2022-04-26"
"静安区","上海市静安区海防路377号",121.45323459470907,31.24489778128555,"2022-04-26"
"静安区","上海市静安区海宁路1388号",121.4751672627185,31.250809960228814,"2022-04-26"
"静安区","上海市静安区汉中路28弄",121.45343177276851,31.233844930401652,"2022-04-26"
"静安区","上海市静安区汉中路48号",121.46601406855514,31.24953626577337,"2022-04-26"
"静安区","上海市静安区汉中路58号",121.46592369902083,31.249473749874355,"2022-04-26"
