"district","address","lng","lat","date"
"浦东新区","上海市浦东新区白萱路99弄",121.59770960886215,31.336693424206917,"2022-04-24"
"浦东新区","上海市浦东新区白杨路1155弄",121.56579802426458,31.197739179406092,"2022-04-24"
"浦东新区","上海市浦东新区白杨路199弄",121.56309116027137,31.213856898540932,"2022-04-24"
"浦东新区","上海市浦东新区白杨路360弄",121.56134817809034,31.212020220119758,"2022-04-24"
"浦东新区","上海市浦东新区板泉路1000弄",121.53688426481492,31.18970225553777,"2022-04-24"
"浦东新区","上海市浦东新区板泉路1555弄",121.53688426481492,31.18970225553777,"2022-04-24"
"浦东新区","上海市浦东新区板泉路2000弄",121.53688426481492,31.18970225553777,"2022-04-24"
"浦东新区","上海市浦东新区板泉路2101弄",121.53960469322134,31.168815850763366,"2022-04-24"
"浦东新区","上海市浦东新区板泉路50号",121.50119826995608,31.163464745166774,"2022-04-24"
"浦东新区","上海市浦东新区北艾路1200弄",121.53888676745775,31.188481867872763,"2022-04-24"
"浦东新区","上海市浦东新区北艾路155弄",121.5498820268999,31.192539931368604,"2022-04-24"
"浦东新区","上海市浦东新区北艾路1643弄",121.53206000490414,31.184833893684832,"2022-04-24"
"浦东新区","上海市浦东新区北艾路1660弄",121.53028818711626,31.187040813780268,"2022-04-24"
"浦东新区","上海市浦东新区北艾路1765弄",121.52839860147601,31.184265453706548,"2022-04-24"
"浦东新区","上海市浦东新区北蔡大街31弄",121.56054356584508,31.19367809757782,"2022-04-24"
"浦东新区","上海市浦东新区北蔡镇北蔡村丁家宅",121.56985791601693,31.192184222632797,"2022-04-24"
"浦东新区","上海市浦东新区北蔡镇联勤村冯桥队冯家宅",121.55744791522713,31.171212397581485,"2022-04-24"
"浦东新区","上海市浦东新区北蔡镇联勤村冯桥队张家宅",121.55744791522713,31.171212397581485,"2022-04-24"
"浦东新区","上海市浦东新区北蔡镇联勤村李家队李家宅",121.55718596934042,31.173231011079945,"2022-04-24"
"浦东新区","上海市浦东新区北蔡镇联勤村麦家宅",121.55391344236757,31.16926349405447,"2022-04-24"
"浦东新区","上海市浦东新区北蔡镇联勤村张家队张家宅",121.55718596934042,31.173231011079945,"2022-04-24"
"浦东新区","上海市浦东新区北蔡镇南新村东钟家宅",121.54865494157326,31.173251634963325,"2022-04-24"
"浦东新区","上海市浦东新区北蔡镇南新村吴家宅",121.54984959807098,31.17214172372261,"2022-04-24"
"浦东新区","上海市浦东新区北蔡镇南新村西钟家宅",121.54865494157326,31.173251634963325,"2022-04-24"
"浦东新区","上海市浦东新区北蔡镇南新村徐家宅",121.54984959807098,31.17214172372261,"2022-04-24"
"浦东新区","上海市浦东新区北蔡镇南新村杨家湾",121.51562487678522,31.229719025472257,"2022-04-24"
"浦东新区","上海市浦东新区北蔡镇南新村赵家厍",121.54343515774643,31.176791383130574,"2022-04-24"
"浦东新区","上海市浦东新区北蔡镇潘姚村西刘队刘家宅",121.58307405617138,31.18816553140532,"2022-04-24"
"浦东新区","上海市浦东新区北蔡镇卫行村顾家队张家宅",121.58495924011461,31.172225069869427,"2022-04-24"
"浦东新区","上海市浦东新区北蔡镇卫行村沈家队沈家宅",121.58720141066752,31.166665202015878,"2022-04-24"
"浦东新区","上海市浦东新区北蔡镇卫行村张浜队南顾家宅",121.58814382297803,31.171721593130023,"2022-04-24"
"浦东新区","上海市浦东新区北蔡镇卫行村张浜队王家宅",121.5950273584399,31.16387255262983,"2022-04-24"
"浦东新区","上海市浦东新区北蔡镇卫行村张浜队杨家宅",121.58720141066752,31.166665202015878,"2022-04-24"
"浦东新区","上海市浦东新区北蔡镇五星村陈家队陈家宅",121.57857947438275,31.194413133383005,"2022-04-24"
"浦东新区","上海市浦东新区北蔡镇五星村家务队顾家宅",121.57836549801027,31.179988450201478,"2022-04-24"
"浦东新区","上海市浦东新区北蔡镇五星村吴家队吴家宅",121.57836549801027,31.179988450201478,"2022-04-24"
"浦东新区","上海市浦东新区北蔡镇杨桥村蒋家队北季家宅",121.57876102192631,31.19930987845819,"2022-04-24"
"浦东新区","上海市浦东新区北蔡镇杨桥村西计队西计家宅",121.57064465198256,31.190980934765687,"2022-04-24"
"浦东新区","上海市浦东新区北蔡镇一六村金桥队南赵家宅",121.60272673496593,31.173188295681612,"2022-04-24"
"浦东新区","上海市浦东新区北蔡镇御桥村姚家队姚家宅",121.56411783363872,31.162329302205315,"2022-04-24"
"浦东新区","上海市浦东新区北蔡镇中界村陈家队陈家宅",121.57857947438275,31.194413133383005,"2022-04-24"
"浦东新区","上海市浦东新区北蔡镇中界村复兴队陈家宅",121.57857947438275,31.194413133383005,"2022-04-24"
"浦东新区","上海市浦东新区北蔡镇中界村复兴队顾家宅",121.57806672159766,31.193715783941315,"2022-04-24"
"浦东新区","上海市浦东新区北蔡镇中界村复兴队苏家宅",121.57702962788638,31.19161049851133,"2022-04-24"
"浦东新区","上海市浦东新区北蔡镇中界村黄家队黄家宅",121.57417373500905,31.19544617406339,"2022-04-24"
"浦东新区","上海市浦东新区北蔡镇中界村黄家队孔家圈",121.58053517530853,31.189802576535527,"2022-04-24"
"浦东新区","上海市浦东新区北蔡镇中界村林家队苏家宅",121.57702962788638,31.19161049851133,"2022-04-24"
"浦东新区","上海市浦东新区北蔡镇中界村林家队中界庙",121.57854102690692,31.190867872329996,"2022-04-24"
"浦东新区","上海市浦东新区北蔡镇中界村陆家队陆家宅",121.50741975425709,31.19056320545643,"2022-04-24"
"浦东新区","上海市浦东新区北蔡镇中界村沈家队沈家宅",121.57417373500905,31.19544617406339,"2022-04-24"
"浦东新区","上海市浦东新区北蔡镇中界村沈家队姚家宅",121.57417373500905,31.19544617406339,"2022-04-24"
"浦东新区","上海市浦东新区北蔡镇中界村苏家队苏家宅",121.57702962788638,31.19161049851133,"2022-04-24"
"浦东新区","上海市浦东新区北蔡镇中界村庄家队蔡家宅",121.57857947438275,31.194413133383005,"2022-04-24"
"浦东新区","上海市浦东新区北城壕路111弄",121.70764576429261,31.20404189418742,"2022-04-24"
"浦东新区","上海市浦东新区北新园路350弄",121.63335446132862,31.32701601446308,"2022-04-24"
"浦东新区","上海市浦东新区北园路258弄",121.53086597722027,31.20965266779081,"2022-04-24"
"浦东新区","上海市浦东新区北张家浜路58号",121.52762345365146,31.222173076955738,"2022-04-24"
"浦东新区","上海市浦东新区北中路278弄",121.56280280420268,31.189024178541377,"2022-04-24"
"浦东新区","上海市浦东新区北中路280弄",121.56393853185894,31.18991772544677,"2022-04-24"
"浦东新区","上海市浦东新区北中路354弄",121.56641390252221,31.1901497991136,"2022-04-24"
"浦东新区","上海市浦东新区北中路383弄",121.56535623761478,31.19047632308665,"2022-04-24"
"浦东新区","上海市浦东新区滨江大道福山路交界口工地生活区",121.4938258766357,31.262494523223257,"2022-04-24"
"浦东新区","上海市浦东新区博华路1018弄",121.55750199321884,31.176850857976813,"2022-04-24"
"浦东新区","上海市浦东新区博华路930弄",121.55674921320147,31.18032002999115,"2022-04-24"
"浦东新区","上海市浦东新区博华路999弄",121.55711392523853,31.17680629046571,"2022-04-24"
"浦东新区","上海市浦东新区博山东路112弄",121.56942681920269,31.255445681806076,"2022-04-24"
"浦东新区","上海市浦东新区博山东路173弄",121.57241332570116,31.257892721582024,"2022-04-24"
"浦东新区","上海市浦东新区博山东路20弄",121.5660388599718,31.253391023400393,"2022-04-24"
"浦东新区","上海市浦东新区博山东路553弄",121.57792748424362,31.261532678902576,"2022-04-24"
"浦东新区","上海市浦东新区博山东路81弄",121.56657281276694,31.2559642978313,"2022-04-24"
"浦东新区","上海市浦东新区博山路11弄",121.56421898283914,31.25189215853407,"2022-04-24"
"浦东新区","上海市浦东新区博山路12弄",121.56321782134827,31.253252567913812,"2022-04-24"
"浦东新区","上海市浦东新区博山路200弄",121.55886598030519,31.25030798637263,"2022-04-24"
"浦东新区","上海市浦东新区博山路50弄",121.56288293305415,31.252223638107505,"2022-04-24"
"浦东新区","上海市浦东新区博山路51弄",121.5636509842652,31.250794833134776,"2022-04-24"
"浦东新区","上海市浦东新区博兴路1676弄",121.60817944941148,31.281497329533256,"2022-04-24"
"浦东新区","上海市浦东新区博兴路250弄",121.58638727638383,31.274900995229025,"2022-04-24"
"浦东新区","上海市浦东新区博兴路462弄",121.58940908628885,31.27201836204534,"2022-04-24"
"浦东新区","上海市浦东新区博兴路465弄",121.58987225260978,31.272066665151705,"2022-04-24"
"浦东新区","上海市浦东新区博兴路616弄",121.59050564782487,31.26885013299071,"2022-04-24"
"浦东新区","上海市浦东新区博兴路799弄",121.59697731021042,31.27188533546996,"2022-04-24"
"浦东新区","上海市浦东新区博兴路916弄",121.59799500052266,31.270420178729555,"2022-04-24"
"浦东新区","上海市浦东新区博兴路986弄",121.59726297136258,31.27067103482398,"2022-04-24"
"浦东新区","上海市浦东新区彩云路568弄",121.81433768937379,30.905357779154976,"2022-04-24"
"浦东新区","上海市浦东新区彩云路843弄",121.80745747764232,30.904954042079854,"2022-04-24"
"浦东新区","上海市浦东新区曹路镇安基村朱家宅",121.65318033342548,31.290984052385006,"2022-04-24"
"浦东新区","上海市浦东新区曹路镇东海村胡家宅",121.67786990104503,31.30705492876369,"2022-04-24"
"浦东新区","上海市浦东新区曹路镇东海村张家宅",121.67786990104503,31.30705492876369,"2022-04-24"
"浦东新区","上海市浦东新区曹路镇顾东村苍龙桥",121.66803731842445,31.305629893530618,"2022-04-24"
"浦东新区","上海市浦东新区曹路镇顾东村船板桥",121.67028056694399,31.30311645627832,"2022-04-24"
"浦东新区","上海市浦东新区曹路镇顾东村花厅",121.6681980252802,31.301248053430943,"2022-04-24"
"浦东新区","上海市浦东新区曹路镇顾东村水洞港",121.66964303952355,31.29976692689286,"2022-04-24"
"浦东新区","上海市浦东新区曹路镇顾东村太平",121.6635754349564,31.306927737058512,"2022-04-24"
"浦东新区","上海市浦东新区曹路镇顾东村田度宅",121.66581095804852,31.303842301640657,"2022-04-24"
"浦东新区","上海市浦东新区曹路镇顾东村新屋宅",121.66573451224963,31.301817865497682,"2022-04-24"
"浦东新区","上海市浦东新区曹路镇顾三村外金家宅",121.69341956942274,31.30105065867346,"2022-04-24"
"浦东新区","上海市浦东新区曹路镇光明村沙桥宅",121.65818551206597,31.29296768284297,"2022-04-24"
"浦东新区","上海市浦东新区曹路镇黎明村盛朱村",121.70474253071492,31.27496750639308,"2022-04-24"
"浦东新区","上海市浦东新区曹路镇联合村路北宅",121.69192757380122,31.275051532610338,"2022-04-24"
"浦东新区","上海市浦东新区曹路镇联合村南浜宅",121.68253309477787,31.30387485270314,"2022-04-24"
"浦东新区","上海市浦东新区曹路镇联合村西浜宅",121.68165491131131,31.303733155222663,"2022-04-24"
"浦东新区","上海市浦东新区曹路镇联合村西柴场",121.6774631483101,31.303329042391074,"2022-04-24"
"浦东新区","上海市浦东新区曹路镇民建村北邵家宅",121.65451647304103,31.28037867132429,"2022-04-24"
"浦东新区","上海市浦东新区曹路镇民建村金家宅",121.6677989081421,31.282249806545646,"2022-04-24"
"浦东新区","上海市浦东新区曹路镇民建村南邵家宅",121.65451647304103,31.28037867132429,"2022-04-24"
"浦东新区","上海市浦东新区曹路镇民建村徐家宅",121.65358097768292,31.273397305600508,"2022-04-24"
"浦东新区","上海市浦东新区曹路镇启明村龙王庙",121.70285995185766,31.281426348101498,"2022-04-24"
"浦东新区","上海市浦东新区曹路镇前锋村夹路村宅",121.69704926266637,31.276754185320776,"2022-04-24"
"浦东新区","上海市浦东新区曹路镇前锋村陆家宅",121.70483855957393,31.276629575682062,"2022-04-24"
"浦东新区","上海市浦东新区曹路镇前锋村杨张村宅",121.7016981733416,31.27716960102064,"2022-04-24"
"浦东新区","上海市浦东新区曹路镇日新村北万家宅",121.67504212513016,31.269511195913047,"2022-04-24"
"浦东新区","上海市浦东新区曹路镇日新村南房宅",121.67561021353467,31.271915582828562,"2022-04-24"
"浦东新区","上海市浦东新区曹路镇日新村南万家宅",121.67894220833227,31.266455312945922,"2022-04-24"
"浦东新区","上海市浦东新区曹路镇日新村杨薛家宅",121.67495543864845,31.26547221132191,"2022-04-24"
"浦东新区","上海市浦东新区曹路镇五四村沈孙家宅",121.6580400764039,31.26039873322475,"2022-04-24"
"浦东新区","上海市浦东新区曹路镇五四村唐朱家宅",121.6683389694147,31.258308838536237,"2022-04-24"
"浦东新区","上海市浦东新区曹路镇新华村强顾家宅",121.66710927900209,31.27121495272235,"2022-04-24"
"浦东新区","上海市浦东新区曹路镇新星村胡家宅",121.70827942899935,31.261838735382085,"2022-04-24"
"浦东新区","上海市浦东新区曹路镇星火村陆家村宅",121.71170161367016,31.25916707390334,"2022-04-24"
"浦东新区","上海市浦东新区曹路镇迅建村蔡家宅",121.69714879491686,31.289202814595352,"2022-04-24"
"浦东新区","上海市浦东新区曹路镇迅建村撑圩村",121.69948528754833,31.28675034579566,"2022-04-24"
"浦东新区","上海市浦东新区曹路镇迅建村黄家宅",121.69922513827262,31.284090892321522,"2022-04-24"
"浦东新区","上海市浦东新区曹路镇迅建村季家宅",121.69714879491686,31.289202814595352,"2022-04-24"
"浦东新区","上海市浦东新区曹路镇永丰村大徐家宅",121.70295589088612,31.26148004881695,"2022-04-24"
"浦东新区","上海市浦东新区曹路镇永丰村孙家宅",121.70779802707655,31.265033130410448,"2022-04-24"
"浦东新区","上海市浦东新区曹路镇永和村陆万村",121.70305389601725,31.26979731811335,"2022-04-24"
"浦东新区","上海市浦东新区曹路镇永乐村曹家油车",121.64748831039206,31.28342653789337,"2022-04-24"
"浦东新区","上海市浦东新区曹路镇永乐村东邵家弄",121.65381408796277,31.280044359735292,"2022-04-24"
"浦东新区","上海市浦东新区曹路镇永乐村钱家宅",121.64781493427549,31.277677217362378,"2022-04-24"
"浦东新区","上海市浦东新区曹路镇永利村冯家宅",121.70205902266495,31.270195403071813,"2022-04-24"
"浦东新区","上海市浦东新区曹路镇永利村马家宅",121.70205902266495,31.270195403071813,"2022-04-24"
"浦东新区","上海市浦东新区曹路镇永利村徐家宅",121.70295589088612,31.26148004881695,"2022-04-24"
"浦东新区","上海市浦东新区曹路镇赵桥村大陆家宅",121.6538308862758,31.297234123668435,"2022-04-24"
"浦东新区","上海市浦东新区曹路镇众三村顾家宅",121.6735742040963,31.287578000463697,"2022-04-24"
"浦东新区","上海市浦东新区草高支路168弄",121.58993270857061,31.35816168939117,"2022-04-24"
"浦东新区","上海市浦东新区草高支路170弄",121.58842607056927,31.35798885280393,"2022-04-24"
"浦东新区","上海市浦东新区长岛路1066弄",121.59706776957526,31.26601407599254,"2022-04-24"
"浦东新区","上海市浦东新区长岛路1201弄",121.59672973721186,31.2693476089323,"2022-04-24"
"浦东新区","上海市浦东新区长岛路1338弄",121.60322771994883,31.26832387201498,"2022-04-24"
"浦东新区","上海市浦东新区长岛路1477弄",121.60477981220897,31.270184754572036,"2022-04-24"
"浦东新区","上海市浦东新区长岛路1560弄",121.60831428506853,31.270698813371908,"2022-04-24"
"浦东新区","上海市浦东新区长岛路800弄",121.59383476804486,31.265307536930138,"2022-04-24"
"浦东新区","上海市浦东新区长岛路823弄",121.59383198329778,31.268428892953793,"2022-04-24"
"浦东新区","上海市浦东新区长岛路99号",121.58323161895783,31.273668138186082,"2022-04-24"
"浦东新区","上海市浦东新区长清路643弄",121.49877580948733,31.164183177280332,"2022-04-24"
"浦东新区","上海市浦东新区长清路693弄",121.53688426481492,31.18970225553777,"2022-04-24"
"浦东新区","上海市浦东新区长清路75弄",121.53688426481492,31.18970225553777,"2022-04-24"
"浦东新区","上海市浦东新区长清路773弄",121.49801207014275,31.16197386509983,"2022-04-24"
"浦东新区","上海市浦东新区长清路807弄",121.4992229859702,31.16205328041866,"2022-04-24"
"浦东新区","上海市浦东新区长清路937弄",121.53688426481492,31.18970225553777,"2022-04-24"
"浦东新区","上海市浦东新区昌里东路395弄",121.5189664834518,31.18330234169044,"2022-04-24"
"浦东新区","上海市浦东新区昌里东路411弄",121.51930155140703,31.185511228668684,"2022-04-24"
"浦东新区","上海市浦东新区昌里东路500弄",121.52065736391323,31.18351774907825,"2022-04-24"
"浦东新区","上海市浦东新区昌里东路550弄",121.52139900494227,31.18353589919409,"2022-04-24"
"浦东新区","上海市浦东新区昌里东路650弄",121.52139900494227,31.18353589919409,"2022-04-24"
"浦东新区","上海市浦东新区昌里东路71弄",121.51070692360975,31.18266438072873,"2022-04-24"
"浦东新区","上海市浦东新区昌里东路80弄",121.51274787372843,31.180374404948385,"2022-04-24"
"浦东新区","上海市浦东新区昌里路167弄",121.50454544611682,31.181091626219736,"2022-04-24"
"浦东新区","上海市浦东新区昌里路311弄",121.53688426481492,31.18970225553777,"2022-04-24"
"浦东新区","上海市浦东新区昌里路340弄",121.50096839357609,31.178239082858738,"2022-04-24"
"浦东新区","上海市浦东新区昌里路93弄",121.5102083640517,31.18174319142264,"2022-04-24"
"浦东新区","上海市浦东新区昌邑路1500号",121.54414715469363,31.25102891692304,"2022-04-24"
"浦东新区","上海市浦东新区昌邑路55弄",121.51912198013558,31.24605885186431,"2022-04-24"
"浦东新区","上海市浦东新区潮乐路21弄",121.85863897305663,30.87726753623308,"2022-04-24"
"浦东新区","上海市浦东新区陈春路221弄",121.55951033484749,31.179594152186283,"2022-04-24"
"浦东新区","上海市浦东新区陈春路620弄",121.55290760968805,31.178078194108803,"2022-04-24"
"浦东新区","上海市浦东新区陈邵路103号工地生活区",121.63919118651121,31.293293005844543,"2022-04-24"
"浦东新区","上海市浦东新区成山路1488弄",121.53343153775677,31.18197984224341,"2022-04-24"
"浦东新区","上海市浦东新区成山路1728弄",121.53553420146397,31.181824984316307,"2022-04-24"
"浦东新区","上海市浦东新区成山路2008弄",121.54348528319389,31.183276545290262,"2022-04-24"
"浦东新区","上海市浦东新区成山路2222弄",121.54850115166997,31.18458079929958,"2022-04-24"
"浦东新区","上海市浦东新区成山路226弄",121.50372008301424,31.176390428994402,"2022-04-24"
"浦东新区","上海市浦东新区成山路2399弄",121.55035947627844,31.187413841859218,"2022-04-24"
"浦东新区","上海市浦东新区成山路24弄",121.49230899795155,31.17414687706441,"2022-04-24"
"浦东新区","上海市浦东新区成山路544弄",121.51475873061251,31.174425412250987,"2022-04-24"
"浦东新区","上海市浦东新区成山路608弄",121.51511598671382,31.177611823719104,"2022-04-24"
"浦东新区","上海市浦东新区成山路648弄",121.51511598671382,31.177611823719104,"2022-04-24"
"浦东新区","上海市浦东新区成山路668弄",121.51947303792888,31.175870831284065,"2022-04-24"
"浦东新区","上海市浦东新区成山路963弄",121.52224161551062,31.179266740683868,"2022-04-24"
"浦东新区","上海市浦东新区诚礼路298弄",121.67496729628118,31.232023002375403,"2022-04-24"
"浦东新区","上海市浦东新区城丰路212弄",121.69319589135075,31.19656878299049,"2022-04-24"
"浦东新区","上海市浦东新区城丰路245弄",121.6933846253384,31.19550818548739,"2022-04-24"
"浦东新区","上海市浦东新区城南路550弄",121.703256014757,31.197110892411658,"2022-04-24"
"浦东新区","上海市浦东新区城南路918弄",121.69836090189742,31.19526687664223,"2022-04-24"
"浦东新区","上海市浦东新区崇溪路111弄",121.71865395933408,31.11481889201093,"2022-04-24"
"浦东新区","上海市浦东新区川北公路3046号",121.619600775157,31.21102828451811,"2022-04-24"
"浦东新区","上海市浦东新区川沙路1258号",121.68465031103433,31.267619048052797,"2022-04-24"
"浦东新区","上海市浦东新区川沙路1666弄",121.67243200864038,31.28581336211361,"2022-04-24"
"浦东新区","上海市浦东新区川沙路2016号生活区",121.69035661712537,31.25186761587865,"2022-04-24"
"浦东新区","上海市浦东新区川沙路389弄",121.67545489651201,31.28529236580147,"2022-04-24"
"浦东新区","上海市浦东新区川沙路4197号",121.70063314232897,31.212655664897444,"2022-04-24"
"浦东新区","上海市浦东新区川沙路4625弄",121.65277879086253,31.290487771739045,"2022-04-24"
"浦东新区","上海市浦东新区川沙路5122弄",121.70266385176483,31.196532410579437,"2022-04-24"
"浦东新区","上海市浦东新区川沙路5245弄",121.70579342838752,31.19488127358503,"2022-04-24"
"浦东新区","上海市浦东新区川沙新镇八灶村郭家宅",121.72414179752509,31.16212419793255,"2022-04-24"
"浦东新区","上海市浦东新区川沙新镇八灶村康家宅",121.72279227315744,31.166067606295638,"2022-04-24"
"浦东新区","上海市浦东新区川沙新镇柴场村",121.73266366257604,31.186753897798436,"2022-04-24"
"浦东新区","上海市浦东新区川沙新镇陈桥村",121.70777440164164,31.20232857380201,"2022-04-24"
"浦东新区","上海市浦东新区川沙新镇城南村朱家宅",121.70598264147144,31.19406291479385,"2022-04-24"
"浦东新区","上海市浦东新区川沙新镇杜坊村",121.70292013832682,31.178249123914156,"2022-04-24"
"浦东新区","上海市浦东新区川沙新镇果园村",121.70777440164164,31.20232857380201,"2022-04-24"
"浦东新区","上海市浦东新区川沙新镇和平村朱家宅",121.73625113546069,31.20555766394675,"2022-04-24"
"浦东新区","上海市浦东新区川沙新镇黄楼村张家宅",121.65798824417598,31.17533578243895,"2022-04-24"
"浦东新区","上海市浦东新区川沙新镇会龙村新兴",121.70777440164164,31.20232857380201,"2022-04-24"
"浦东新区","上海市浦东新区川沙新镇界龙村大顾家宅",121.6907189935681,31.18101670674418,"2022-04-24"
"浦东新区","上海市浦东新区川沙新镇界龙村戴家宅",121.6982633225631,31.11521114348026,"2022-04-24"
"浦东新区","上海市浦东新区川沙新镇界龙村华家宅",121.68409803280682,31.179025834910988,"2022-04-24"
"浦东新区","上海市浦东新区川沙新镇栏杆村周家宅",121.67290191225264,31.179777437248575,"2022-04-24"
"浦东新区","上海市浦东新区川沙新镇鹿溪村",121.70777440164164,31.20232857380201,"2022-04-24"
"浦东新区","上海市浦东新区川沙新镇民义村",121.70777440164164,31.20232857380201,"2022-04-24"
"浦东新区","上海市浦东新区川沙新镇其成村",121.69209061625129,31.120092933510254,"2022-04-24"
"浦东新区","上海市浦东新区川沙新镇湾镇村王家宅",121.70777440164164,31.20232857380201,"2022-04-24"
"浦东新区","上海市浦东新区川沙新镇新浜村陆家宅",121.75641962127906,31.121976547397676,"2022-04-24"
"浦东新区","上海市浦东新区川沙新镇新春村赵孟家宅",121.69852275319438,31.1667166494529,"2022-04-24"
"浦东新区","上海市浦东新区川沙新镇药师村周家宅",121.68830201276296,31.209451836559015,"2022-04-24"
"浦东新区","上海市浦东新区川沙新镇长桥村龚家宅",121.74213961790915,31.15310457420541,"2022-04-24"
"浦东新区","上海市浦东新区川周公路2828弄",121.62452196223231,31.14912484831265,"2022-04-24"
"浦东新区","上海市浦东新区川周公路2880号",121.62225841200826,31.14881888686171,"2022-04-24"
"浦东新区","上海市浦东新区川周公路4058弄",121.59137826179726,31.132164580808443,"2022-04-24"
"浦东新区","上海市浦东新区川周公路4318弄",121.58742940060596,31.12689477181507,"2022-04-24"
"浦东新区","上海市浦东新区川周公路凌空路交界口工地生活区",121.59081421576755,31.129858766635852,"2022-04-24"
"浦东新区","上海市浦东新区川周路8682弄",121.71448124040968,31.18912604486345,"2022-04-24"
"浦东新区","上海市浦东新区创新西路199弄",121.66081045059668,31.207582255485885,"2022-04-24"
"浦东新区","上海市浦东新区创新西路75弄",121.66373147062347,31.209726792242737,"2022-04-24"
"浦东新区","上海市浦东新区创新中路199弄",121.66869568653271,31.214145121289572,"2022-04-24"
"浦东新区","上海市浦东新区创新中路380弄",121.67244189000098,31.21383929476541,"2022-04-24"
"浦东新区","上海市浦东新区创新中路399弄",121.67324470563524,31.215325489578447,"2022-04-24"
"浦东新区","上海市浦东新区创业路78弄",121.58485970786411,31.120077939878794,"2022-04-24"
"浦东新区","上海市浦东新区创业路798号",121.70320642829286,31.22134908917077,"2022-04-24"
"浦东新区","上海市浦东新区春晖路25弄",121.59572076046305,31.34806061773339,"2022-04-24"
"浦东新区","上海市浦东新区春晖路289弄",121.59067273264974,31.34454230852392,"2022-04-24"
"浦东新区","上海市浦东新区春晖路368弄",121.59019618157669,31.34452056588041,"2022-04-24"
"浦东新区","上海市浦东新区春晖路446弄",121.58694494444443,31.34463914803764,"2022-04-24"
"浦东新区","上海市浦东新区达秀路151号",121.66013375705602,31.243292573416156,"2022-04-24"
"浦东新区","上海市浦东新区大同路1010弄",121.57860112354555,31.341412626376524,"2022-04-24"
"浦东新区","上海市浦东新区大同路868弄",121.58016004292756,31.34302732757853,"2022-04-24"
"浦东新区","上海市浦东新区大团镇扶栏村下塘",121.75661958408558,30.99874757723148,"2022-04-24"
"浦东新区","上海市浦东新区大团镇果园村银杏",121.73744013263371,30.983664773262714,"2022-04-24"
"浦东新区","上海市浦东新区大团镇海潮村沙庙",121.7705985652791,30.971042440338465,"2022-04-24"
"浦东新区","上海市浦东新区大团镇团新村严楼",121.75404881337712,31.02288184548314,"2022-04-24"
"浦东新区","上海市浦东新区大团镇园艺村农艺",121.76325833129599,30.985653590349312,"2022-04-24"
"浦东新区","上海市浦东新区德恒路济阳路交界口工地生活区",121.49672461868585,31.145428288195056,"2022-04-24"
"浦东新区","上海市浦东新区德平路100弄",121.56868266291822,31.253939981179144,"2022-04-24"
"浦东新区","上海市浦东新区德平路1065弄",121.57423419096989,31.249263047832805,"2022-04-24"
"浦东新区","上海市浦东新区德平路1066弄",121.57397278406648,31.24683569519886,"2022-04-24"
"浦东新区","上海市浦东新区德平路1134弄",121.57628601058522,31.24564090516471,"2022-04-24"
"浦东新区","上海市浦东新区德平路1189弄",121.57681313625848,31.2458715286161,"2022-04-24"
"浦东新区","上海市浦东新区德平路143弄",121.56754846238132,31.257090271230506,"2022-04-24"
"浦东新区","上海市浦东新区德平路155弄",121.56795404731908,31.25660183659443,"2022-04-24"
"浦东新区","上海市浦东新区德平路25弄",121.56473182545479,31.260091745972705,"2022-04-24"
"浦东新区","上海市浦东新区德州路150弄",121.49257031502441,31.17204431909572,"2022-04-24"
"浦东新区","上海市浦东新区德州路220弄",121.53688426481492,31.18970225553777,"2022-04-24"
"浦东新区","上海市浦东新区德州路223弄",121.53688426481492,31.18970225553777,"2022-04-24"
"浦东新区","上海市浦东新区德州路246号",121.49969738111001,31.173831110161775,"2022-04-24"
"浦东新区","上海市浦东新区德州路255弄",121.49763226657313,31.176228764666757,"2022-04-24"
"浦东新区","上海市浦东新区德州路380弄",121.4933411509825,31.171454327607343,"2022-04-24"
"浦东新区","上海市浦东新区德州路420弄",121.49035248855083,31.172388749436156,"2022-04-24"
"浦东新区","上海市浦东新区德州路421弄",121.48947798813685,31.173812880924558,"2022-04-24"
"浦东新区","上海市浦东新区丁香路1399弄",121.57049679089563,31.236774283462957,"2022-04-24"
"浦东新区","上海市浦东新区丁香路1599弄",121.57230687649823,31.233862298835515,"2022-04-24"
"浦东新区","上海市浦东新区东波路195弄",121.5862415712301,31.29079458195699,"2022-04-24"
"浦东新区","上海市浦东新区东波路49弄",121.58337804275595,31.290723839031642,"2022-04-24"
"浦东新区","上海市浦东新区东波路585弄",121.59286001673597,31.289979530718124,"2022-04-24"
"浦东新区","上海市浦东新区东昌路490弄",121.5197235753356,31.23752233486166,"2022-04-24"
"浦东新区","上海市浦东新区东昌新村",121.5180936898183,31.23898198660225,"2022-04-24"
"浦东新区","上海市浦东新区东川公路7858号",121.73446153122373,31.219137264109904,"2022-04-24"
"浦东新区","上海市浦东新区东方路1800弄",121.5284736099861,31.209089242825165,"2022-04-24"
"浦东新区","上海市浦东新区东方路1881弄",121.53235680504463,31.20094881383694,"2022-04-24"
"浦东新区","上海市浦东新区东方路268号",121.52773592150132,31.2426420538659,"2022-04-24"
"浦东新区","上海市浦东新区东方路3344弄",121.52063023508683,31.197538785966152,"2022-04-24"
"浦东新区","上海市浦东新区东高路1111弄",121.58962611690005,31.28158489894264,"2022-04-24"
"浦东新区","上海市浦东新区东高路18号",121.5807812211877,31.29432718556613,"2022-04-24"
"浦东新区","上海市浦东新区东环龙路181弄",121.53536361324763,31.209338796414407,"2022-04-24"
"浦东新区","上海市浦东新区东建路228弄",121.53881041148941,31.206686097292025,"2022-04-24"
"浦东新区","上海市浦东新区东建新村",121.52686142108733,31.222713416923376,"2022-04-24"
"浦东新区","上海市浦东新区东靖路2250弄",121.62006879232769,31.298372867667926,"2022-04-24"
"浦东新区","上海市浦东新区东靖路247弄",121.58407117528745,31.298685745986468,"2022-04-24"
"浦东新区","上海市浦东新区东靖路51弄",121.58962611690005,31.28158489894264,"2022-04-24"
"浦东新区","上海市浦东新区东靖路626弄",121.59251937928659,31.297546620102786,"2022-04-24"
"浦东新区","上海市浦东新区东林街135弄",121.51065374392356,31.14435861285227,"2022-04-24"
"浦东新区","上海市浦东新区东陆路1018弄",121.59902095524562,31.277911928226455,"2022-04-24"
"浦东新区","上海市浦东新区东陆路1182弄",121.60235600428196,31.275368269875603,"2022-04-24"
"浦东新区","上海市浦东新区东陆路1268弄",121.60156055475287,31.272878863483545,"2022-04-24"
"浦东新区","上海市浦东新区东陆路1350弄",121.58962611690005,31.28158489894264,"2022-04-24"
"浦东新区","上海市浦东新区东陆路1456弄",121.58962611690005,31.28158489894264,"2022-04-24"
"浦东新区","上海市浦东新区东陆路898弄",121.59898160946427,31.280897766199242,"2022-04-24"
"浦东新区","上海市浦东新区东三街102弄",121.51710618257118,31.20763978042601,"2022-04-24"
"浦东新区","上海市浦东新区东三街15弄",121.5137983521918,31.206974419328482,"2022-04-24"
"浦东新区","上海市浦东新区东三里桥路160弄",121.5161398753341,31.20602821937022,"2022-04-24"
"浦东新区","上海市浦东新区东三里桥路170弄",121.51756719295891,31.206359166517448,"2022-04-24"
"浦东新区","上海市浦东新区东三里桥路211弄",121.53022853963039,31.198047915743636,"2022-04-24"
"浦东新区","上海市浦东新区东三里桥路245弄",121.52067631815949,31.205217447968764,"2022-04-24"
"浦东新区","上海市浦东新区东三里桥路79弄",121.51530166646273,31.20609578333686,"2022-04-24"
"浦东新区","上海市浦东新区东书房路390弄",121.5416177958692,31.16966648705868,"2022-04-24"
"浦东新区","上海市浦东新区东书房路560弄",121.54307367960921,31.167733309908424,"2022-04-24"
"浦东新区","上海市浦东新区东绣路1086弄",121.5429417185298,31.20526918311545,"2022-04-24"
"浦东新区","上海市浦东新区东绣路1389弄",121.538790289446,31.20467631206504,"2022-04-24"
"浦东新区","上海市浦东新区东园四村",121.51943288367258,31.23609222457476,"2022-04-24"
"浦东新区","上海市浦东新区渡桥路78弄",121.58485970786411,31.120077939878794,"2022-04-24"
"浦东新区","上海市浦东新区峨山路180弄",121.53440970262659,31.220273408639333,"2022-04-24"
"浦东新区","上海市浦东新区峨山路187弄",121.53406151941093,31.22075037523499,"2022-04-24"
"浦东新区","上海市浦东新区峨山路280弄",121.53440970262659,31.220273408639333,"2022-04-24"
"浦东新区","上海市浦东新区峨山路605弄",121.5284466608208,31.22089304783959,"2022-04-24"
"浦东新区","上海市浦东新区峨山路679弄",121.52701134827696,31.22020075941883,"2022-04-24"
"浦东新区","上海市浦东新区繁荣东路150弄",121.59321448809021,31.11201697090244,"2022-04-24"
"浦东新区","上海市浦东新区繁荣东路159弄",121.59187017389452,31.112814326185486,"2022-04-24"
"浦东新区","上海市浦东新区方竹路222弄",121.91359649568211,30.89871410251902,"2022-04-24"
"浦东新区","上海市浦东新区方竹路333弄",121.91537532025298,30.90017738898808,"2022-04-24"
"浦东新区","上海市浦东新区方竹路423弄",121.87411974140173,30.93315324788934,"2022-04-24"
"浦东新区","上海市浦东新区芳草路253弄",121.56208676488066,31.202336604581813,"2022-04-24"
"浦东新区","上海市浦东新区芳草路258号",121.56304902974296,31.19953351173709,"2022-04-24"
"浦东新区","上海市浦东新区芳草路352弄",121.5616260239846,31.199214895930286,"2022-04-24"
"浦东新区","上海市浦东新区芳草路363弄",121.53688426481492,31.18970225553777,"2022-04-24"
"浦东新区","上海市浦东新区芳甸路333弄",121.52969618510942,31.207201251711854,"2022-04-24"
"浦东新区","上海市浦东新区芳华路310弄",121.56401821155765,31.201334527828102,"2022-04-24"
"浦东新区","上海市浦东新区芳华路329弄",121.56365017579023,31.20224664436495,"2022-04-24"
"浦东新区","上海市浦东新区芳华路411弄",121.56557030381781,31.202399460853744,"2022-04-24"
"浦东新区","上海市浦东新区芳华路455弄",121.56615060917726,31.20261752700328,"2022-04-24"
"浦东新区","上海市浦东新区芳华路478弄",121.53688426481492,31.18970225553777,"2022-04-24"
"浦东新区","上海市浦东新区芳华路573弄",121.56906579021823,31.202881074402363,"2022-04-24"
"浦东新区","上海市浦东新区芳华路580弄",121.5690579749603,31.202517837477373,"2022-04-24"
"浦东新区","上海市浦东新区芳华路630弄",121.55655904192501,31.200205103357757,"2022-04-24"
"浦东新区","上海市浦东新区芳华路63号工地生活区",121.55817159014597,31.20073105268403,"2022-04-24"
"浦东新区","上海市浦东新区芳华路673弄",121.56950497178207,31.20367904785373,"2022-04-24"
"浦东新区","上海市浦东新区芳华路713弄",121.53688426481492,31.18970225553777,"2022-04-24"
"浦东新区","上海市浦东新区芳华路739弄",121.53688426481492,31.18970225553777,"2022-04-24"
"浦东新区","上海市浦东新区芳华路916弄",121.57459800470143,31.202853893456744,"2022-04-24"
"浦东新区","上海市浦东新区芳华路933弄",121.53688426481492,31.18970225553777,"2022-04-24"
"浦东新区","上海市浦东新区芳芯路210弄",121.56219528018626,31.197753542850066,"2022-04-24"
"浦东新区","上海市浦东新区芳芯路251弄",121.5630040246369,31.19846669279656,"2022-04-24"
"浦东新区","上海市浦东新区芳芯路312弄",121.56407749972132,31.19718263286784,"2022-04-24"
"浦东新区","上海市浦东新区芳芯路363弄",121.53688426481492,31.18970225553777,"2022-04-24"
"浦东新区","上海市浦东新区福山路102弄",121.53400762108032,31.237370810745112,"2022-04-24"
"浦东新区","上海市浦东新区高宝路229弄",121.62728721608367,31.297669581878687,"2022-04-24"
"浦东新区","上海市浦东新区高宝路379弄",121.58962611690005,31.28158489894264,"2022-04-24"
"浦东新区","上海市浦东新区高宝路528弄",121.58962611690005,31.28158489894264,"2022-04-24"
"浦东新区","上海市浦东新区高东二路118弄",121.63203026917635,31.32990867036808,"2022-04-24"
"浦东新区","上海市浦东新区高东新路500弄",121.62788908077536,31.342361696575296,"2022-04-24"
"浦东新区","上海市浦东新区高东镇灯塔村王家宅",121.66762005551509,31.318000478952566,"2022-04-24"
"浦东新区","上海市浦东新区高东镇竞赛村龙稍宅",121.65845033253032,31.307521425419296,"2022-04-24"
"浦东新区","上海市浦东新区高东镇竞赛村沈家宅",121.65224349060914,31.30482168254854,"2022-04-24"
"浦东新区","上海市浦东新区高东镇踊跃村东孙家沟",121.66411432843182,31.31208005788978,"2022-04-24"
"浦东新区","上海市浦东新区高荷路428号",121.5830170137715,31.342940663971127,"2022-04-24"
"浦东新区","上海市浦东新区高科西路1655弄",121.53688426481492,31.18970225553777,"2022-04-24"
"浦东新区","上海市浦东新区高科西路2111弄",121.5423303317997,31.194181224726066,"2022-04-24"
"浦东新区","上海市浦东新区高科西路2757弄",121.56065091335351,31.19588148875918,"2022-04-24"
"浦东新区","上海市浦东新区高科西路2763弄",121.55990100791378,31.196831884065706,"2022-04-24"
"浦东新区","上海市浦东新区高科西路3000弄",121.57070196387411,31.195867897271857,"2022-04-24"
"浦东新区","上海市浦东新区高科西路3030弄",121.56984875330073,31.195892840738562,"2022-04-24"
"浦东新区","上海市浦东新区高科西路3050弄",121.56993040927158,31.195997325218837,"2022-04-24"
"浦东新区","上海市浦东新区高科西路3060弄",121.57070196387411,31.195867897271857,"2022-04-24"
"浦东新区","上海市浦东新区高桥镇仓房村仓房港",121.52254775802842,31.369298334248516,"2022-04-24"
"浦东新区","上海市浦东新区高桥镇仓房村南沟头",121.5208440317982,31.368919171715277,"2022-04-24"
"浦东新区","上海市浦东新区高桥镇仓房村平房基",121.51817543561971,31.366888517699625,"2022-04-24"
"浦东新区","上海市浦东新区高桥镇高桥村陈家宅",121.5866195781887,31.34503398389822,"2022-04-24"
"浦东新区","上海市浦东新区高桥镇凌桥村仓房浜",121.53905564889364,31.37029614329091,"2022-04-24"
"浦东新区","上海市浦东新区高桥镇龙叶村叶家角",121.52963188511066,31.374876523752334,"2022-04-24"
"浦东新区","上海市浦东新区高桥镇陆凌村西凌家宅",121.58173863520024,31.35356684063773,"2022-04-24"
"浦东新区","上海市浦东新区高桥镇南塘村龚家宅",121.5746809183,31.34539427690696,"2022-04-24"
"浦东新区","上海市浦东新区高桥镇南塘村顾家宅",121.5746809183,31.34539427690696,"2022-04-24"
"浦东新区","上海市浦东新区高桥镇南塘村姚家宅",121.5746809183,31.34539427690696,"2022-04-24"
"浦东新区","上海市浦东新区高桥镇三岔港村三岔港",121.51447127284932,31.371531268842322,"2022-04-24"
"浦东新区","上海市浦东新区高桥镇西新村草镇",121.53625922384107,31.363549527918256,"2022-04-24"
"浦东新区","上海市浦东新区高桥镇新建村钟家弄",121.58408608715892,31.3661013421475,"2022-04-24"
"浦东新区","上海市浦东新区高桥镇新农村北凌家宅",121.5644546083744,31.36308732015323,"2022-04-24"
"浦东新区","上海市浦东新区高桥镇新农村北项湾",121.5601669961753,31.367679309466983,"2022-04-24"
"浦东新区","上海市浦东新区高桥镇新农村南项湾",121.55982483160652,31.367077216842677,"2022-04-24"
"浦东新区","上海市浦东新区高青路2861弄",121.53503303681995,31.16808069147707,"2022-04-24"
"浦东新区","上海市浦东新区高青路4567弄",121.53688426481492,31.18970225553777,"2022-04-24"
"浦东新区","上海市浦东新区龚华路35弄",121.65277879086253,31.290487771739045,"2022-04-24"
"浦东新区","上海市浦东新区龚华路479弄",121.69382398656333,31.26551897447492,"2022-04-24"
"浦东新区","上海市浦东新区龚华路50弄",121.69183253307827,31.27058283787956,"2022-04-24"
"浦东新区","上海市浦东新区龚新路549弄",121.69111478697579,31.26461835524657,"2022-04-24"
"浦东新区","上海市浦东新区拱川路561弄",121.77485958763513,31.060910455271795,"2022-04-24"
"浦东新区","上海市浦东新区拱海路79弄",121.74678161163196,31.07553127655628,"2022-04-24"
"浦东新区","上海市浦东新区拱乐路2400弄",121.74960696212194,31.067545829754987,"2022-04-24"
"浦东新区","上海市浦东新区拱鸣路60弄",121.75136503583552,31.065749824802225,"2022-04-24"
"浦东新区","上海市浦东新区古桐南路117弄",121.62298792591292,31.205939961452376,"2022-04-24"
"浦东新区","上海市浦东新区崮山路157号",121.55848599707447,31.253071819138345,"2022-04-24"
"浦东新区","上海市浦东新区崮山路322弄",121.5592861177922,31.251792753021967,"2022-04-24"
"浦东新区","上海市浦东新区崮山路717号",121.56675642641318,31.2457458744099,"2022-04-24"
"浦东新区","上海市浦东新区崮山路95号",121.55737820671956,31.253687382281104,"2022-04-24"
"浦东新区","上海市浦东新区崮山路968号",121.56813927791524,31.241428762610123,"2022-04-24"
"浦东新区","上海市浦东新区关岳路229弄",121.59444804121651,31.127375227553234,"2022-04-24"
"浦东新区","上海市浦东新区光明路222弄",121.62230296796156,31.337702069276634,"2022-04-24"
"浦东新区","上海市浦东新区光泽路428弄",121.62307622934456,31.336400104686092,"2022-04-24"
"浦东新区","上海市浦东新区广衍路18弄",121.75790901181462,31.04542779861967,"2022-04-24"
"浦东新区","上海市浦东新区广益路15弄",121.77126519779807,31.115235567359992,"2022-04-24"
"浦东新区","上海市浦东新区归昌路351弄",121.58962611690005,31.28158489894264,"2022-04-24"
"浦东新区","上海市浦东新区国展路767号工地生活区",121.49211656672753,31.18691279208744,"2022-04-24"
"浦东新区","上海市浦东新区海基三路海洋四路交界口工地生活区",121.894828827476,30.900192727463445,"2022-04-24"
"浦东新区","上海市浦东新区海鸣路98弄",121.6775482178419,31.28862783374773,"2022-04-24"
"浦东新区","上海市浦东新区海纳路129弄",121.67672465135036,31.298365076552425,"2022-04-24"
"浦东新区","上海市浦东新区海鹏路301弄",121.68073091426376,31.295363983048894,"2022-04-24"
"浦东新区","上海市浦东新区海容路99弄",121.68083502787236,31.286961889101804,"2022-04-24"
"浦东新区","上海市浦东新区海顺路359弄",121.68936776241998,31.2816070420314,"2022-04-24"
"浦东新区","上海市浦东新区海松路398弄",121.68749075305689,31.283934428831106,"2022-04-24"
"浦东新区","上海市浦东新区海阳路1065弄",121.51253497532255,31.16475645125977,"2022-04-24"
"浦东新区","上海市浦东新区海阳路1080弄",121.51343947914056,31.16413535922777,"2022-04-24"
"浦东新区","上海市浦东新区海阳路860弄",121.50955529594596,31.16321761869808,"2022-04-24"
"浦东新区","上海市浦东新区海阳路905弄",121.50996204868088,31.164183254530798,"2022-04-24"
"浦东新区","上海市浦东新区航昌路199弄",121.61501636281737,31.08492173263943,"2022-04-24"
"浦东新区","上海市浦东新区航昌路376弄",121.61521767308216,31.084972297071307,"2022-04-24"
"浦东新区","上海市浦东新区航昌路489弄",121.61637509481649,31.080440873866234,"2022-04-24"
"浦东新区","上海市浦东新区航城五路401弄",121.75935483453291,31.15224536636404,"2022-04-24"
"浦东新区","上海市浦东新区航鹤路1858弄",121.590976180251,31.05615119264956,"2022-04-24"
"浦东新区","上海市浦东新区航鹤路78弄",121.59356509673074,31.031798852294145,"2022-04-24"
"浦东新区","上海市浦东新区航梅路525弄",121.5806510567193,31.03066676980315,"2022-04-24"
"浦东新区","上海市浦东新区航梅路526弄",121.58752462099001,31.028592642453045,"2022-04-24"
"浦东新区","上海市浦东新区航瑞路388弄",121.59820906672569,31.08068473877126,"2022-04-24"
"浦东新区","上海市浦东新区航三路航吉路交界口工地生活区",121.61429035230421,31.04579326766702,"2022-04-24"
"浦东新区","上海市浦东新区航头镇丰桥村檀香",121.60726299813021,31.011024437799293,"2022-04-24"
"浦东新区","上海市浦东新区航头镇果园村",121.64244189952865,31.025361102765,"2022-04-24"
"浦东新区","上海市浦东新区航头镇航东村航头",121.59936788083355,31.036557643001977,"2022-04-24"
"浦东新区","上海市浦东新区航头镇鹤东村沙东",121.60297826050872,31.06114895730399,"2022-04-24"
"浦东新区","上海市浦东新区航头镇鹤东村沿江",121.60803796629367,31.060273364197414,"2022-04-24"
"浦东新区","上海市浦东新区航头镇梅园村沙北",121.59123174816858,31.06555502677004,"2022-04-24"
"浦东新区","上海市浦东新区航头镇牌楼村谈弄",121.56382300977033,31.06163647708877,"2022-04-24"
"浦东新区","上海市浦东新区航头镇沈庄村大桥",121.57493271782597,31.081014986360636,"2022-04-24"
"浦东新区","上海市浦东新区航头镇王楼村储楼",121.62147589807853,31.07406915740577,"2022-04-24"
"浦东新区","上海市浦东新区合庆镇蔡路村包家宅",121.76420748089782,31.205888844405063,"2022-04-24"
"浦东新区","上海市浦东新区合庆镇蔡路村东蔡家宅",121.75183443079128,31.230186868212748,"2022-04-24"
"浦东新区","上海市浦东新区合庆镇蔡路村杨家宅",121.74440496474422,31.209984837533348,"2022-04-24"
"浦东新区","上海市浦东新区合庆镇东风村潘家宅",121.70232599906251,31.233515855865203,"2022-04-24"
"浦东新区","上海市浦东新区合庆镇前哨村包家宅",121.76420748089782,31.205888844405063,"2022-04-24"
"浦东新区","上海市浦东新区合庆镇勤奋村九队新村",121.73073086844077,31.268245472765493,"2022-04-24"
"浦东新区","上海市浦东新区合庆镇勤奋村徐家宅",121.74039403064216,31.255172867012874,"2022-04-24"
"浦东新区","上海市浦东新区合庆镇勤奋村张家宅",121.732101682649,31.261476576156298,"2022-04-24"
"浦东新区","上海市浦东新区合庆镇勤益村徐家宅",121.71681036693595,31.215195470671564,"2022-04-24"
"浦东新区","上海市浦东新区合庆镇青四村龚家宅",121.74369593220518,31.234053814552556,"2022-04-24"
"浦东新区","上海市浦东新区合庆镇庆丰村东新宅",121.72371950410485,31.24705219137166,"2022-04-24"
"浦东新区","上海市浦东新区合庆镇庆星村凤家码头",121.72570709487623,31.240436443995055,"2022-04-24"
"浦东新区","上海市浦东新区合庆镇庆星村顾家宅",121.72570709487623,31.240436443995055,"2022-04-24"
"浦东新区","上海市浦东新区合庆镇庆星村张家宅",121.7404823340738,31.241826968403426,"2022-04-24"
"浦东新区","上海市浦东新区合庆镇奚家村",121.71794366916734,31.25361962114071,"2022-04-24"
"浦东新区","上海市浦东新区合庆镇向东村顾家宅",121.7500085046849,31.241907087914267,"2022-04-24"
"浦东新区","上海市浦东新区合庆镇营房村高路二宅",121.74208131788156,31.216227432867615,"2022-04-24"
"浦东新区","上海市浦东新区合庆镇营房村青晏二宅",121.74050551035594,31.214404312540196,"2022-04-24"
"浦东新区","上海市浦东新区合庆镇营房村云镇宅",121.74208131788156,31.216227432867615,"2022-04-24"
"浦东新区","上海市浦东新区合庆镇永红村丁家宅",121.71609181235851,31.24084075180815,"2022-04-24"
"浦东新区","上海市浦东新区合庆镇永红村薛家宅",121.71609181235851,31.24084075180815,"2022-04-24"
"浦东新区","上海市浦东新区合庆镇跃丰村",121.71504133389516,31.230562701679265,"2022-04-24"
"浦东新区","上海市浦东新区合庆镇跃进村凤家宅",121.7168046177807,31.21527252465362,"2022-04-24"
"浦东新区","上海市浦东新区合庆镇跃进村新宅",121.70929756846435,31.214192913832104,"2022-04-24"
"浦东新区","上海市浦东新区和佳路105弄",121.52030208408404,31.133297374938646,"2022-04-24"
"浦东新区","上海市浦东新区和炯路501弄",121.51479241706913,31.1304419100536,"2022-04-24"
"浦东新区","上海市浦东新区和炯路601弄",121.5159549142296,31.130611149249244,"2022-04-24"
"浦东新区","上海市浦东新区和炯路77弄",121.52553031198265,31.139159418419815,"2022-04-24"
"浦东新区","上海市浦东新区和龙路55弄",121.57975787174837,31.344955201239863,"2022-04-24"
"浦东新区","上海市浦东新区和龙路619弄",121.5730834616116,31.356593890993594,"2022-04-24"
"浦东新区","上海市浦东新区和融路55弄",121.50636765884381,31.130799475794813,"2022-04-24"
"浦东新区","上海市浦东新区菏泽路25弄",121.59678004232042,31.279692532722535,"2022-04-24"
"浦东新区","上海市浦东新区菏泽路58弄",121.59668500159746,31.278713042423398,"2022-04-24"
"浦东新区","上海市浦东新区鹤波路航昌路交界口工地生活区",121.61540487995045,31.082547725175164,"2022-04-24"
"浦东新区","上海市浦东新区鹤驰路88弄",121.600970727355,31.086394893804805,"2022-04-24"
"浦东新区","上海市浦东新区鹤洁路625弄",121.61322873485253,31.0753186370206,"2022-04-24"
"浦东新区","上海市浦东新区鹤沙路588弄",121.60146802928533,31.08802188513857,"2022-04-24"
"浦东新区","上海市浦东新区鹤永路599弄",121.60966982808309,31.080345152465775,"2022-04-24"
"浦东新区","上海市浦东新区恒庆路曹卫家路交界口工地生活区",121.7195155241487,31.251291093157224,"2022-04-24"
"浦东新区","上海市浦东新区横桥路69弄",121.58617042543372,31.11424083016227,"2022-04-24"
"浦东新区","上海市浦东新区虹盛路250弄",121.68737783605428,31.247623183151326,"2022-04-24"
"浦东新区","上海市浦东新区洪山路121弄",121.50500277345195,31.18470970220126,"2022-04-24"
"浦东新区","上海市浦东新区洪山路1889弄",121.5163869991799,31.15759657107878,"2022-04-24"
"浦东新区","上海市浦东新区洪山路237弄",121.50688247773158,31.178985516539065,"2022-04-24"
"浦东新区","上海市浦东新区洪山路851弄",121.51121177130636,31.166624337590093,"2022-04-24"
"浦东新区","上海市浦东新区沪南公路5192号",121.5953829975913,31.058301819203898,"2022-04-24"
"浦东新区","上海市浦东新区沪南路1168弄",121.53688426481492,31.18970225553777,"2022-04-24"
"浦东新区","上海市浦东新区沪南路2727弄",121.58292197304854,31.14810481840371,"2022-04-24"
"浦东新区","上海市浦东新区沪南路3150弄",121.572258906984,31.128503519931538,"2022-04-24"
"浦东新区","上海市浦东新区沪南路3219弄",121.57455838942843,31.129993849742835,"2022-04-24"
"浦东新区","上海市浦东新区花木街道龙王庙村南杨家堂",121.55896380577522,31.20272323948302,"2022-04-24"
"浦东新区","上海市浦东新区花木路500弄",121.54909843500354,31.21781187340708,"2022-04-24"
"浦东新区","上海市浦东新区花山路300弄",121.57570166285099,31.352227321137764,"2022-04-24"
"浦东新区","上海市浦东新区华安路24弄",121.52198362216815,31.217358903108494,"2022-04-24"
"浦东新区","上海市浦东新区华春路100弄",121.52684004141621,31.213179845684934,"2022-04-24"
"浦东新区","上海市浦东新区华春路成山路交界口工地生活区",121.51578252940224,31.1782385421865,"2022-04-24"
"浦东新区","上海市浦东新区华东路齐友路交界口工地生活区",121.67796045024043,31.211187495252585,"2022-04-24"
"浦东新区","上海市浦东新区华丰路50弄",121.51450495930594,31.197495463859788,"2022-04-24"
"浦东新区","上海市浦东新区华夏东路1801弄",121.69187565174273,31.205936872809836,"2022-04-24"
"浦东新区","上海市浦东新区华夏东路2110弄",121.69923501963324,31.205382845904523,"2022-04-24"
"浦东新区","上海市浦东新区华夏东路2170弄",121.6998972504552,31.205711633277275,"2022-04-24"
"浦东新区","上海市浦东新区华夏东路860弄",121.67234154927552,31.20033012373384,"2022-04-24"
"浦东新区","上海市浦东新区华夏二路1255弄",121.69800191565969,31.18281197716778,"2022-04-24"
"浦东新区","上海市浦东新区华夏二路1278弄",121.69602645201269,31.181511714829725,"2022-04-24"
"浦东新区","上海市浦东新区华夏二路200弄",121.6906064358877,31.200057534311252,"2022-04-24"
"浦东新区","上海市浦东新区华绣路255弄",121.53584932703689,31.19083713538742,"2022-04-24"
"浦东新区","上海市浦东新区环林东路270弄",121.53278134422864,31.15489288491308,"2022-04-24"
"浦东新区","上海市浦东新区环林东路271弄",121.53316411220645,31.155298952705344,"2022-04-24"
"浦东新区","上海市浦东新区环林东路799弄",121.53887293355291,31.14937440704047,"2022-04-24"
"浦东新区","上海市浦东新区环林东路875弄",121.53759150074292,31.147101543815356,"2022-04-24"
"浦东新区","上海市浦东新区环林东路879弄",121.53643753748482,31.144278100822874,"2022-04-24"
"浦东新区","上海市浦东新区环林东路906弄",121.53547140990882,31.14792834793253,"2022-04-24"
"浦东新区","上海市浦东新区环林西路608弄",121.52649814633911,31.146505600587343,"2022-04-24"
"浦东新区","上海市浦东新区环林西路848弄",121.53335302585519,31.145449227254158,"2022-04-24"
"浦东新区","上海市浦东新区环桥路1136弄",121.58485970786411,31.120077939878794,"2022-04-24"
"浦东新区","上海市浦东新区环桥路1481弄",121.58485970786411,31.120077939878794,"2022-04-24"
"浦东新区","上海市浦东新区环桥路1488弄",121.58485970786411,31.120077939878794,"2022-04-24"
"浦东新区","上海市浦东新区环庆南路336弄",121.7346897906538,31.23247181041194,"2022-04-24"
"浦东新区","上海市浦东新区环庆中路168弄",121.7280142129175,31.239109425236762,"2022-04-24"
"浦东新区","上海市浦东新区惠南镇城北村",121.75355483517718,31.061711027797873,"2022-04-24"
"浦东新区","上海市浦东新区惠南镇城南村",121.74758820014938,31.029326185227227,"2022-04-24"
"浦东新区","上海市浦东新区惠南镇红光村",121.7795014915274,31.069317751298236,"2022-04-24"
"浦东新区","上海市浦东新区惠南镇黄路村富强",121.77243425258874,31.03565606179299,"2022-04-24"
"浦东新区","上海市浦东新区惠南镇惠东村",121.7830716271157,31.046320700815905,"2022-04-24"
"浦东新区","上海市浦东新区惠南镇陆楼村长路",121.78080403451686,31.0810009735505,"2022-04-24"
"浦东新区","上海市浦东新区惠南镇勤丰村",121.77460662480352,31.05337598586837,"2022-04-24"
"浦东新区","上海市浦东新区惠南镇团结村",121.78377401219396,31.02723694260512,"2022-04-24"
"浦东新区","上海市浦东新区惠南镇西门村",121.74801911730252,31.060393930804395,"2022-04-24"
"浦东新区","上海市浦东新区惠南镇徐庙村",121.72120272155755,31.036218516427077,"2022-04-24"
"浦东新区","上海市浦东新区季景北路180弄",121.5909265039563,31.347849135892478,"2022-04-24"
"浦东新区","上海市浦东新区济阳路333弄",121.48968423908194,31.166808729479918,"2022-04-24"
"浦东新区","上海市浦东新区济阳路65弄",121.48830893334616,31.173016198002603,"2022-04-24"
"浦东新区","上海市浦东新区建中路171弄",121.52553031198265,31.139159418419815,"2022-04-24"
"浦东新区","上海市浦东新区江东路238号",121.55437400360253,31.365936814524236,"2022-04-24"
"浦东新区","上海市浦东新区江东路25号",121.55593013823747,31.368827676072844,"2022-04-24"
"浦东新区","上海市浦东新区交通新村",121.76939420708187,31.042292982833136,"2022-04-24"
"浦东新区","上海市浦东新区界浜路55弄",121.64995999800276,31.13373946927562,"2022-04-24"
"浦东新区","上海市浦东新区金高路2131弄",121.61704653326993,31.267471971131776,"2022-04-24"
"浦东新区","上海市浦东新区金高路988弄",121.61620527015982,31.292764484741046,"2022-04-24"
"浦东新区","上海市浦东新区金沪路1218弄",121.61069129127848,31.246915347325004,"2022-04-24"
"浦东新区","上海市浦东新区金槐路金粤路交界口工地生活区",121.63573083872471,31.244857105348114,"2022-04-24"
"浦东新区","上海市浦东新区金吉路33弄",121.65277879086253,31.290487771739045,"2022-04-24"
"浦东新区","上海市浦东新区金口路155弄",121.58424499740363,31.25593427683329,"2022-04-24"
"浦东新区","上海市浦东新区金口路411弄",121.58648546117607,31.253118048256365,"2022-04-24"
"浦东新区","上海市浦东新区金口路44弄",121.58254863727859,31.25535824224336,"2022-04-24"
"浦东新区","上海市浦东新区金葵路1115弄",121.60213861434853,31.244250205910852,"2022-04-24"
"浦东新区","上海市浦东新区金葵路1315弄",121.60213861434853,31.244250205910852,"2022-04-24"
"浦东新区","上海市浦东新区金葵路560弄",121.62562535089022,31.244196022404445,"2022-04-24"
"浦东新区","上海市浦东新区金睦路353弄",121.68155771465513,31.29351069944203,"2022-04-24"
"浦东新区","上海市浦东新区金桥路1498弄",121.59570477062498,31.256519645967902,"2022-04-24"
"浦东新区","上海市浦东新区金桥路1502弄",121.59434545472728,31.25470255867954,"2022-04-24"
"浦东新区","上海市浦东新区金桥路1504弄",121.59680510504415,31.25598876223641,"2022-04-24"
"浦东新区","上海市浦东新区金桥路1506弄",121.59646078454217,31.255564377215766,"2022-04-24"
"浦东新区","上海市浦东新区金桥路226弄",121.62178482534341,31.26066381567406,"2022-04-24"
"浦东新区","上海市浦东新区金桥路2552弄",121.60918438378549,31.23991303336551,"2022-04-24"
"浦东新区","上海市浦东新区金桥路2618号",121.61007999437895,31.23895589678164,"2022-04-24"
"浦东新区","上海市浦东新区金桥路301弄",121.57861711338361,31.27287901780519,"2022-04-24"
"浦东新区","上海市浦东新区金桥路825号",121.58502328929748,31.267215010373118,"2022-04-24"
"浦东新区","上海市浦东新区金桥路899弄",121.62178482534341,31.26066381567406,"2022-04-24"
"浦东新区","上海市浦东新区金桥路989弄",121.62178482534341,31.26066381567406,"2022-04-24"
"浦东新区","上海市浦东新区金台路181弄",121.58962611690005,31.28158489894264,"2022-04-24"
"浦东新区","上海市浦东新区金皖路55号工地生活区",121.62062897564373,31.264899862386446,"2022-04-24"
"浦东新区","上海市浦东新区金湘路201弄",121.61976462608202,31.261871069580963,"2022-04-24"
"浦东新区","上海市浦东新区金湘路225弄",121.6198699074878,31.2617793916801,"2022-04-24"
"浦东新区","上海市浦东新区金晓路289弄",121.68460809067537,31.28122952865363,"2022-04-24"
"浦东新区","上海市浦东新区金杨路220弄",121.58118716544766,31.253056383701526,"2022-04-24"
"浦东新区","上海市浦东新区金杨路308弄",121.58387552434739,31.253610128402997,"2022-04-24"
"浦东新区","上海市浦东新区金杨路660弄",121.58839992987893,31.25750168417267,"2022-04-24"
"浦东新区","上海市浦东新区金杨路685弄",121.58834306714016,31.258255434906122,"2022-04-24"
"浦东新区","上海市浦东新区金杨路757弄",121.58899155388781,31.259965802192976,"2022-04-24"
"浦东新区","上海市浦东新区金杨路785弄",121.58943756257352,31.25969878847117,"2022-04-24"
"浦东新区","上海市浦东新区金钻路398弄",121.67726893465885,31.293179906356418,"2022-04-24"
"浦东新区","上海市浦东新区金钻路669弄",121.68113407377663,31.28976946004042,"2022-04-24"
"浦东新区","上海市浦东新区锦安东路280弄",121.55033746779345,31.20801179992383,"2022-04-24"
"浦东新区","上海市浦东新区锦安东路567弄",121.54661142049524,31.205028233406754,"2022-04-24"
"浦东新区","上海市浦东新区锦和路289弄",121.54364599004963,31.21064083456777,"2022-04-24"
"浦东新区","上海市浦东新区锦和路99弄",121.53812401624923,31.212289840714956,"2022-04-24"
"浦东新区","上海市浦东新区锦康路389弄",121.54370725448541,31.215896366181077,"2022-04-24"
"浦东新区","上海市浦东新区锦绣路1650弄",121.54600404201332,31.218861486801792,"2022-04-24"
"浦东新区","上海市浦东新区锦绣路3088弄",121.5462948235069,31.185731419409098,"2022-04-24"
"浦东新区","上海市浦东新区锦绣路3336弄",121.54705955098754,31.183574979857113,"2022-04-24"
"浦东新区","上海市浦东新区锦绣路3338弄",121.54528809252187,31.185490375783257,"2022-04-24"
"浦东新区","上海市浦东新区京浦路298弄",121.57666437686603,31.160238762658587,"2022-04-24"
"浦东新区","上海市浦东新区京浦路82弄",121.57334019732636,31.15969157298491,"2022-04-24"
"浦东新区","上海市浦东新区泾东一村",121.56393242338147,31.250398131937715,"2022-04-24"
"浦东新区","上海市浦东新区靖海路239弄",121.77460033666496,31.05421467415044,"2022-04-24"
"浦东新区","上海市浦东新区靖海南路666弄",121.77249138481919,31.03951496996819,"2022-04-24"
"浦东新区","上海市浦东新区居家桥路151弄",121.56804217108962,31.266784117232525,"2022-04-24"
"浦东新区","上海市浦东新区居家桥路520弄",121.57022056093622,31.260913981240478,"2022-04-24"
"浦东新区","上海市浦东新区巨峰路176弄",121.60320166908903,31.285412489153977,"2022-04-24"
"浦东新区","上海市浦东新区巨峰路90弄",121.60248023993398,31.284755704928653,"2022-04-24"
"浦东新区","上海市浦东新区巨峰路997弄",121.6237273211782,31.2870005408357,"2022-04-24"
"浦东新区","上海市浦东新区康桥东路1244号",121.63773712922247,31.162447356055775,"2022-04-24"
"浦东新区","上海市浦东新区康桥路90弄",121.58485970786411,31.120077939878794,"2022-04-24"
"浦东新区","上海市浦东新区康桥镇百曲村",121.5546630711292,31.117902747608948,"2022-04-24"
"浦东新区","上海市浦东新区康桥镇叠桥村",121.62282874617655,31.13384997321586,"2022-04-24"
"浦东新区","上海市浦东新区康桥镇花墙村",121.55274169266035,31.156328175262196,"2022-04-24"
"浦东新区","上海市浦东新区康桥镇火箭村",121.61498941365208,31.14512934591589,"2022-04-24"
"浦东新区","上海市浦东新区康桥镇人南村",121.63357553431462,31.14529322728839,"2022-04-24"
"浦东新区","上海市浦东新区康桥镇太平村",121.56002174017434,31.12938396497478,"2022-04-24"
"浦东新区","上海市浦东新区康桥镇汤巷村",121.61059382513065,31.144564683154275,"2022-04-24"
"浦东新区","上海市浦东新区康桥镇新苗村",121.64390317310173,31.127716189665108,"2022-04-24"
"浦东新区","上海市浦东新区康桥镇秀龙村",121.5691399004228,31.132605675883436,"2022-04-24"
"浦东新区","上海市浦东新区康桥镇沿北村",121.60867899710559,31.145196644713096,"2022-04-24"
"浦东新区","上海市浦东新区康杉路118号",121.5643592981598,31.163154813399263,"2022-04-24"
"浦东新区","上海市浦东新区康沈路1199弄",121.58485970786411,31.120077939878794,"2022-04-24"
"浦东新区","上海市浦东新区康沈路2262弄",121.58731262088966,31.107124171661162,"2022-04-24"
"浦东新区","上海市浦东新区康沈路250弄",121.58485970786411,31.120077939878794,"2022-04-24"
"浦东新区","上海市浦东新区康沈路400弄",121.58485970786411,31.120077939878794,"2022-04-24"
"浦东新区","上海市浦东新区康沈路465弄",121.58485970786411,31.120077939878794,"2022-04-24"
"浦东新区","上海市浦东新区康新公路秀浦路交界口工地生活区",121.62670313784109,31.12261275704881,"2022-04-24"
"浦东新区","上海市浦东新区康意路御桥路交界口工地生活区",121.54239006911612,31.155811788475507,"2022-04-24"
"浦东新区","上海市浦东新区莱阳路201弄",121.58640533232457,31.27945497158419,"2022-04-24"
"浦东新区","上海市浦东新区莱阳路218号",121.58962611690005,31.28158489894264,"2022-04-24"
"浦东新区","上海市浦东新区莱阳路301弄",121.5859471965145,31.280357685263912,"2022-04-24"
"浦东新区","上海市浦东新区莱阳路350弄",121.58832150780792,31.280456057381212,"2022-04-24"
"浦东新区","上海市浦东新区莱阳路451弄",121.5892918574198,31.282158997327386,"2022-04-24"
"浦东新区","上海市浦东新区兰城路115弄",121.58550415223696,31.27245247181405,"2022-04-24"
"浦东新区","上海市浦东新区兰嵩路360弄",121.59949355377441,31.329141154812422,"2022-04-24"
"浦东新区","上海市浦东新区蓝村路30弄",121.53864979446423,31.21674943185774,"2022-04-24"
"浦东新区","上海市浦东新区蓝村路31弄",121.5391603913161,31.21864284083338,"2022-04-24"
"浦东新区","上海市浦东新区蓝村路471弄",121.5336015869898,31.217902204702717,"2022-04-24"
"浦东新区","上海市浦东新区蓝村路501弄",121.53196923411473,31.21884539582701,"2022-04-24"
"浦东新区","上海市浦东新区蓝村路60弄",121.53698819876243,31.214791283664812,"2022-04-24"
"浦东新区","上海市浦东新区崂山路551弄",121.52875567791624,31.232572857538436,"2022-04-24"
"浦东新区","上海市浦东新区崂山路571弄",121.52954349184849,31.232309393717138,"2022-04-24"
"浦东新区","上海市浦东新区崂山路644弄",121.53173832170101,31.22877274659365,"2022-04-24"
"浦东新区","上海市浦东新区崂山路645弄",121.53134881643189,31.227805460283697,"2022-04-24"
"浦东新区","上海市浦东新区崂山路80弄",121.52311467863576,31.244151178196617,"2022-04-24"
"浦东新区","上海市浦东新区崂山三村",121.52639681747759,31.238932508563483,"2022-04-24"
"浦东新区","上海市浦东新区崂山四村",121.52454199626058,31.24117281086977,"2022-04-24"
"浦东新区","上海市浦东新区老港镇建港村港北",121.85385558604654,31.033488363821863,"2022-04-24"
"浦东新区","上海市浦东新区历城路100弄",121.49791550230043,31.179897773390458,"2022-04-24"
"浦东新区","上海市浦东新区历城路22弄",121.53688426481492,31.18970225553777,"2022-04-24"
"浦东新区","上海市浦东新区历城路81弄",121.49929664702202,31.181099581583208,"2022-04-24"
"浦东新区","上海市浦东新区丽雅路122号",121.68894690628856,31.24175641995265,"2022-04-24"
"浦东新区","上海市浦东新区利川路421弄",121.68866573666394,31.21415577617192,"2022-04-24"
"浦东新区","上海市浦东新区利川路王桥路交界口工地生活区",121.6986327057888,31.215171381638122,"2022-04-24"
"浦东新区","上海市浦东新区利津路185弄",121.58734837344896,31.284879686517,"2022-04-24"
"浦东新区","上海市浦东新区利津路385弄",121.59099567348056,31.28276487908113,"2022-04-24"
"浦东新区","上海市浦东新区利津路53弄",121.58491028246432,31.28569254492477,"2022-04-24"
"浦东新区","上海市浦东新区利津路729弄",121.59658295409153,31.280678570870514,"2022-04-24"
"浦东新区","上海市浦东新区连波路228弄",121.55884442097295,31.19795818307608,"2022-04-24"
"浦东新区","上海市浦东新区连波路26弄",121.55848438012455,31.200897848506106,"2022-04-24"
"浦东新区","上海市浦东新区莲溪路1099弄",121.56986339568053,31.18174774834683,"2022-04-24"
"浦东新区","上海市浦东新区莲溪路126弄",121.56566040386045,31.193483178521433,"2022-04-24"
"浦东新区","上海市浦东新区莲溪路430弄",121.5666639907762,31.188726533627015,"2022-04-24"
"浦东新区","上海市浦东新区莲溪路780弄",121.5687171578498,31.18347820498392,"2022-04-24"
"浦东新区","上海市浦东新区莲园路180弄",121.55797854429187,31.191144040989926,"2022-04-24"
"浦东新区","上海市浦东新区莲园路498弄",121.53688426481492,31.18970225553777,"2022-04-24"
"浦东新区","上海市浦东新区莲园路77弄",121.55179694475551,31.19146021294754,"2022-04-24"
"浦东新区","上海市浦东新区莲中路255弄",121.56544552918247,31.188280991250455,"2022-04-24"
"浦东新区","上海市浦东新区林德路718弄",121.51775682525206,31.134869848898855,"2022-04-24"
"浦东新区","上海市浦东新区林鸣路326弄",121.5321656456321,31.13857122920478,"2022-04-24"
"浦东新区","上海市浦东新区林浦路1240弄",121.52553031198265,31.139159418419815,"2022-04-24"
"浦东新区","上海市浦东新区林展路267弄",121.5139930149958,31.13367888524202,"2022-04-24"
"浦东新区","上海市浦东新区林展路278弄",121.51290103481787,31.132805821704117,"2022-04-24"
"浦东新区","上海市浦东新区林展路411弄",121.51568173952401,31.128169902288004,"2022-04-24"
"浦东新区","上海市浦东新区临沂北路100弄",121.52618984788808,31.212369290621975,"2022-04-24"
"浦东新区","上海市浦东新区临沂北路150弄",121.52346528727632,31.21156899766171,"2022-04-24"
"浦东新区","上海市浦东新区临沂路151弄",121.51857697818268,31.20000857624028,"2022-04-24"
"浦东新区","上海市浦东新区临沂路181弄",121.52066814357934,31.19757925080322,"2022-04-24"
"浦东新区","上海市浦东新区临沂路280弄",121.51602965324803,31.198943924920997,"2022-04-24"
"浦东新区","上海市浦东新区临沂路301弄",121.51651446873176,31.19676037501184,"2022-04-24"
"浦东新区","上海市浦东新区临沂路81弄",121.52588604096461,31.20134163205489,"2022-04-24"
"浦东新区","上海市浦东新区临沂路8弄",121.55045460683195,31.227348292436346,"2022-04-24"
"浦东新区","上海市浦东新区灵山路1415弄",121.57078020628401,31.244998737805226,"2022-04-24"
"浦东新区","上海市浦东新区灵山路1671弄",121.57231100870358,31.245771344870743,"2022-04-24"
"浦东新区","上海市浦东新区灵山路1724弄",121.57452973348266,31.246303135635344,"2022-04-24"
"浦东新区","上海市浦东新区灵山路1726弄",121.57499685234785,31.246511528869256,"2022-04-24"
"浦东新区","上海市浦东新区灵山路730弄",121.55700675739118,31.237562859609255,"2022-04-24"
"浦东新区","上海市浦东新区灵岩路56弄",121.50007296264374,31.17253829314167,"2022-04-24"
"浦东新区","上海市浦东新区灵岩南路1180弄",121.5070109354195,31.14603227386536,"2022-04-24"
"浦东新区","上海市浦东新区灵岩南路144号",121.50050792217166,31.165827284606216,"2022-04-24"
"浦东新区","上海市浦东新区灵岩南路156弄",121.50071075955583,31.164839185970084,"2022-04-24"
"浦东新区","上海市浦东新区灵岩南路380弄",121.50329428620252,31.159025485187325,"2022-04-24"
"浦东新区","上海市浦东新区灵岩南路499弄",121.50409180183428,31.156965620082993,"2022-04-24"
"浦东新区","上海市浦东新区灵岩南路769弄",121.50464470887566,31.155998287562003,"2022-04-24"
"浦东新区","上海市浦东新区凌河路188弄",121.60216197029179,31.281903851498075,"2022-04-24"
"浦东新区","上海市浦东新区凌河路354弄",121.60602863652895,31.279935494106077,"2022-04-24"
"浦东新区","上海市浦东新区凌河路38弄",121.60075360691324,31.282569682663706,"2022-04-24"
"浦东新区","上海市浦东新区凌河路420弄",121.60593224834773,31.279917054061343,"2022-04-24"
"浦东新区","上海市浦东新区凌河路618弄",121.60815285956838,31.276965751274,"2022-04-24"
"浦东新区","上海市浦东新区凌兆路127弄",121.5000277778766,31.1477960721254,"2022-04-24"
"浦东新区","上海市浦东新区凌兆路256弄",121.50210214496023,31.147628872766035,"2022-04-24"
"浦东新区","上海市浦东新区凌兆路285弄",121.52553031198265,31.139159418419815,"2022-04-24"
"浦东新区","上海市浦东新区凌兆路334弄",121.50545821434551,31.148676181773208,"2022-04-24"
"浦东新区","上海市浦东新区凌兆路379弄",121.52553031198265,31.139159418419815,"2022-04-24"
"浦东新区","上海市浦东新区凌兆路396弄",121.52553031198265,31.139159418419815,"2022-04-24"
"浦东新区","上海市浦东新区凌兆路500弄",121.50674692343011,31.149108468583478,"2022-04-24"
"浦东新区","上海市浦东新区凌兆路530弄",121.50924389922127,31.147344676856857,"2022-04-24"
"浦东新区","上海市浦东新区凌兆路586弄",121.52553031198265,31.139159418419815,"2022-04-24"
"浦东新区","上海市浦东新区凌兆路711弄",121.51390803529456,31.14797486075968,"2022-04-24"
"浦东新区","上海市浦东新区凌兆路88弄",121.49795107519863,31.146617712068256,"2022-04-24"
"浦东新区","上海市浦东新区柳埠路135弄",121.58893424199627,31.268891029980523,"2022-04-24"
"浦东新区","上海市浦东新区龙东大道5401弄",121.68832707548668,31.24013602934504,"2022-04-24"
"浦东新区","上海市浦东新区龙东大道6459号",121.7113050117875,31.24480786196945,"2022-04-24"
"浦东新区","上海市浦东新区龙东大道云山路交界口工地生活区",121.65799345434795,31.23341820626681,"2022-04-24"
"浦东新区","上海市浦东新区龙汇路168号工地生活区",121.5578943730656,31.20518856893416,"2022-04-24"
"浦东新区","上海市浦东新区龙居路147号",121.56925317674761,31.258774961411095,"2022-04-24"
"浦东新区","上海市浦东新区龙居路150弄",121.56829396612406,31.257918960465464,"2022-04-24"
"浦东新区","上海市浦东新区龙居路180弄",121.56897173763133,31.258551238155807,"2022-04-24"
"浦东新区","上海市浦东新区龙居路191弄",121.56989717196772,31.257917648521467,"2022-04-24"
"浦东新区","上海市浦东新区龙居路30弄",121.58962611690005,31.28158489894264,"2022-04-24"
"浦东新区","上海市浦东新区龙阳路1188号",121.53717495647795,31.204222274391203,"2022-04-24"
"浦东新区","上海市浦东新区龙阳路158号工地生活区",121.51824640175501,31.208450144787154,"2022-04-24"
"浦东新区","上海市浦东新区芦潮路333弄",121.86256097491318,30.868774250721344,"2022-04-24"
"浦东新区","上海市浦东新区罗山路108弄",121.55887945488784,31.254641589752865,"2022-04-24"
"浦东新区","上海市浦东新区罗山路1502弄",121.575171482939,31.234888265801676,"2022-04-24"
"浦东新区","上海市浦东新区绿林路320弄",121.55483474449859,31.176162646734344,"2022-04-24"
"浦东新区","上海市浦东新区绿林路50弄",121.55494703268735,31.17853089093836,"2022-04-24"
"浦东新区","上海市浦东新区绿林路51弄",121.55520295992714,31.180852424344394,"2022-04-24"
"浦东新区","上海市浦东新区绿林路52弄",121.55361538459937,31.178633772765767,"2022-04-24"
"浦东新区","上海市浦东新区茂兴路98号",121.52020273149462,31.21484849534141,"2022-04-24"
"浦东新区","上海市浦东新区梅花路168弄",121.52969618510942,31.207201251711854,"2022-04-24"
"浦东新区","上海市浦东新区苗圃路463弄",121.55669244029323,31.24284675034898,"2022-04-24"
"浦东新区","上海市浦东新区苗桥路455号生活区",121.63561837087487,31.13291794954313,"2022-04-24"
"浦东新区","上海市浦东新区妙川路1000弄",121.71007352476387,31.184302294282435,"2022-04-24"
"浦东新区","上海市浦东新区民春路501弄",121.65277879086253,31.290487771739045,"2022-04-24"
"浦东新区","上海市浦东新区民冬路169号生活区",121.66090279640311,31.292515616607304,"2022-04-24"
"浦东新区","上海市浦东新区民民路8号",121.65751447785003,31.276946847698113,"2022-04-24"
"浦东新区","上海市浦东新区民区路260弄",121.66203439185404,31.279504351019632,"2022-04-24"
"浦东新区","上海市浦东新区民生路423号",121.54954965386119,31.246153400950913,"2022-04-24"
"浦东新区","上海市浦东新区民唐路秦家港路交界口工地生活区",121.69745116455151,31.27622735160854,"2022-04-24"
"浦东新区","上海市浦东新区民同路293弄",121.65277879086253,31.290487771739045,"2022-04-24"
"浦东新区","上海市浦东新区民雪路108弄",121.65277879086253,31.290487771739045,"2022-04-24"
"浦东新区","上海市浦东新区民雪路918弄",121.66510605771485,31.276406126650397,"2022-04-24"
"浦东新区","上海市浦东新区民耀路268弄",121.65922925323802,31.278209443845476,"2022-04-24"
"浦东新区","上海市浦东新区民耀路391弄",121.65277879086253,31.290487771739045,"2022-04-24"
"浦东新区","上海市浦东新区民耀路97弄",121.65950790760722,31.28071167009252,"2022-04-24"
"浦东新区","上海市浦东新区牟平路56弄",121.60313474532855,31.271459942371283,"2022-04-24"
"浦东新区","上海市浦东新区牡丹路165弄",121.55224448056057,31.2137752108178,"2022-04-24"
"浦东新区","上海市浦东新区牡丹路186弄",121.55291883850693,31.21235431173309,"2022-04-24"
"浦东新区","上海市浦东新区南曹路901弄",121.67039869411853,31.20845261563489,"2022-04-24"
"浦东新区","上海市浦东新区南汇新城镇庙港村",121.86910279495905,30.87978416320418,"2022-04-24"
"浦东新区","上海市浦东新区南林路584弄",121.52906756958929,31.1438546774973,"2022-04-24"
"浦东新区","上海市浦东新区南六公路399弄",121.71310898891265,31.067526883918102,"2022-04-24"
"浦东新区","上海市浦东新区南码头路1120弄",121.52017057215737,31.191446543590878,"2022-04-24"
"浦东新区","上海市浦东新区南码头路1136弄",121.51972788720205,31.18987494042182,"2022-04-24"
"浦东新区","上海市浦东新区南码头路1186弄",121.51899918177237,31.18847607558863,"2022-04-24"
"浦东新区","上海市浦东新区南码头路1288弄",121.52085175722559,31.18769195147541,"2022-04-24"
"浦东新区","上海市浦东新区南码头路1351弄",121.5219512831698,31.186058036008536,"2022-04-24"
"浦东新区","上海市浦东新区南码头路144弄",121.51408347436066,31.20463778072207,"2022-04-24"
"浦东新区","上海市浦东新区南码头路1621弄",121.52318079392131,31.181688431079078,"2022-04-24"
"浦东新区","上海市浦东新区南码头路1675弄",121.52084888264797,31.18090401847181,"2022-04-24"
"浦东新区","上海市浦东新区南码头路193弄",121.51551258859648,31.204743182053495,"2022-04-24"
"浦东新区","上海市浦东新区南码头路450弄",121.5163195364361,31.200368116304254,"2022-04-24"
"浦东新区","上海市浦东新区南码头路451弄",121.51651428907066,31.200820319373893,"2022-04-24"
"浦东新区","上海市浦东新区南码头路56号",121.51297388739474,31.206073081849507,"2022-04-24"
"浦东新区","上海市浦东新区南桥路237弄",121.71515946106972,31.197580409147527,"2022-04-24"
"浦东新区","上海市浦东新区南桥路297弄",121.71286069726968,31.197050503739646,"2022-04-24"
"浦东新区","上海市浦东新区南桥路707弄",121.70251581101678,31.194824049710224,"2022-04-24"
"浦东新区","上海市浦东新区南泉北路101弄",121.52204021541529,31.24412385486496,"2022-04-24"
"浦东新区","上海市浦东新区南泉北路1040弄",121.52687642278936,31.23176764245591,"2022-04-24"
"浦东新区","上海市浦东新区南泉北路301弄",121.5231992990148,31.239984741026475,"2022-04-24"
"浦东新区","上海市浦东新区南泉路1200弄",121.52883140507072,31.21929877720649,"2022-04-24"
"浦东新区","上海市浦东新区南泉路1211弄",121.52972225464497,31.219263571698672,"2022-04-24"
"浦东新区","上海市浦东新区南泉路1317号",121.52920770524887,31.21627128676255,"2022-04-24"
"浦东新区","上海市浦东新区南泉路1320弄",121.52656039891095,31.215734152342247,"2022-04-24"
"浦东新区","上海市浦东新区南泉路50号",121.52588568164241,31.228501011944278,"2022-04-24"
"浦东新区","上海市浦东新区南团公路858弄",121.76883132884932,31.029976482139237,"2022-04-24"
"浦东新区","上海市浦东新区南祝路258弄",121.76188598996839,31.125974889673685,"2022-04-24"
"浦东新区","上海市浦东新区泥城镇彭庙村学士",121.79245927901718,30.909953846627857,"2022-04-24"
"浦东新区","上海市浦东新区泥城镇人民村高桥",121.83018370873926,30.91351395317029,"2022-04-24"
"浦东新区","上海市浦东新区泥城镇新泐村彭六",121.81057630454241,30.906570529296825,"2022-04-24"
"浦东新区","上海市浦东新区泥城镇中泐村北泐",121.79494363273558,30.93171757516233,"2022-04-24"
"浦东新区","上海市浦东新区年家浜路339弄",121.58328012745537,31.120638189977118,"2022-04-24"
"浦东新区","上海市浦东新区年家浜路425弄",121.57891103894649,31.12004169237844,"2022-04-24"
"浦东新区","上海市浦东新区年家浜路470号",121.57849862688686,31.12074329929375,"2022-04-24"
"浦东新区","上海市浦东新区年家浜路501弄",121.57534808980226,31.118909743146187,"2022-04-24"
"浦东新区","上海市浦东新区宁桥路825号",121.62686052096643,31.259191383125927,"2022-04-24"
"浦东新区","上海市浦东新区宁阳路14弄",121.52273343777735,31.217447767916333,"2022-04-24"
"浦东新区","上海市浦东新区鹏飞路333弄",121.53688426481492,31.18970225553777,"2022-04-24"
"浦东新区","上海市浦东新区鹏飞路426弄",121.56156916124581,31.177710999067397,"2022-04-24"
"浦东新区","上海市浦东新区浦城路366弄",121.51934781414079,31.23366854412388,"2022-04-24"
"浦东新区","上海市浦东新区浦城路377弄",121.52969618510942,31.207201251711854,"2022-04-24"
"浦东新区","上海市浦东新区浦城路580弄",121.52108055563897,31.230158967011022,"2022-04-24"
"浦东新区","上海市浦东新区浦电路108弄",121.52672191424165,31.22443470201538,"2022-04-24"
"浦东新区","上海市浦东新区浦电路149弄",121.52770699606388,31.22447785725831,"2022-04-24"
"浦东新区","上海市浦东新区浦电路218号",121.53050378043865,31.22540742716823,"2022-04-24"
"浦东新区","上海市浦东新区浦电路221号",121.53004456666196,31.22498830738765,"2022-04-24"
"浦东新区","上海市浦东新区浦电路29弄",121.52179830174146,31.22198277216662,"2022-04-24"
"浦东新区","上海市浦东新区浦电路305弄",121.53191394042821,31.225381642362095,"2022-04-24"
"浦东新区","上海市浦东新区浦电路330弄",121.53452881793721,31.22662717934152,"2022-04-24"
"浦东新区","上海市浦东新区浦电路331弄",121.53518233519571,31.225922581402024,"2022-04-24"
"浦东新区","上海市浦东新区浦电路48弄",121.52301829045456,31.224774384963634,"2022-04-24"
"浦东新区","上海市浦东新区浦东大道1139弄",121.54026872065431,31.249039301811695,"2022-04-24"
"浦东新区","上海市浦东新区浦东大道136弄",121.52017353656555,31.24402420953977,"2022-04-24"
"浦东新区","上海市浦东新区浦东大道140弄",121.52166903557857,31.244048831438676,"2022-04-24"
"浦东新区","上海市浦东新区浦东大道1460弄",121.543161354227,31.248489774989338,"2022-04-24"
"浦东新区","上海市浦东新区浦东大道1476号",121.54287165070004,31.24862453284888,"2022-04-24"
"浦东新区","上海市浦东新区浦东大道1585弄",121.54725475277486,31.250760642806057,"2022-04-24"
"浦东新区","上海市浦东新区浦东大道1615弄",121.54779571235296,31.25197620550338,"2022-04-24"
"浦东新区","上海市浦东新区浦东大道1623弄",121.54904390785909,31.25176759291442,"2022-04-24"
"浦东新区","上海市浦东新区浦东大道1695弄",121.5507839256319,31.253683600624225,"2022-04-24"
"浦东新区","上海市浦东新区浦东大道1700弄",121.55042379495296,31.25138193238156,"2022-04-24"
"浦东新区","上海市浦东新区浦东大道1851弄",121.5524974433922,31.253101686701353,"2022-04-24"
"浦东新区","上海市浦东新区浦东大道2511弄",121.56640626692538,31.265127505972,"2022-04-24"
"浦东新区","上海市浦东新区浦东大道2515号",121.56712643845273,31.265071251049392,"2022-04-24"
"浦东新区","上海市浦东新区浦东大道2639弄",121.57382941450709,31.27009640284229,"2022-04-24"
"浦东新区","上海市浦东新区浦东大道2641弄",121.57542031356526,31.2714724426133,"2022-04-24"
"浦东新区","上海市浦东新区浦东大道2742弄",121.57797931647153,31.272927088984172,"2022-04-24"
"浦东新区","上海市浦东新区浦东大道2746弄",121.57975652409247,31.27446558512791,"2022-04-24"
"浦东新区","上海市浦东新区浦东大道2778弄",121.5813748214687,31.275651133477883,"2022-04-24"
"浦东新区","上海市浦东新区浦东大道2894号",121.5828239679174,31.278944432984467,"2022-04-24"
"浦东新区","上海市浦东新区浦东大道290弄",121.52343779912772,31.24488774737473,"2022-04-24"
"浦东新区","上海市浦东新区浦东大道2970弄",121.58527436568751,31.2829352319847,"2022-04-24"
"浦东新区","上海市浦东新区浦东大道3036弄",121.58404099222233,31.28568683580724,"2022-04-24"
"浦东新区","上海市浦东新区浦东大道691弄",121.56868841207348,31.265697229843504,"2022-04-24"
"浦东新区","上海市浦东新区浦东南路1288号",121.52355987884653,31.230896186745355,"2022-04-24"
"浦东新区","上海市浦东新区浦东南路1341弄",121.52482891504046,31.230199108968073,"2022-04-24"
"浦东新区","上海市浦东新区浦东南路1349号",121.52421186898566,31.230899197369006,"2022-04-24"
"浦东新区","上海市浦东新区浦东南路1475弄",121.52575174429087,31.228549414736456,"2022-04-24"
"浦东新区","上海市浦东新区浦东南路1533号",121.5276446536615,31.227372301137734,"2022-04-24"
"浦东新区","上海市浦东新区浦东南路1700弄",121.5250607676926,31.22378497774176,"2022-04-24"
"浦东新区","上海市浦东新区浦东南路1862弄",121.5241351536951,31.221747612042826,"2022-04-24"
"浦东新区","上海市浦东新区浦东南路2141弄",121.52295558872996,31.214304635560897,"2022-04-24"
"浦东新区","上海市浦东新区浦东南路2192弄",121.5198796110027,31.212275556710914,"2022-04-24"
"浦东新区","上海市浦东新区浦东南路2351弄",121.51946171927945,31.20559866583432,"2022-04-24"
"浦东新区","上海市浦东新区浦东南路2362号",121.51810914067308,31.205290958198496,"2022-04-24"
"浦东新区","上海市浦东新区浦东南路2366号",121.51781314900754,31.204944486684365,"2022-04-24"
"浦东新区","上海市浦东新区浦东南路3405弄",121.51540326481592,31.20034881113828,"2022-04-24"
"浦东新区","上海市浦东新区浦东南路4815号",121.50511640909896,31.185492074907426,"2022-04-24"
"浦东新区","上海市浦东新区浦东南路575弄",121.51857302563842,31.242584396065254,"2022-04-24"
"浦东新区","上海市浦东新区浦东南路595弄",121.51977783298841,31.241151584442484,"2022-04-24"
"浦东新区","上海市浦东新区浦东南路978号",121.52113418447793,31.236312064831985,"2022-04-24"
"浦东新区","上海市浦东新区浦建路47号",121.52587867485943,31.21615601582928,"2022-04-24"
"浦东新区","上海市浦东新区浦建路725弄",121.53777295845595,31.215407793615004,"2022-04-24"
"浦东新区","上海市浦东新区浦建路83弄",121.5253901763231,31.215623976480853,"2022-04-24"
"浦东新区","上海市浦东新区浦明路258弄",121.51506190872213,31.232378328213766,"2022-04-24"
"浦东新区","上海市浦东新区浦明路99弄",121.51475468823773,31.235295994038083,"2022-04-24"
"浦东新区","上海市浦东新区浦三路12弄",121.51782779138736,31.202722003983574,"2022-04-24"
"浦东新区","上海市浦东新区浦三路2801弄",121.53688426481492,31.18970225553777,"2022-04-24"
"浦东新区","上海市浦东新区浦三路288弄",121.51958191255669,31.198441132237164,"2022-04-24"
"浦东新区","上海市浦东新区浦三路5127弄",121.53688426481492,31.18970225553777,"2022-04-24"
"浦东新区","上海市浦东新区浦三路603号",121.52291076328501,31.194727827029542,"2022-04-24"
"浦东新区","上海市浦东新区浦三路775弄",121.52672901085516,31.1896008532192,"2022-04-24"
"浦东新区","上海市浦东新区浦三路年家浜路交界口工地生活区",121.57872113716168,31.120414136710504,"2022-04-24"
"浦东新区","上海市浦东新区浦三路秀浦路交界口工地生活区",121.61602489041343,31.135717238318502,"2022-04-24"
"浦东新区","上海市浦东新区栖山路100弄",121.5504374491967,31.247552793436665,"2022-04-24"
"浦东新区","上海市浦东新区栖山路1088弄",121.56609437525233,31.26014005524514,"2022-04-24"
"浦东新区","上海市浦东新区栖山路1489弄",121.5710317318268,31.26382352513684,"2022-04-24"
"浦东新区","上海市浦东新区栖山路1555弄",121.57228558665764,31.26442296656864,"2022-04-24"
"浦东新区","上海市浦东新区栖山路1636弄",121.57377461787098,31.2647932169634,"2022-04-24"
"浦东新区","上海市浦东新区栖山路400弄",121.55757897800103,31.25201788165849,"2022-04-24"
"浦东新区","上海市浦东新区栖山路401弄",121.55603344337112,31.253987830572694,"2022-04-24"
"浦东新区","上海市浦东新区栖山路470弄",121.55795015783775,31.25380523098117,"2022-04-24"
"浦东新区","上海市浦东新区栖霞路190弄",121.52608115292138,31.244186142787363,"2022-04-24"
"浦东新区","上海市浦东新区栖霞路286号",121.52915632217368,31.24414971169032,"2022-04-24"
"浦东新区","上海市浦东新区齐河路10弄",121.508225444469,31.18342313671538,"2022-04-24"
"浦东新区","上海市浦东新区齐河路28弄",121.53688426481492,31.18970225553777,"2022-04-24"
"浦东新区","上海市浦东新区齐恒路118弄",121.52509598126858,31.193085925433333,"2022-04-24"
"浦东新区","上海市浦东新区齐恒路177弄",121.52869728805808,31.19187230063932,"2022-04-24"
"浦东新区","上海市浦东新区齐恒路95弄",121.52815893356596,31.19459237374658,"2022-04-24"
"浦东新区","上海市浦东新区千汇路1000弄",121.77126178423713,31.126797320222785,"2022-04-24"
"浦东新区","上海市浦东新区千汇路1280弄",121.76684274994189,31.114088797527916,"2022-04-24"
"浦东新区","上海市浦东新区千汇路198弄",121.77467103330859,31.111882866766123,"2022-04-24"
"浦东新区","上海市浦东新区千汇路581弄",121.77147603010125,31.117495908121153,"2022-04-24"
"浦东新区","上海市浦东新区千汇路750弄",121.77091009762997,31.122895232134738,"2022-04-24"
"浦东新区","上海市浦东新区钱仓路313弄",121.52782548256064,31.245216318802356,"2022-04-24"
"浦东新区","上海市浦东新区青桐路358弄",121.60213861434853,31.244250205910852,"2022-04-24"
"浦东新区","上海市浦东新区青艺路181弄",121.68634199997072,31.202505250798463,"2022-04-24"
"浦东新区","上海市浦东新区清溪路400弄",121.57747563657209,31.347650837499692,"2022-04-24"
"浦东新区","上海市浦东新区人民东路580号",121.78580103857722,31.05553085212552,"2022-04-24"
"浦东新区","上海市浦东新区乳山路130弄",121.52982205638712,31.240771900734742,"2022-04-24"
"浦东新区","上海市浦东新区乳山路161弄",121.52801807926198,31.24159718403063,"2022-04-24"
"浦东新区","上海市浦东新区瑞安路80弄",121.59296026763089,31.09521536386751,"2022-04-24"
"浦东新区","上海市浦东新区瑞福路52弄",121.60760264744353,31.101758418286778,"2022-04-24"
"浦东新区","上海市浦东新区瑞和路101弄",121.58485970786411,31.120077939878794,"2022-04-24"
"浦东新区","上海市浦东新区瑞浦路611弄",121.59207364009254,31.097330078746456,"2022-04-24"
"浦东新区","上海市浦东新区瑞浦路77弄",121.59264092002209,31.103960025909874,"2022-04-24"
"浦东新区","上海市浦东新区瑞浦路8弄",121.55045460683195,31.227348292436346,"2022-04-24"
"浦东新区","上海市浦东新区瑞意路399弄",121.59268628445034,31.102791860761887,"2022-04-24"
"浦东新区","上海市浦东新区三彩路166弄",121.52553031198265,31.139159418419815,"2022-04-24"
"浦东新区","上海市浦东新区三彩路52弄",121.52553031198265,31.139159418419815,"2022-04-24"
"浦东新区","上海市浦东新区三彩路59弄",121.50635553171944,31.132930313734967,"2022-04-24"
"浦东新区","上海市浦东新区三林路1466弄",121.52779952153142,31.151570340712677,"2022-04-24"
"浦东新区","上海市浦东新区三林路1662弄",121.53161588266,31.152710549465624,"2022-04-24"
"浦东新区","上海市浦东新区三林路184号",121.5025309960107,31.14241486936929,"2022-04-24"
"浦东新区","上海市浦东新区三林路235号",121.50273652831137,31.143691257217654,"2022-04-24"
"浦东新区","上海市浦东新区三林路429弄",121.50556484320954,31.14651819478519,"2022-04-24"
"浦东新区","上海市浦东新区三林路519弄",121.50863983280074,31.146373786366166,"2022-04-24"
"浦东新区","上海市浦东新区三林路675弄",121.5116861664462,31.147046995039812,"2022-04-24"
"浦东新区","上海市浦东新区三林路706弄",121.51225802773382,31.146583870022656,"2022-04-24"
"浦东新区","上海市浦东新区三林路88弄",121.53688426481492,31.18970225553777,"2022-04-24"
"浦东新区","上海市浦东新区三林镇东明村池河队养鸭滩",121.52665669726161,31.17003595372565,"2022-04-24"
"浦东新区","上海市浦东新区三林镇红旗村姜胡宅队江湖宅",121.50020627118141,31.126931789483034,"2022-04-24"
"浦东新区","上海市浦东新区三林镇胡巷村陈家宅",121.52500489308987,31.158715770519464,"2022-04-24"
"浦东新区","上海市浦东新区三林镇胡巷村东朱家宅",121.52256446651091,31.166204800272343,"2022-04-24"
"浦东新区","上海市浦东新区三林镇胡巷村金家宅",121.52500489308987,31.158715770519464,"2022-04-24"
"浦东新区","上海市浦东新区三林镇胡巷村张家宅",121.52958652068241,31.167835971840162,"2022-04-24"
"浦东新区","上海市浦东新区三林镇金光村陆家湾队陆家宅",121.5260931902152,31.13616743498578,"2022-04-24"
"浦东新区","上海市浦东新区三林镇联丰村八字队东八字桥",121.51796271687495,31.15798593996939,"2022-04-24"
"浦东新区","上海市浦东新区三林镇联丰村顾家队顾家宅",121.5202445925314,31.157059254807656,"2022-04-24"
"浦东新区","上海市浦东新区三林镇临江村丁家队丁家宅",121.4843862128452,31.127340605764598,"2022-04-24"
"浦东新区","上海市浦东新区三林镇临江村临江队王家渡",121.48103454515693,31.130823354677393,"2022-04-24"
"浦东新区","上海市浦东新区三林镇临江村庞家队庞家宅",121.482806722267,31.124007039641032,"2022-04-24"
"浦东新区","上海市浦东新区三林镇临江村唐家宅",121.48517950644107,31.129345634527656,"2022-04-24"
"浦东新区","上海市浦东新区三林镇临江村王家宅队王家宅",121.48402985504939,31.126877924520862,"2022-04-24"
"浦东新区","上海市浦东新区三林镇临江村西新队石河圈",121.48517950644107,31.129345634527656,"2022-04-24"
"浦东新区","上海市浦东新区三林镇临江村益民队罗汉松",121.48732861254314,31.132083362831438,"2022-04-24"
"浦东新区","上海市浦东新区三林镇临江村筠西队庞家宅",121.482806722267,31.124007039641032,"2022-04-24"
"浦东新区","上海市浦东新区三林镇临江村张塘队塘湾宅",121.49501181956997,31.131568697329346,"2022-04-24"
"浦东新区","上海市浦东新区三林镇临江村张塘队张家宅",121.48517950644107,31.129345634527656,"2022-04-24"
"浦东新区","上海市浦东新区三林镇临江村周北队周家宅",121.47873641017075,31.124012372204763,"2022-04-24"
"浦东新区","上海市浦东新区三林镇南阜村曹家队蚌壳滩",121.52616765974199,31.136051601892248,"2022-04-24"
"浦东新区","上海市浦东新区三林镇南阜村东汤队东汤家宅",121.52616765974199,31.136051601892248,"2022-04-24"
"浦东新区","上海市浦东新区三林镇南阜村东汤队周家宅",121.52800855722359,31.12259567713266,"2022-04-24"
"浦东新区","上海市浦东新区三林镇南阜村高树队北孙家宅",121.52678497528844,31.139491065259833,"2022-04-24"
"浦东新区","上海市浦东新区三林镇南阜村高树队西汤家宅",121.52688154313076,31.136351345808084,"2022-04-24"
"浦东新区","上海市浦东新区三林镇南阜村九思队九思堂",121.52253769700673,31.134130250808454,"2022-04-24"
"浦东新区","上海市浦东新区三林镇南阜村瞿弄队瞿家里",121.52616765974199,31.136051601892248,"2022-04-24"
"浦东新区","上海市浦东新区三林镇三林村镇前队金家宅",121.59324952200511,31.131094754366096,"2022-04-24"
"浦东新区","上海市浦东新区三林镇天花庵村北陈队大陈家宅",121.53193954213525,31.128535900177152,"2022-04-24"
"浦东新区","上海市浦东新区三林镇天花庵村东瞿队大瞿家宅",121.53261120516505,31.1270776188598,"2022-04-24"
"浦东新区","上海市浦东新区三林镇天花庵村闵西队闵家宅",121.53989017471241,31.12623849791897,"2022-04-24"
"浦东新区","上海市浦东新区三林镇天花庵村南陈队大陈家宅",121.53193954213525,31.128535900177152,"2022-04-24"
"浦东新区","上海市浦东新区三林镇天花庵村南王家队南王家宅",121.55380142367048,31.162845112362536,"2022-04-24"
"浦东新区","上海市浦东新区三林镇天花庵村南周家队大周家宅",121.53193954213525,31.128535900177152,"2022-04-24"
"浦东新区","上海市浦东新区三林镇天花庵村西瞿队大瞿家宅",121.53261120516505,31.1270776188598,"2022-04-24"
"浦东新区","上海市浦东新区三林镇同济村果园队果园",121.54954767758909,31.143400577038527,"2022-04-24"
"浦东新区","上海市浦东新区三林镇西林村洪家队洪家新宅",121.5046341987012,31.13952467804987,"2022-04-24"
"浦东新区","上海市浦东新区三林镇西林村圈门队西林街",121.50505047347453,31.142465402882358,"2022-04-24"
"浦东新区","上海市浦东新区三林镇西林村圈门队叶家宅",121.50505047347453,31.142465402882358,"2022-04-24"
"浦东新区","上海市浦东新区三林镇西林村万家队奚家宅",121.50505047347453,31.142465402882358,"2022-04-24"
"浦东新区","上海市浦东新区三林镇西林村西林队奚家宅",121.50529642952316,31.142377935071885,"2022-04-24"
"浦东新区","上海市浦东新区三林镇新春村陈桥队陈家桥",121.48244489558725,31.134022953659134,"2022-04-24"
"浦东新区","上海市浦东新区三林镇新任村",121.50281306394082,31.161867720395563,"2022-04-24"
"浦东新区","上海市浦东新区三林镇懿德村钱家队钱家宅",121.52337096519778,31.128135358072374,"2022-04-24"
"浦东新区","上海市浦东新区三林镇懿德村小陈家队小陈家宅",121.52472668787344,31.1243504097577,"2022-04-24"
"浦东新区","上海市浦东新区三林镇中林村三林桥队天打桥",121.50504616160806,31.14249746924122,"2022-04-24"
"浦东新区","上海市浦东新区三三公路5020弄",121.8799029424444,30.98125570677017,"2022-04-24"
"浦东新区","上海市浦东新区三舒路181弄",121.52553031198265,31.139159418419815,"2022-04-24"
"浦东新区","上海市浦东新区三舒路192弄",121.51063065747196,31.127855294432397,"2022-04-24"
"浦东新区","上海市浦东新区三舒路288弄",121.52553031198265,31.139159418419815,"2022-04-24"
"浦东新区","上海市浦东新区三舒路33弄",121.51124950013778,31.131499302275618,"2022-04-24"
"浦东新区","上海市浦东新区三舒路62弄",121.50989269949552,31.130409298630166,"2022-04-24"
"浦东新区","上海市浦东新区三旋路506弄",121.52553031198265,31.139159418419815,"2022-04-24"
"浦东新区","上海市浦东新区商城路1028弄",121.53281691712684,31.237543716492585,"2022-04-24"
"浦东新区","上海市浦东新区商城路1177弄",121.53330308006883,31.240919559981307,"2022-04-24"
"浦东新区","上海市浦东新区商城路1178弄",121.53443485518086,31.240368827626646,"2022-04-24"
"浦东新区","上海市浦东新区上川路361号",121.64590872998332,31.279645853819698,"2022-04-24"
"浦东新区","上海市浦东新区上川路538号",121.65282469427407,31.27863766097976,"2022-04-24"
"浦东新区","上海市浦东新区上川路620号",121.6544609577605,31.279709584018402,"2022-04-24"
"浦东新区","上海市浦东新区上南路1000弄",121.50066746123024,31.180593835385782,"2022-04-24"
"浦东新区","上海市浦东新区上南路1251弄",121.50260627401242,31.178521236106434,"2022-04-24"
"浦东新区","上海市浦东新区上南路1500弄",121.50233130269582,31.17495691317739,"2022-04-24"
"浦东新区","上海市浦东新区上南路3058弄",121.50351589817183,31.166831594975967,"2022-04-24"
"浦东新区","上海市浦东新区上南路3500弄",121.52553031198265,31.139159418419815,"2022-04-24"
"浦东新区","上海市浦东新区上南路3520弄",121.50697751845452,31.159691418476573,"2022-04-24"
"浦东新区","上海市浦东新区上南路3651弄",121.51345942152287,31.160585322193327,"2022-04-24"
"浦东新区","上海市浦东新区上南路3848弄",121.51183600380526,31.156075235710073,"2022-04-24"
"浦东新区","上海市浦东新区上南路3880弄",121.5122859650352,31.155066947292617,"2022-04-24"
"浦东新区","上海市浦东新区上南路3899弄",121.5152621410203,31.15811542021869,"2022-04-24"
"浦东新区","上海市浦东新区上南路6611弄",121.58485970786411,31.120077939878794,"2022-04-24"
"浦东新区","上海市浦东新区上南路929弄",121.50767882556616,31.18609371739358,"2022-04-24"
"浦东新区","上海市浦东新区上浦路510弄",121.50622294182614,31.152101739360106,"2022-04-24"
"浦东新区","上海市浦东新区尚博路569弄",121.52670026507884,31.155033185551396,"2022-04-24"
"浦东新区","上海市浦东新区申江路5809号生活区",121.63199730136414,31.207073872465642,"2022-04-24"
"浦东新区","上海市浦东新区申江路985弄",121.63373516320374,31.292824425912787,"2022-04-24"
"浦东新区","上海市浦东新区申江南路5550号",121.6517467276621,31.071525376293682,"2022-04-24"
"浦东新区","上海市浦东新区沈家弄路870弄",121.55196411941093,31.244782699982256,"2022-04-24"
"浦东新区","上海市浦东新区沈家弄路877弄",121.55290653172145,31.244431203293697,"2022-04-24"
"浦东新区","上海市浦东新区沈家弄路900弄",121.55137033946883,31.24494602122636,"2022-04-24"
"浦东新区","上海市浦东新区沈家弄路901弄",121.55289826731075,31.244971955008257,"2022-04-24"
"浦东新区","上海市浦东新区胜利路169弄",121.69449403264322,31.251585837948543,"2022-04-24"
"浦东新区","上海市浦东新区胜利路30弄",121.69295460649079,31.248213080837292,"2022-04-24"
"浦东新区","上海市浦东新区胜利路836弄",121.7085576342158,31.25218813627691,"2022-04-24"
"浦东新区","上海市浦东新区盛夏路1107弄",121.6408936699822,31.203976413616545,"2022-04-24"
"浦东新区","上海市浦东新区盛夏路738弄",121.6356094776503,31.208769732958224,"2022-04-24"
"浦东新区","上海市浦东新区施湾二路766弄",121.75309490275609,31.152146859432357,"2022-04-24"
"浦东新区","上海市浦东新区施镇路385弄",121.76379129595504,31.15034837509582,"2022-04-24"
"浦东新区","上海市浦东新区石家街77号",121.58733022767765,31.35050569226792,"2022-04-24"
"浦东新区","上海市浦东新区世博家园大道站路94弄",121.5456103147083,31.165459346349106,"2022-04-24"
"浦东新区","上海市浦东新区世纪大道杨高南路交界口工地生活区",121.54183716207474,31.22390950343021,"2022-04-24"
"浦东新区","上海市浦东新区寿光路161弄",121.59052532071554,31.280396185422553,"2022-04-24"
"浦东新区","上海市浦东新区寿光路31弄",121.58946046936401,31.278797451050615,"2022-04-24"
"浦东新区","上海市浦东新区寿光路75弄",121.58957799109862,31.279647069122593,"2022-04-24"
"浦东新区","上海市浦东新区寿光路78弄",121.59210202654666,31.279390855434528,"2022-04-24"
"浦东新区","上海市浦东新区书院镇塘北村石南",121.88524013480139,30.922052257089298,"2022-04-24"
"浦东新区","上海市浦东新区书院镇洼港村",121.88360737470646,30.991383898603306,"2022-04-24"
"浦东新区","上海市浦东新区双桥路1108弄",121.58962611690005,31.28158489894264,"2022-04-24"
"浦东新区","上海市浦东新区双桥路1139弄",121.62182515926081,31.290973406255514,"2022-04-24"
"浦东新区","上海市浦东新区水洞港路69弄",121.67247000696344,31.301676859126427,"2022-04-24"
"浦东新区","上海市浦东新区硕川路125弄",121.69351928133435,31.206800376084324,"2022-04-24"
"浦东新区","上海市浦东新区思浦路15弄",121.49998277277055,31.164508710192244,"2022-04-24"
"浦东新区","上海市浦东新区思浦路17弄",121.49938162672326,31.16382581592963,"2022-04-24"
"浦东新区","上海市浦东新区松林路333弄",121.54064564964631,31.23286465076705,"2022-04-24"
"浦东新区","上海市浦东新区孙环路177弄",121.64480626750937,31.19025041789597,"2022-04-24"
"浦东新区","上海市浦东新区孙环路600弄",121.64673651851075,31.183040283917688,"2022-04-24"
"浦东新区","上海市浦东新区孙桥路238弄",121.63643915261933,31.187480878631966,"2022-04-24"
"浦东新区","上海市浦东新区孙桥路788号工地生活区",121.63755511755437,31.176727814519445,"2022-04-24"
"浦东新区","上海市浦东新区台儿庄路363弄",121.60033796095378,31.264978881782035,"2022-04-24"
"浦东新区","上海市浦东新区唐陆路568弄",121.63464433821039,31.25703864190391,"2022-04-24"
"浦东新区","上海市浦东新区唐镇大众村立新新村",121.64686380840152,31.23032447527692,"2022-04-24"
"浦东新区","上海市浦东新区唐镇大众村王家宅",121.60951972123236,31.206682082088673,"2022-04-24"
"浦东新区","上海市浦东新区唐镇大众村小包新村",121.64158985675243,31.231177255064335,"2022-04-24"
"浦东新区","上海市浦东新区唐镇大众村中心新村",121.65463612733495,31.23453194599384,"2022-04-24"
"浦东新区","上海市浦东新区唐镇虹二村",121.66187548160931,31.24661858106477,"2022-04-24"
"浦东新区","上海市浦东新区唐镇虹三村顾家宅",121.67957668151398,31.259966342393376,"2022-04-24"
"浦东新区","上海市浦东新区唐镇虹三村沈家宅",121.67957668151398,31.259966342393376,"2022-04-24"
"浦东新区","上海市浦东新区唐镇虹三村唐家宅",121.67957668151398,31.259966342393376,"2022-04-24"
"浦东新区","上海市浦东新区唐镇虹四村卫家宅",121.66270452776448,31.24662382947495,"2022-04-24"
"浦东新区","上海市浦东新区唐镇虹四村吴张家宅",121.65836822740671,31.246790543527457,"2022-04-24"
"浦东新区","上海市浦东新区唐镇虹一村奚家宅",121.6784437386048,31.23792225545962,"2022-04-24"
"浦东新区","上海市浦东新区唐镇路366弄",121.66105398122043,31.215445625652567,"2022-04-24"
"浦东新区","上海市浦东新区唐镇吕三村三林新村",121.64844419728523,31.222081282929306,"2022-04-24"
"浦东新区","上海市浦东新区唐镇民丰村江北宅",121.64861595329873,31.214212833818383,"2022-04-24"
"浦东新区","上海市浦东新区唐镇前进村东窑新村",121.64855217360753,31.2141666626809,"2022-04-24"
"浦东新区","上海市浦东新区唐镇前进村顾家宅",121.64855217360753,31.2141666626809,"2022-04-24"
"浦东新区","上海市浦东新区唐镇前进村南李家宅",121.60357644214781,31.240662526223556,"2022-04-24"
"浦东新区","上海市浦东新区唐镇前进村沈家宅",121.64855217360753,31.2141666626809,"2022-04-24"
"浦东新区","上海市浦东新区唐镇前进村唐家新村",121.64685378924084,31.206056995294254,"2022-04-24"
"浦东新区","上海市浦东新区唐镇唐四村丁费南宅",121.66768949453099,31.221019816280922,"2022-04-24"
"浦东新区","上海市浦东新区唐镇唐镇村赵家宅",121.65724525568868,31.20515884050688,"2022-04-24"
"浦东新区","上海市浦东新区唐镇小湾村北街",121.69783994129489,31.23973798369629,"2022-04-24"
"浦东新区","上海市浦东新区唐镇小湾村东张家宅",121.69194760601408,31.236233793114234,"2022-04-24"
"浦东新区","上海市浦东新区唐镇小湾村唐家宅",121.69607693678236,31.23979022711445,"2022-04-24"
"浦东新区","上海市浦东新区唐镇小湾村奚家宅",121.71033261330244,31.235344555116807,"2022-04-24"
"浦东新区","上海市浦东新区唐镇小湾村新村宅",121.69666496756919,31.239619872733037,"2022-04-24"
"浦东新区","上海市浦东新区唐镇小湾村张家宅",121.69194760601408,31.236233793114234,"2022-04-24"
"浦东新区","上海市浦东新区唐镇新虹村东包家宅",121.65488720372498,31.245149014624616,"2022-04-24"
"浦东新区","上海市浦东新区唐镇新虹村刘家宅",121.65503362752312,31.248713367963926,"2022-04-24"
"浦东新区","上海市浦东新区唐镇新虹村缪家宅",121.65503362752312,31.248713367963926,"2022-04-24"
"浦东新区","上海市浦东新区唐镇一心村顾家宅",121.68884881132688,31.250038784030753,"2022-04-24"
"浦东新区","上海市浦东新区唐镇一心村宋家宅",121.68884881132688,31.250038784030753,"2022-04-24"
"浦东新区","上海市浦东新区唐镇一心村袁家宅",121.68884881132688,31.250038784030753,"2022-04-24"
"浦东新区","上海市浦东新区唐镇一心村朱家宅",121.68884881132688,31.250038784030753,"2022-04-24"
"浦东新区","上海市浦东新区塘南路159弄",121.51640083308476,31.208002070914677,"2022-04-24"
"浦东新区","上海市浦东新区塘桥路551号",121.52765300790274,31.21690585341106,"2022-04-24"
"浦东新区","上海市浦东新区桃林路299弄",121.54378900028682,31.245226892963494,"2022-04-24"
"浦东新区","上海市浦东新区桃林路815弄",121.54647421511724,31.2393110419102,"2022-04-24"
"浦东新区","上海市浦东新区听悦路1205弄",121.74482150900918,31.0698826341759,"2022-04-24"
"浦东新区","上海市浦东新区庭安路191号",121.58794071610224,31.3308377312796,"2022-04-24"
"浦东新区","上海市浦东新区通济路136弄",121.75258538387082,31.05249869632436,"2022-04-24"
"浦东新区","上海市浦东新区万德路51弄",121.5649541560685,31.25640195503883,"2022-04-24"
"浦东新区","上海市浦东新区万德路67弄",121.56710955030915,31.254592197175523,"2022-04-24"
"浦东新区","上海市浦东新区万祥镇万宏村万六",121.82519047756205,30.97449923435299,"2022-04-24"
"浦东新区","上海市浦东新区万祥镇万兴村万二",121.81829310819533,30.963909311668377,"2022-04-24"
"浦东新区","上海市浦东新区王家街22号",121.58686149186254,31.35430640133463,"2022-04-24"
"浦东新区","上海市浦东新区王桥街41弄",121.70667209095035,31.208840615134932,"2022-04-24"
"浦东新区","上海市浦东新区潍坊路126弄",121.53066547543045,31.229645611618768,"2022-04-24"
"浦东新区","上海市浦东新区潍坊路140弄",121.53155093517164,31.231112411033813,"2022-04-24"
"浦东新区","上海市浦东新区潍坊路154弄",121.53230434400284,31.231346466894244,"2022-04-24"
"浦东新区","上海市浦东新区潍坊路268号",121.54011960193965,31.234022474240376,"2022-04-24"
"浦东新区","上海市浦东新区潍坊路270弄",121.54024796979704,31.233813898791766,"2022-04-24"
"浦东新区","上海市浦东新区潍坊路333弄",121.52609220207916,31.229300465379932,"2022-04-24"
"浦东新区","上海市浦东新区潍坊路335弄",121.53827061970847,31.233788347881376,"2022-04-24"
"浦东新区","上海市浦东新区潍坊路355弄",121.53821797900558,31.23514539261892,"2022-04-24"
"浦东新区","上海市浦东新区潍坊路375弄",121.54147209071549,31.234748161879693,"2022-04-24"
"浦东新区","上海市浦东新区潍坊路606号",121.52801879790638,31.229204895697556,"2022-04-24"
"浦东新区","上海市浦东新区潍坊路716号",121.52839779300106,31.229747279368976,"2022-04-24"
"浦东新区","上海市浦东新区潍坊路89弄",121.52638702594753,31.229708372361436,"2022-04-24"
"浦东新区","上海市浦东新区潍坊西路1弄",121.55045460683195,31.227348292436346,"2022-04-24"
"浦东新区","上海市浦东新区潍坊西路2弄",121.55045460683195,31.227348292436346,"2022-04-24"
"浦东新区","上海市浦东新区五莲路100弄",121.58579735915542,31.281678100479343,"2022-04-24"
"浦东新区","上海市浦东新区五莲路1047弄",121.60139041568928,31.277745809783077,"2022-04-24"
"浦东新区","上海市浦东新区五莲路108弄",121.58877362497108,31.277157873113886,"2022-04-24"
"浦东新区","上海市浦东新区五莲路1168号",121.60292939268898,31.278456344054472,"2022-04-24"
"浦东新区","上海市浦东新区五莲路1728弄",121.6057738770863,31.287944455956875,"2022-04-24"
"浦东新区","上海市浦东新区五莲路1769弄",121.60380012021979,31.290088693222955,"2022-04-24"
"浦东新区","上海市浦东新区五莲路201弄",121.58708615807058,31.282666663701544,"2022-04-24"
"浦东新区","上海市浦东新区五莲路30弄",121.58450074498232,31.281555271944608,"2022-04-24"
"浦东新区","上海市浦东新区五莲路400弄",121.5879970398577,31.278002278635245,"2022-04-24"
"浦东新区","上海市浦东新区五莲路719弄",121.59594282158513,31.27584279507177,"2022-04-24"
"浦东新区","上海市浦东新区五莲路759弄",121.59770287157082,31.276387222961237,"2022-04-24"
"浦东新区","上海市浦东新区五莲路780弄",121.59713693909953,31.274305479007058,"2022-04-24"
"浦东新区","上海市浦东新区五莲路959弄",121.59865768049737,31.27732391544589,"2022-04-24"
"浦东新区","上海市浦东新区五星路151弄",121.53688426481492,31.18970225553777,"2022-04-24"
"浦东新区","上海市浦东新区五星路231弄",121.53688426481492,31.18970225553777,"2022-04-24"
"浦东新区","上海市浦东新区五星路239弄",121.56995448385925,31.181781423237346,"2022-04-24"
"浦东新区","上海市浦东新区五星路410弄",121.53688426481492,31.18970225553777,"2022-04-24"
"浦东新区","上海市浦东新区西门路113弄",121.75391424721174,31.05023957820921,"2022-04-24"
"浦东新区","上海市浦东新区西门路7号",121.75032318110505,31.052988349108322,"2022-04-24"
"浦东新区","上海市浦东新区西三里桥路8弄",121.51322038242668,31.204939467586826,"2022-04-24"
"浦东新区","上海市浦东新区西泰林路158弄",121.53929747273692,31.1598032824448,"2022-04-24"
"浦东新区","上海市浦东新区西泰林路850弄",121.5468220390107,31.14873915128947,"2022-04-24"
"浦东新区","上海市浦东新区西泰林路901弄",121.54507097208011,31.149459936767588,"2022-04-24"
"浦东新区","上海市浦东新区西营路106号",121.49049307336314,31.1743117119087,"2022-04-24"
"浦东新区","上海市浦东新区西营路33弄",121.49042273604171,31.176566691455395,"2022-04-24"
"浦东新区","上海市浦东新区西营路62号",121.4901033884329,31.175729248712187,"2022-04-24"
"浦东新区","上海市浦东新区西营南路11弄",121.49253501161785,31.167063880290602,"2022-04-24"
"浦东新区","上海市浦东新区西营南路67弄",121.49289109992202,31.165031538095764,"2022-04-24"
"浦东新区","上海市浦东新区西营南路68弄",121.52553031198265,31.139159418419815,"2022-04-24"
"浦东新区","上海市浦东新区西营南路6弄",121.49584302165835,31.158902881872834,"2022-04-24"
"浦东新区","上海市浦东新区溪兰路169弄",121.58440211103732,31.33967075014661,"2022-04-24"
"浦东新区","上海市浦东新区霞玉路436弄",121.69608699780407,31.26229102730043,"2022-04-24"
"浦东新区","上海市浦东新区下南路115弄",121.55020362027247,31.172402344328333,"2022-04-24"
"浦东新区","上海市浦东新区下南路161弄",121.54990421504598,31.172731479156155,"2022-04-24"
"浦东新区","上海市浦东新区下南路225弄",121.55278588929146,31.17539958371751,"2022-04-24"
"浦东新区","上海市浦东新区下南路309弄",121.52969618510942,31.207201251711854,"2022-04-24"
"浦东新区","上海市浦东新区下南路320弄",121.547891741212,31.175548813657176,"2022-04-24"
"浦东新区","上海市浦东新区下南路339弄",121.55064127471694,31.17679107417024,"2022-04-24"
"浦东新区","上海市浦东新区下南路474号",121.5464937083468,31.177988210602106,"2022-04-24"
"浦东新区","上海市浦东新区下南路500弄",121.5437208188986,31.177967587760506,"2022-04-24"
"浦东新区","上海市浦东新区下南路501弄",121.53688426481492,31.18970225553777,"2022-04-24"
"浦东新区","上海市浦东新区下南路526弄",121.54440200396682,31.17804189176027,"2022-04-24"
"浦东新区","上海市浦东新区下南路551弄",121.54679904238965,31.179016875274282,"2022-04-24"
"浦东新区","上海市浦东新区下沙街北桥弄",121.59924573913167,31.05543200159553,"2022-04-24"
"浦东新区","上海市浦东新区夏碧路380弄",121.59318699994161,31.34344584073284,"2022-04-24"
"浦东新区","上海市浦东新区香楠路276弄",121.62004013638193,31.221060888601457,"2022-04-24"
"浦东新区","上海市浦东新区新场镇果园村",121.64244189952865,31.025361102765,"2022-04-24"
"浦东新区","上海市浦东新区新场镇金建村长桥",121.68072920119515,31.04408340872747,"2022-04-24"
"浦东新区","上海市浦东新区新场镇仁义村范桥",121.64729337809639,31.064314697494762,"2022-04-24"
"浦东新区","上海市浦东新区新场镇坦南村",121.65884962932951,31.072493887859476,"2022-04-24"
"浦东新区","上海市浦东新区新场镇坦西村坦北",121.65121555961406,31.0897996061926,"2022-04-24"
"浦东新区","上海市浦东新区新场镇王桥村杨辉",121.66913208334947,31.0246782033191,"2022-04-24"
"浦东新区","上海市浦东新区新场镇新卫村",121.64761515113007,31.044082628274037,"2022-04-24"
"浦东新区","上海市浦东新区新场镇祝桥村",121.68087122958441,31.07432873566681,"2022-04-24"
"浦东新区","上海市浦东新区新川路856弄",121.69606148592759,31.19648383678553,"2022-04-24"
"浦东新区","上海市浦东新区新德西路207弄",121.68014000889929,31.197583884180386,"2022-04-24"
"浦东新区","上海市浦东新区新德西路508弄",121.67638760712302,31.198096102613977,"2022-04-24"
"浦东新区","上海市浦东新区新环西路35弄",121.64674622021026,31.021309743198053,"2022-04-24"
"浦东新区","上海市浦东新区新环西路800弄",121.64619654706871,31.03085483228168,"2022-04-24"
"浦东新区","上海市浦东新区新金桥路1568号",121.62539807959618,31.262790081548378,"2022-04-24"
"浦东新区","上海市浦东新区新龙路203弄",121.63662186796006,31.32035094299062,"2022-04-24"
"浦东新区","上海市浦东新区新龙路489弄",121.65277879086253,31.290487771739045,"2022-04-24"
"浦东新区","上海市浦东新区新浦路199弄",121.54524578233234,31.1712264561122,"2022-04-24"
"浦东新区","上海市浦东新区新浦路251弄",121.54134201607764,31.17422589586613,"2022-04-24"
"浦东新区","上海市浦东新区新浦路346弄",121.54187632819497,31.17754663363552,"2022-04-24"
"浦东新区","上海市浦东新区新浦路543弄",121.536926664835,31.1758010055361,"2022-04-24"
"浦东新区","上海市浦东新区新浦路587弄",121.532965137536,31.19272295943645,"2022-04-24"
"浦东新区","上海市浦东新区新浦路629弄",121.54201269097139,31.17757706597876,"2022-04-24"
"浦东新区","上海市浦东新区新浦路673弄",121.53688426481492,31.18970225553777,"2022-04-24"
"浦东新区","上海市浦东新区新浦路91弄",121.54575575037036,31.170038039358143,"2022-04-24"
"浦东新区","上海市浦东新区新元南路172号工地生活区",121.82762102278039,30.865812820734206,"2022-04-24"
"浦东新区","上海市浦东新区新元南路正茂路交界口工地生活区",121.82788341781985,30.883671131631182,"2022-04-24"
"浦东新区","上海市浦东新区新园路251弄",121.65277879086253,31.290487771739045,"2022-04-24"
"浦东新区","上海市浦东新区新园路436弄",121.65277879086253,31.290487771739045,"2022-04-24"
"浦东新区","上海市浦东新区秀康路958弄",121.58485970786411,31.120077939878794,"2022-04-24"
"浦东新区","上海市浦东新区秀浦路800弄",121.58485970786411,31.120077939878794,"2022-04-24"
"浦东新区","上海市浦东新区秀沿路1168弄",121.58485970786411,31.120077939878794,"2022-04-24"
"浦东新区","上海市浦东新区秀沿路2501弄",121.60721008793567,31.144675483422116,"2022-04-24"
"浦东新区","上海市浦东新区秀沿路2585弄",121.58485970786411,31.120077939878794,"2022-04-24"
"浦东新区","上海市浦东新区秀沿路2875弄",121.61606648195854,31.14493023082232,"2022-04-24"
"浦东新区","上海市浦东新区秀沿路3668号",121.62337150236567,31.143296806623685,"2022-04-24"
"浦东新区","上海市浦东新区秀沿路苗桥路交界口工地生活区",121.63643960177208,31.131122574335443,"2022-04-24"
"浦东新区","上海市浦东新区秀沿西路258弄",121.5383462570324,31.135478848031838,"2022-04-24"
"浦东新区","上海市浦东新区秀沿西路68弄",121.5437560324746,31.137587866279553,"2022-04-24"
"浦东新区","上海市浦东新区宣桥镇光明村",121.72842581650218,31.077006827055797,"2022-04-24"
"浦东新区","上海市浦东新区宣桥镇季桥村",121.6979996698959,31.064372155593095,"2022-04-24"
"浦东新区","上海市浦东新区宣桥镇三灶村",121.71252634795889,31.075053958120254,"2022-04-24"
"浦东新区","上海市浦东新区宣桥镇宣桥村",121.70611370424534,31.024736304506646,"2022-04-24"
"浦东新区","上海市浦东新区宣桥镇腰路村丰乐",121.69316382184405,31.079587573682847,"2022-04-24"
"浦东新区","上海市浦东新区宣桥镇张家桥村胡桥",121.69352741279583,31.05082231080263,"2022-04-24"
"浦东新区","上海市浦东新区宣镇东路788弄",121.7075508134002,31.029191576455432,"2022-04-24"
"浦东新区","上海市浦东新区学前二村",121.59049253256443,31.352587432129926,"2022-04-24"
"浦东新区","上海市浦东新区雪野二路296号工地生活区",121.48186305578379,31.183182003977617,"2022-04-24"
"浦东新区","上海市浦东新区严民路40弄",121.53536082850054,31.198209156327895,"2022-04-24"
"浦东新区","上海市浦东新区严木桥路198弄",121.81422459271009,30.96331081503018,"2022-04-24"
"浦东新区","上海市浦东新区严桥路108弄",121.53382301929801,31.195882878797548,"2022-04-24"
"浦东新区","上海市浦东新区严桥路150弄",121.53448201622014,31.195514826808072,"2022-04-24"
"浦东新区","上海市浦东新区严桥路58弄",121.53246496102804,31.19679983627834,"2022-04-24"
"浦东新区","上海市浦东新区严杨路166弄",121.53619499499712,31.20036688077375,"2022-04-24"
"浦东新区","上海市浦东新区严杨路30弄",121.53251293054227,31.198276108155607,"2022-04-24"
"浦东新区","上海市浦东新区严杨路60弄",121.53619499499712,31.20036688077375,"2022-04-24"
"浦东新区","上海市浦东新区严镇路75弄",121.53464398070359,31.197513842937667,"2022-04-24"
"浦东新区","上海市浦东新区严中路269弄",121.53941200668945,31.19614320172997,"2022-04-24"
"浦东新区","上海市浦东新区严中路373弄",121.53998216119663,31.194854708119824,"2022-04-24"
"浦东新区","上海市浦东新区严中路388弄",121.53951540165365,31.194842892663416,"2022-04-24"
"浦东新区","上海市浦东新区盐朝公路67号",121.77001951754738,31.0943397010565,"2022-04-24"
"浦东新区","上海市浦东新区杨高北路3839弄",121.61451331173178,31.29155986731881,"2022-04-24"
"浦东新区","上海市浦东新区杨高南路1258号生活区",121.53634851540878,31.21053960933654,"2022-04-24"
"浦东新区","上海市浦东新区杨高南路3288弄",121.52558241370224,31.17462515993693,"2022-04-24"
"浦东新区","上海市浦东新区杨高南路5055弄",121.5375261041018,31.15615318813709,"2022-04-24"
"浦东新区","上海市浦东新区杨高南路5777弄",121.55032695761899,31.13422383103704,"2022-04-24"
"浦东新区","上海市浦东新区杨高中路10弄",121.60637358584478,31.263420011224802,"2022-04-24"
"浦东新区","上海市浦东新区杨莲路160弄",121.53688426481492,31.18970225553777,"2022-04-24"
"浦东新区","上海市浦东新区杨莲路鹏岳路交界口工地生活区",121.56046433529909,31.178550046121984,"2022-04-24"
"浦东新区","上海市浦东新区杨南路1015弄",121.513807514908,31.158434098472167,"2022-04-24"
"浦东新区","上海市浦东新区杨南路1705弄",121.52142855919355,31.16155948290987,"2022-04-24"
"浦东新区","上海市浦东新区杨南路694弄",121.5075548594058,31.15539096668121,"2022-04-24"
"浦东新区","上海市浦东新区杨南路797弄",121.50916363474362,31.158170194327642,"2022-04-24"
"浦东新区","上海市浦东新区杨南路826弄",121.50904299231362,31.156750615241993,"2022-04-24"
"浦东新区","上海市浦东新区杨思路1121弄",121.51244631256873,31.17079365323609,"2022-04-24"
"浦东新区","上海市浦东新区杨思路502弄",121.50139050733522,31.165181479780415,"2022-04-24"
"浦东新区","上海市浦东新区杨思路855弄",121.50659726573217,31.168965631905674,"2022-04-24"
"浦东新区","上海市浦东新区杨思路860弄",121.53688426481492,31.18970225553777,"2022-04-24"
"浦东新区","上海市浦东新区杨思新村",121.60064563059096,31.22441717742983,"2022-04-24"
"浦东新区","上海市浦东新区杨新路197弄",121.4985201517392,31.168845590720398,"2022-04-24"
"浦东新区","上海市浦东新区杨新路20弄",121.50290855381654,31.170494328286757,"2022-04-24"
"浦东新区","上海市浦东新区杨新路281弄",121.49519282813023,31.167353482958347,"2022-04-24"
"浦东新区","上海市浦东新区杨新路77弄",121.5001680033667,31.169243023786645,"2022-04-24"
"浦东新区","上海市浦东新区杨新路80弄",121.50033351024607,31.169613156321486,"2022-04-24"
"浦东新区","上海市浦东新区洋泾镇路89弄",121.55569693812708,31.24732055331147,"2022-04-24"
"浦东新区","上海市浦东新区耀华路220弄",121.49739223934087,31.179261334020538,"2022-04-24"
"浦东新区","上海市浦东新区耀华路30弄",121.53688426481492,31.18970225553777,"2022-04-24"
"浦东新区","上海市浦东新区耀华路331弄",121.49318888819857,31.18096820214458,"2022-04-24"
"浦东新区","上海市浦东新区耀华路414弄",121.4922269826585,31.1790527910542,"2022-04-24"
"浦东新区","上海市浦东新区耀华路421弄",121.48966977636323,31.181385819746097,"2022-04-24"
"浦东新区","上海市浦东新区耀华路500弄",121.48875934372887,31.17679431825375,"2022-04-24"
"浦东新区","上海市浦东新区耀华路528号",121.4882265587309,31.177666972640683,"2022-04-24"
"浦东新区","上海市浦东新区耀华路550弄",121.48745123124523,31.17598769660649,"2022-04-24"
"浦东新区","上海市浦东新区耀华路560号",121.48800000608128,31.177453482797617,"2022-04-24"
"浦东新区","上海市浦东新区耀华路579弄",121.48605966617973,31.178810494440008,"2022-04-24"
"浦东新区","上海市浦东新区耀华路87弄",121.49669183053473,31.18425850265287,"2022-04-24"
"浦东新区","上海市浦东新区耀华路8号",121.50077166466939,31.183897510556708,"2022-04-24"
"浦东新区","上海市浦东新区耀元路228弄",121.48032983521631,31.176939830936618,"2022-04-24"
"浦东新区","上海市浦东新区益丰路55弄",121.62883948800493,31.20710792433072,"2022-04-24"
"浦东新区","上海市浦东新区益江路286弄",121.6366161188048,31.204810978598136,"2022-04-24"
"浦东新区","上海市浦东新区益江路299弄",121.63722957163755,31.203502759161672,"2022-04-24"
"浦东新区","上海市浦东新区益江路396弄",121.63319438328674,31.20480233029449,"2022-04-24"
"浦东新区","上海市浦东新区益江路511弄",121.63543170298989,31.202213517362043,"2022-04-24"
"浦东新区","上海市浦东新区懿行路971弄",121.51939497518005,31.131133547765522,"2022-04-24"
"浦东新区","上海市浦东新区殷北路351弄",121.6337796293265,31.184466261701356,"2022-04-24"
"浦东新区","上海市浦东新区银峰路549弄",121.69568788066599,31.272437116739326,"2022-04-24"
"浦东新区","上海市浦东新区银峰路676弄",121.65277879086253,31.290487771739045,"2022-04-24"
"浦东新区","上海市浦东新区银融路88弄",121.5403030359248,31.215086838346664,"2022-04-24"
"浦东新区","上海市浦东新区银山路115弄",121.58494540620977,31.251339175442446,"2022-04-24"
"浦东新区","上海市浦东新区银山路181号",121.58653495780966,31.250096900312947,"2022-04-24"
"浦东新区","上海市浦东新区银山路342弄",121.58944654562862,31.250482180250152,"2022-04-24"
"浦东新区","上海市浦东新区银山路370弄",121.59075744285933,31.25208155352624,"2022-04-24"
"浦东新区","上海市浦东新区银山路72弄",121.5849090248366,31.24824734927878,"2022-04-24"
"浦东新区","上海市浦东新区银霄路39弄",121.56572615982378,31.21825349224599,"2022-04-24"
"浦东新区","上海市浦东新区银樽路58弄",121.63626380338377,31.194416454082223,"2022-04-24"
"浦东新区","上海市浦东新区樱花路801弄",121.56703597908788,31.214397826976995,"2022-04-24"
"浦东新区","上海市浦东新区樱花路802弄",121.567473903024,31.213807021168357,"2022-04-24"
"浦东新区","上海市浦东新区迎春路1355弄",121.56908249870071,31.235478938541977,"2022-04-24"
"浦东新区","上海市浦东新区永安新村",121.55708014895134,31.254939565357265,"2022-04-24"
"浦东新区","上海市浦东新区永宁路33弄",121.62099198090031,31.278981853544852,"2022-04-24"
"浦东新区","上海市浦东新区永泰路1129弄",121.52972387159488,31.14879972560635,"2022-04-24"
"浦东新区","上海市浦东新区永泰路1299弄",121.53314551728239,31.14925557699214,"2022-04-24"
"浦东新区","上海市浦东新区永泰路136弄",121.51114125432383,31.140667892100943,"2022-04-24"
"浦东新区","上海市浦东新区永泰路1960弄",121.52553031198265,31.139159418419815,"2022-04-24"
"浦东新区","上海市浦东新区永泰路2079弄",121.52553031198265,31.139159418419815,"2022-04-24"
"浦东新区","上海市浦东新区永泰路468弄",121.51868369687726,31.1422970350015,"2022-04-24"
"浦东新区","上海市浦东新区永泰路595弄",121.52107274038106,31.1462686284638,"2022-04-24"
"浦东新区","上海市浦东新区永泰路630弄",121.52411305537956,31.145365857319558,"2022-04-24"
"浦东新区","上海市浦东新区永泰路775弄",121.52441470636981,31.147980346490257,"2022-04-24"
"浦东新区","上海市浦东新区羽山路1000弄",121.56429030829663,31.244514793864397,"2022-04-24"
"浦东新区","上海市浦东新区羽山路600弄",121.55465445458276,31.240309084356323,"2022-04-24"
"浦东新区","上海市浦东新区玉盘北路288弄",121.67884662862603,31.23195561150909,"2022-04-24"
"浦东新区","上海市浦东新区玉泉街77弄",121.50199264151856,31.168991123257296,"2022-04-24"
"浦东新区","上海市浦东新区御衡路68弄",121.58833740781544,31.159592610343985,"2022-04-24"
"浦东新区","上海市浦东新区御桥路1679弄",121.57801623682799,31.165627672680262,"2022-04-24"
"浦东新区","上海市浦东新区御桥路1978弄",121.53688426481492,31.18970225553777,"2022-04-24"
"浦东新区","上海市浦东新区御桥路2066弄",121.58173980299742,31.164948494555752,"2022-04-24"
"浦东新区","上海市浦东新区御桥路288弄",121.54286446425594,31.155924815928017,"2022-04-24"
"浦东新区","上海市浦东新区御青路56弄",121.57846907263557,31.165031924344618,"2022-04-24"
"浦东新区","上海市浦东新区御青路999弄",121.5795247612709,31.16029762997253,"2022-04-24"
"浦东新区","上海市浦东新区御山路360弄",121.57468244541937,31.162035666910167,"2022-04-24"
"浦东新区","上海市浦东新区御水路150弄",121.57886495587383,31.167441854466574,"2022-04-24"
"浦东新区","上海市浦东新区御水路199弄",121.58063821095053,31.166554813951443,"2022-04-24"
"浦东新区","上海市浦东新区园二路299弄",121.64100182596562,31.32307691964883,"2022-04-24"
"浦东新区","上海市浦东新区园林路85弄",121.7034189673765,31.124364861724732,"2022-04-24"
"浦东新区","上海市浦东新区园洲路189弄",121.64190228740883,31.321913567362007,"2022-04-24"
"浦东新区","上海市浦东新区源深路600弄",121.54036717493821,31.237760542935803,"2022-04-24"
"浦东新区","上海市浦东新区云端路1388弄",121.82348612251796,30.895424123813168,"2022-04-24"
"浦东新区","上海市浦东新区云汉路1096弄",121.8111422370137,30.9176762778764,"2022-04-24"
"浦东新区","上海市浦东新区云汉路977弄",121.81344315674696,30.91701025934903,"2022-04-24"
"浦东新区","上海市浦东新区云莲路101弄",121.53688426481492,31.18970225553777,"2022-04-24"
"浦东新区","上海市浦东新区云山路1050弄",121.57800617580628,31.25499158172126,"2022-04-24"
"浦东新区","上海市浦东新区云山路1395弄",121.58422676180179,31.251544007243965,"2022-04-24"
"浦东新区","上海市浦东新区云山路999弄",121.57850922689187,31.258196243274657,"2022-04-24"
"浦东新区","上海市浦东新区云台路183弄",121.51061853034757,31.18339896227592,"2022-04-24"
"浦东新区","上海市浦东新区云台路501弄",121.53688426481492,31.18970225553777,"2022-04-24"
"浦东新区","上海市浦东新区云台路529弄",121.51363063855308,31.1744192328881,"2022-04-24"
"浦东新区","上海市浦东新区云雅路395弄",121.68425775152647,31.249579409437324,"2022-04-24"
"浦东新区","上海市浦东新区运通路728弄",121.70893240727456,31.209195951774223,"2022-04-24"
"浦东新区","上海市浦东新区韵涛路36弄",121.58485970786411,31.120077939878794,"2022-04-24"
"浦东新区","上海市浦东新区枣庄路552弄",121.58557898108594,31.25736686193547,"2022-04-24"
"浦东新区","上海市浦东新区枣庄路658弄",121.58524858431939,31.25743400297086,"2022-04-24"
"浦东新区","上海市浦东新区枣庄路810弄",121.58858731640832,31.255090752305353,"2022-04-24"
"浦东新区","上海市浦东新区枣庄路998弄",121.59064021399027,31.25339580836896,"2022-04-24"
"浦东新区","上海市浦东新区张江路775弄",121.62517619813522,31.208465742012404,"2022-04-24"
"浦东新区","上海市浦东新区张江镇韩荡村西丁家宅",121.66972460566384,31.2288207632593,"2022-04-24"
"浦东新区","上海市浦东新区张江镇环东中心村桥弄金家宅",121.59324952200511,31.131094754366096,"2022-04-24"
"浦东新区","上海市浦东新区张江镇环东中心村四灶姚家宅",121.65826429345921,31.19680555082436,"2022-04-24"
"浦东新区","上海市浦东新区张江镇劳动村郑家宅",121.63881678764314,31.17569309993617,"2022-04-24"
"浦东新区","上海市浦东新区张江镇沔北村曹家宅",121.63755026670462,31.173264843515458,"2022-04-24"
"浦东新区","上海市浦东新区张江镇沔北村南诸家宅",121.62881011341473,31.167725971391313,"2022-04-24"
"浦东新区","上海市浦东新区张江镇钱堂村立达宅",121.59951870632868,31.16388174546565,"2022-04-24"
"浦东新区","上海市浦东新区张江镇新丰村龚家宅",121.65172867172136,31.16654067747195,"2022-04-24"
"浦东新区","上海市浦东新区张江镇长元村曹家宅",121.65798824417598,31.17533578243895,"2022-04-24"
"浦东新区","上海市浦东新区张江镇中心村安乐宅",121.6647867999366,31.192715005059494,"2022-04-24"
"浦东新区","上海市浦东新区张江镇中心村小桥宅",121.6647867999366,31.192715005059494,"2022-04-24"
"浦东新区","上海市浦东新区张杨北路310弄",121.59381121501067,31.276181508196604,"2022-04-24"
"浦东新区","上海市浦东新区张杨北路5428弄",121.58364969034217,31.348498922535285,"2022-04-24"
"浦东新区","上海市浦东新区张杨北路5848弄",121.57990160043234,31.354634741889846,"2022-04-24"
"浦东新区","上海市浦东新区张杨北路5911弄",121.57902494408515,31.354966242097593,"2022-04-24"
"浦东新区","上海市浦东新区张杨路1050弄",121.5370397614987,31.236817818967825,"2022-04-24"
"浦东新区","上海市浦东新区张杨路1673弄",121.54977189464437,31.243332632552367,"2022-04-24"
"浦东新区","上海市浦东新区张杨路2100弄",121.58962611690005,31.28158489894264,"2022-04-24"
"浦东新区","上海市浦东新区张杨路2855弄",121.57010827376257,31.251924187461498,"2022-04-24"
"浦东新区","上海市浦东新区张杨路2999弄",121.57370068732752,31.253982428223043,"2022-04-24"
"浦东新区","上海市浦东新区张杨路310弄",121.51973938551258,31.230805867990643,"2022-04-24"
"浦东新区","上海市浦东新区张杨路370弄",121.52153842195742,31.232164345489466,"2022-04-24"
"浦东新区","上海市浦东新区张杨路3738号",121.58393975319133,31.25931385520823,"2022-04-24"
"浦东新区","上海市浦东新区张杨路628弄",121.52760369093023,31.233830340914704,"2022-04-24"
"浦东新区","上海市浦东新区张杨路951弄",121.5329836426295,31.23691438435045,"2022-04-24"
"浦东新区","上海市浦东新区招远路19弄",121.5212299438453,31.241645116927586,"2022-04-24"
"浦东新区","上海市浦东新区赵高公路587号",121.63309898324158,31.32217407933106,"2022-04-24"
"浦东新区","上海市浦东新区赵高公路950968号",121.63917054035296,31.31389726291588,"2022-04-24"
"浦东新区","上海市浦东新区赵高公路958号",121.63712932074266,31.316872849079196,"2022-04-24"
"浦东新区","上海市浦东新区赵高路610号",121.63347411562255,31.321740894877177,"2022-04-24"
"浦东新区","上海市浦东新区振兴东路12弄",121.50271020795994,31.16838558591424,"2022-04-24"
"浦东新区","上海市浦东新区中科路2635弄",121.64420248849765,31.19692918571442,"2022-04-24"
"浦东新区","上海市浦东新区周邓公路6600弄",121.60942890254532,31.121067591709107,"2022-04-24"
"浦东新区","上海市浦东新区周东路243弄",121.5923400775068,31.122621335648045,"2022-04-24"
"浦东新区","上海市浦东新区周东南路388弄",121.59594542138694,31.103748864755293,"2022-04-24"
"浦东新区","上海市浦东新区周汇路158弄",121.58485970786411,31.120077939878794,"2022-04-24"
"浦东新区","上海市浦东新区周康路868弄",121.58027502603284,31.107585868005593,"2022-04-24"
"浦东新区","上海市浦东新区周康路869弄",121.58121707902114,31.10748746882412,"2022-04-24"
"浦东新区","上海市浦东新区周浦镇北庄村窑港",121.67260286634837,31.108271567533365,"2022-04-24"
"浦东新区","上海市浦东新区周浦镇红桥村民治",121.63595272018568,31.117047786070078,"2022-04-24"
"浦东新区","上海市浦东新区周浦镇里仁村",121.57510536765346,31.11385058423264,"2022-04-24"
"浦东新区","上海市浦东新区周浦镇沈西村梅林",121.5686535578197,31.092572579867824,"2022-04-24"
"浦东新区","上海市浦东新区周浦镇周南村",121.58997088655478,31.111919735760996,"2022-04-24"
"浦东新区","上海市浦东新区周市路1321号",121.58970166439343,31.119318594332626,"2022-04-24"
"浦东新区","上海市浦东新区周市路380弄",121.58786804318648,31.122608042683122,"2022-04-24"
"浦东新区","上海市浦东新区周市路39弄",121.58821829250482,31.11620471105953,"2022-04-24"
"浦东新区","上海市浦东新区周泰路32弄",121.6074340354993,31.107255809071958,"2022-04-24"
"浦东新区","上海市浦东新区周星路500弄",121.58569980317705,31.10805931117418,"2022-04-24"
"浦东新区","上海市浦东新区周秀路26弄",121.61314920892717,31.104936638727523,"2022-04-24"
"浦东新区","上海市浦东新区周园路666弄",121.59978110136815,31.123540709636185,"2022-04-24"
"浦东新区","上海市浦东新区周祝公路1218号",121.64587360623788,31.11220386614623,"2022-04-24"
"浦东新区","上海市浦东新区周祝公路周泰北路交界口工地生活区",121.60866363608137,31.109520206494043,"2022-04-24"
"浦东新区","上海市浦东新区洲德路博艺路交界口工地生活区",121.91984555796228,30.954732334047986,"2022-04-24"
"浦东新区","上海市浦东新区竹柏路500弄",121.91008501944361,30.908902876239964,"2022-04-24"
"浦东新区","上海市浦东新区祝桥镇邓三村张家宅",121.76701989578847,31.14069331387061,"2022-04-24"
"浦东新区","上海市浦东新区祝桥镇高永村高宅",121.80141700190157,31.078330805229694,"2022-04-24"
"浦东新区","上海市浦东新区祝桥镇共和村高家宅",121.74016397460105,31.17659805099963,"2022-04-24"
"浦东新区","上海市浦东新区祝桥镇红星村红一",121.7712909791662,31.0958843007522,"2022-04-24"
"浦东新区","上海市浦东新区祝桥镇金星村",121.77908746251785,31.11921989828282,"2022-04-24"
"浦东新区","上海市浦东新区祝桥镇立新村金家宅",121.76391813669305,31.177471711327076,"2022-04-24"
"浦东新区","上海市浦东新区祝桥镇立新村叶桥",121.75718291147089,31.09250903153677,"2022-04-24"
"浦东新区","上海市浦东新区祝桥镇亭中村",121.77874413015194,31.103036440743324,"2022-04-24"
"浦东新区","上海市浦东新区祝桥镇新东村东海",121.80568080900468,31.101798537927543,"2022-04-24"
"浦东新区","上海市浦东新区祝桥镇新生村",121.74924386703482,31.18011326583879,"2022-04-24"
"浦东新区","上海市浦东新区祝桥镇星光村前进",121.75520080036313,31.125544273851506,"2022-04-24"
"浦东新区","上海市浦东新区祝桥镇星火村",121.70831760698351,31.261823069883153,"2022-04-24"
"浦东新区","上海市浦东新区祝桥镇义泓村",121.84381262027553,31.081963820725456,"2022-04-24"
"浦东新区","上海市浦东新区祝桥镇中圩村陈家宅",121.75971918724777,31.161101373697996,"2022-04-24"
"浦东新区","上海市浦东新区砖桥街1号",121.59129319226547,31.350252737890244,"2022-04-24"
"浦东新区","上海市浦东新区梓康路188弄",121.57565279503125,31.128640846099366,"2022-04-24"
"浦东新区","上海市浦东新区梓康路51弄",121.5793535442407,31.128721294256383,"2022-04-24"
"浦东新区","上海市浦东新区紫叶路101弄",121.55813026809251,31.18945697449361,"2022-04-24"
"浦东新区","上海市浦东新区紫叶路65弄",121.53688426481492,31.18970225553777,"2022-04-24"
"浦东新区","上海市浦东新区紫叶路81弄",121.55772216789933,31.18971870540851,"2022-04-24"
"浦东新区","上海市浦东新区邹平路191号工地生活区",121.52160058469872,31.17630685482829,"2022-04-24"
"黄浦区","上海市黄浦区安澜路55号",121.49272922526912,31.221439803069384,"2022-04-24"
"黄浦区","上海市黄浦区半淞园路387号",121.50186301603347,31.207877060778685,"2022-04-24"
"黄浦区","上海市黄浦区半淞园路650号",121.50102139360118,31.204231463270702,"2022-04-24"
"黄浦区","上海市黄浦区半淞园路698弄",121.50065066291721,31.203280216414342,"2022-04-24"
"黄浦区","上海市黄浦区保屯路211弄",121.4983058160445,31.209535149529046,"2022-04-24"
"黄浦区","上海市黄浦区保屯路44号",121.49649698806962,31.211889656144734,"2022-04-24"
