"district","address","lng","lat","date"
"浦东新区","上海市浦东新区北蔡镇中界村秦家宅",121.574173735009,31.1954461740634,2022-05-10
"浦东新区","上海市浦东新区北新园路350弄",121.633354461329,31.3270160144631,2022-05-10
"浦东新区","上海市浦东新区博山东路173弄",121.572413325701,31.257892721582,2022-05-10
"浦东新区","上海市浦东新区曹路镇建新村周家宅",121.682639184659,31.3011430694013,2022-05-10
"浦东新区","上海市浦东新区曹路镇前锋村陆家宅",121.704838559574,31.2766295756821,2022-05-10
"浦东新区","上海市浦东新区长岛路1267弄",121.601522825921,31.268319782292,2022-05-10
"浦东新区","上海市浦东新区成山路668弄",121.519473037929,31.1758708312841,2022-05-10
"浦东新区","上海市浦东新区川沙新镇界龙村大顾家宅",121.690718993568,31.1810167067442,2022-05-10
"浦东新区","上海市浦东新区德平路155弄",121.567954047319,31.2566018365944,2022-05-10
"浦东新区","上海市浦东新区德州路300弄",121.536884264815,31.1897022555378,2022-05-10
"浦东新区","上海市浦东新区丁香路910弄",121.560392021706,31.2312404779508,2022-05-10
"浦东新区","上海市浦东新区东波路49弄",121.583378042756,31.2907238390316,2022-05-10
"浦东新区","上海市浦东新区渡桥路78弄",121.584859707864,31.1200779398788,2022-05-10
"浦东新区","上海市浦东新区芳草路352弄",121.561626023985,31.1992148959303,2022-05-10
"浦东新区","上海市浦东新区芳华路229弄",121.560810542243,31.2025519682178,2022-05-10
"浦东新区","上海市浦东新区芳华路411弄",121.565570303818,31.2023994608537,2022-05-10
"浦东新区","上海市浦东新区芳华路63号",121.558171590146,31.200731052684,2022-05-10
"浦东新区","上海市浦东新区高东镇珊黄村苍头宅",121.646532423499,31.3365476898601,2022-05-10
"浦东新区","上海市浦东新区高攀路149弄",121.540847049742,31.3682598152593,2022-05-10
"浦东新区","上海市浦东新区高桥镇陆凌村陆家宅",121.569011802057,31.3526591303629,2022-05-10
"浦东新区","上海市浦东新区高桥镇陆凌村宋家宅",121.570109621221,31.3523997058498,2022-05-10
"浦东新区","上海市浦东新区高桥镇陆凌村西凌家宅",121.5817386352,31.3535668406377,2022-05-10
"浦东新区","上海市浦东新区高桥镇南塘村顾家宅",121.5746809183,31.345394276907,2022-05-10
"浦东新区","上海市浦东新区高桥镇新益村严家江中",121.538037150106,31.3641085526554,2022-05-10
"浦东新区","上海市浦东新区龚路支路473弄",121.695481180568,31.2694697590493,2022-05-10
"浦东新区","上海市浦东新区拱乐路698弄",121.7770938531,31.0696419890714,2022-05-10
"浦东新区","上海市浦东新区海纳路129弄",121.67672465135,31.2983650765524,2022-05-10
"浦东新区","上海市浦东新区海鹏路301弄",121.680730914264,31.2953639830489,2022-05-10
"浦东新区","上海市浦东新区航定路568弄",121.596691649058,31.0329904097472,2022-05-10
"浦东新区","上海市浦东新区航瑞路389弄",121.597768897026,31.0806924706856,2022-05-10
"浦东新区","上海市浦东新区航头镇航东村航头",121.599367880834,31.036557643002,2022-05-10
"浦东新区","上海市浦东新区航头镇鹤东村沿江",121.608037966294,31.0602733641974,2022-05-10
"浦东新区","上海市浦东新区和龙路55弄",121.579757871748,31.3449552012399,2022-05-10
"浦东新区","上海市浦东新区鹤永路751弄",121.610426021661,31.0775687255746,2022-05-10
"浦东新区","上海市浦东新区沪东路67号",121.586816756248,31.2773934340112,2022-05-10
"浦东新区","上海市浦东新区花山路1001弄",121.588490748566,31.3561458336138,2022-05-10
"浦东新区","上海市浦东新区环桥路1137弄",121.584859707864,31.1200779398788,2022-05-10
"浦东新区","上海市浦东新区金桥路226弄",121.621784825343,31.2606638156741,2022-05-10
"浦东新区","上海市浦东新区金桥路2552弄",121.609184383785,31.2399130333655,2022-05-10
"浦东新区","上海市浦东新区金湘路201弄",121.619764626082,31.261871069581,2022-05-10
"浦东新区","上海市浦东新区金杨路750弄",121.589772181376,31.2586101980446,2022-05-10
"浦东新区","上海市浦东新区锦绣路2868弄",121.543720369746,31.1918025640378,2022-05-10
"浦东新区","上海市浦东新区巨峰路176弄",121.603201669089,31.285412489154,2022-05-10
"浦东新区","上海市浦东新区康弘路428弄",121.584859707864,31.1200779398788,2022-05-10
"浦东新区","上海市浦东新区崂山四村",121.524541996261,31.2411728108698,2022-05-10
"浦东新区","上海市浦东新区莲中路356弄",121.56492999165,31.1857610767685,2022-05-10
"浦东新区","上海市浦东新区林德路718弄",121.517756825252,31.1348698488989,2022-05-10
"浦东新区","上海市浦东新区柳杉路99弄",121.576397220807,31.2305088190269,2022-05-10
"浦东新区","上海市浦东新区龙东大道415弄",121.588483382461,31.2250134746995,2022-05-10
"浦东新区","上海市浦东新区龙居路180弄",121.568971737631,31.2585512381558,2022-05-10
"浦东新区","上海市浦东新区牡丹路89弄",121.550298840657,31.2132298778117,2022-05-10
"浦东新区","上海市浦东新区南泉北路301弄",121.523199299015,31.2399847410265,2022-05-10
"浦东新区","上海市浦东新区浦东大道2515号",121.567126438453,31.2650712510494,2022-05-10
"浦东新区","上海市浦东新区浦东南路4800弄",121.5052519634,31.1862488771978,2022-05-10
"浦东新区","上海市浦东新区浦东南路575弄",121.518573025638,31.2425843960653,2022-05-10
"浦东新区","上海市浦东新区三林路168号",121.50263852318,31.1415921892231,2022-05-10
"浦东新区","上海市浦东新区三林镇天花庵村南王家队南王家宅",121.55380142367,31.1628451123625,2022-05-10
"浦东新区","上海市浦东新区三林镇西林村奚家宅",121.505050473475,31.1424654028824,2022-05-10
"浦东新区","上海市浦东新区三林镇懿德村小陈家队小陈家宅",121.524726687873,31.1243504097577,2022-05-10
"浦东新区","上海市浦东新区上浦路201弄",121.499808681163,31.1514553764919,2022-05-10
"浦东新区","上海市浦东新区申轮路轲桥路交界口工地生活区",121.636677742563,31.2908116312254,2022-05-10
"浦东新区","上海市浦东新区世博家园大道站路94弄",121.545610314708,31.1654593463491,2022-05-10
"浦东新区","上海市浦东新区硕川路125弄",121.693519281334,31.2068003760843,2022-05-10
"浦东新区","上海市浦东新区唐镇虹二村朱家宅",121.668338969415,31.2583088385362,2022-05-10
"浦东新区","上海市浦东新区唐镇唐四村黄家西宅",121.667689494531,31.2210198162809,2022-05-10
"浦东新区","上海市浦东新区庭安路825弄",121.595222111074,31.3305112346674,2022-05-10
"浦东新区","上海市浦东新区五莲路108弄",121.588773624971,31.2771578731139,2022-05-10
"浦东新区","上海市浦东新区五莲路780弄",121.5971369391,31.2743054790071,2022-05-10
"浦东新区","上海市浦东新区五星路151弄",121.536884264815,31.1897022555378,2022-05-10
"浦东新区","上海市浦东新区下南路309弄",121.529696185109,31.2072012517119,2022-05-10
"浦东新区","上海市浦东新区下南路320弄",121.547891741212,31.1755488136572,2022-05-10
"浦东新区","上海市浦东新区下南路500弄",121.543720818899,31.1779675877605,2022-05-10
"浦东新区","上海市浦东新区新场镇仁义村",121.647293378096,31.0643146974948,2022-05-10
"浦东新区","上海市浦东新区新陈路25弄",121.564328755772,31.1853339017616,2022-05-10
"浦东新区","上海市浦东新区新德路502弄",121.700208153992,31.2032186734447,2022-05-10
"浦东新区","上海市浦东新区新金桥路230号",121.606037799245,31.2552516631071,2022-05-10
"浦东新区","上海市浦东新区秀沿路2875弄",121.616066481959,31.1449302308223,2022-05-10
"浦东新区","上海市浦东新区严镇路75弄",121.534643980704,31.1975138429377,2022-05-10
"浦东新区","上海市浦东新区耀华路414弄",121.492226982658,31.1790527910542,2022-05-10
"浦东新区","上海市浦东新区银峰路676弄",121.652778790863,31.290487771739,2022-05-10
"浦东新区","上海市浦东新区樱花路89弄",121.551946231283,31.2119883489066,2022-05-10
"浦东新区","上海市浦东新区永泰路538弄",121.522999515869,31.1448834846875,2022-05-10
"浦东新区","上海市浦东新区云山路2289号工地生活区",121.577570749296,31.2569462496791,2022-05-10
"浦东新区","上海市浦东新区韵涛路36弄",121.584859707864,31.1200779398788,2022-05-10
"浦东新区","上海市浦东新区张杨北路5428弄",121.583649690342,31.3484989225353,2022-05-10
"浦东新区","上海市浦东新区张杨路2798弄",121.570684536747,31.2510330845816,2022-05-10
"浦东新区","上海市浦东新区招远路19弄",121.521229943845,31.2416451169276,2022-05-10
"浦东新区","上海市浦东新区赵高公路958号",121.637129320743,31.3168728490792,2022-05-10
"浦东新区","上海市浦东新区周浦镇瓦南村",121.659544468641,31.1047808712322,2022-05-10
"浦东新区","上海市浦东新区周祝公路4022号工地生活区",121.760765920432,31.1241046056251,2022-05-10
"浦东新区","上海市浦东新区紫叶路81弄",121.557722167899,31.1897187054085,2022-05-10
"浦东新区","上海市浦东新区邹平路191号工地生活区",121.521600584699,31.1763068548283,2022-05-10
"黄浦区","上海市黄浦区保屯路135号",121.49712804769,31.2104918921415,2022-05-10
"黄浦区","上海市黄浦区保屯路211弄",121.498305816045,31.209535149529,2022-05-10
"黄浦区","上海市黄浦区北京东路288弄",121.490646324283,31.2464802699138,2022-05-10
"黄浦区","上海市黄浦区北京东路431弄",121.488688467424,31.2454462486496,2022-05-10
"黄浦区","上海市黄浦区曹市弄40号",121.495654826654,31.2249117246057,2022-05-10
"黄浦区","上海市黄浦区打浦路258弄",121.477569690974,31.2064866495792,2022-05-10
"黄浦区","上海市黄浦区打浦路303弄",121.478195181101,31.2059046737052,2022-05-10
"黄浦区","上海市黄浦区打浦路480弄",121.479416966425,31.2027578334607,2022-05-10
"黄浦区","上海市黄浦区大沽路183弄",121.477665540172,31.2319429515929,2022-05-10
"黄浦区","上海市黄浦区大吉路135弄",121.491322658502,31.2202550340278,2022-05-10
"黄浦区","上海市黄浦区大境路50号",121.493632381629,31.231105849433,2022-05-10
"黄浦区","上海市黄浦区淡水路214弄",121.479010483182,31.2233875443681,2022-05-10
"黄浦区","上海市黄浦区福州路614弄",121.485855032185,31.2389698679587,2022-05-10
"黄浦区","上海市黄浦区广西北路200号",121.484809404571,31.2385372236355,2022-05-10
"黄浦区","上海市黄浦区广西北路228弄",121.485099557251,31.2391192282015,2022-05-10
"黄浦区","上海市黄浦区广西南路23号",121.487285224387,31.2348549187715,2022-05-10
"黄浦区","上海市黄浦区海潮路93弄",121.505912038289,31.2149615288345,2022-05-10
"黄浦区","上海市黄浦区河南南路555弄",121.497580883498,31.2262373235718,2022-05-10
"黄浦区","上海市黄浦区河南南路790弄",121.498540094122,31.2220411374899,2022-05-10
"黄浦区","上海市黄浦区河南中路199号",121.492415806477,31.2393988052345,2022-05-10
"黄浦区","上海市黄浦区淮海中路526弄",121.475825002013,31.2273074544703,2022-05-10
"黄浦区","上海市黄浦区淮海中路927弄",121.467196957251,31.2226196933692,2022-05-10
"黄浦区","上海市黄浦区黄陂南路863弄",121.485455555724,31.2167137621481,2022-05-10
"黄浦区","上海市黄浦区黄河路215弄",121.434456955312,31.2533728868238,2022-05-10
"黄浦区","上海市黄浦区黄河路281弄",121.475632764634,31.2434464806782,2022-05-10
"黄浦区","上海市黄浦区黄家路88弄",121.50359063719,31.2212345193213,2022-05-10
"黄浦区","上海市黄浦区济南路260弄",121.486546188444,31.2091485427482,2022-05-10
"黄浦区","上海市黄浦区建德路1号",121.474674452316,31.2160684623263,2022-05-10
"黄浦区","上海市黄浦区建国东路143弄",121.485327098036,31.2182331870898,2022-05-10
"黄浦区","上海市黄浦区建国东路87弄",121.486093936535,31.2191215528545,2022-05-10
"黄浦区","上海市黄浦区建国西路158弄",121.469437510854,31.2134139463937,2022-05-10
"黄浦区","上海市黄浦区江滨路288号",121.477718809689,31.1973798609217,2022-05-10
"黄浦区","上海市黄浦区江西中路135弄",121.494035091989,31.2399062408178,2022-05-10
"黄浦区","上海市黄浦区江西中路52号",121.494730380454,31.2384983974726,2022-05-10
"黄浦区","上海市黄浦区金陵东路79号",121.496879127234,31.2367865567722,2022-05-10
"黄浦区","上海市黄浦区静修路37弄",121.494724990621,31.2259248201899,2022-05-10
"黄浦区","上海市黄浦区九江路210号",121.492644964212,31.2428068453759,2022-05-10
"黄浦区","上海市黄浦区局门后路13号",121.487299776936,31.2148000082547,2022-05-10
"黄浦区","上海市黄浦区局门后路5号",121.487081219206,31.2152536858102,2022-05-10
"黄浦区","上海市黄浦区局门后路77号",121.487152544663,31.2143576782424,2022-05-10
"黄浦区","上海市黄浦区局门后路85号",121.487218659949,31.2142250328777,2022-05-10
"黄浦区","上海市黄浦区局门路295弄",121.489189093085,31.2109224269886,2022-05-10
"黄浦区","上海市黄浦区局门路541号",121.489355908418,31.2071588862825,2022-05-10
"黄浦区","上海市黄浦区丽园路666号",121.486360957848,31.2128156449687,2022-05-10
"黄浦区","上海市黄浦区丽园路710弄",121.486006396663,31.2123440426996,2022-05-10
"黄浦区","上海市黄浦区丽园路842弄",121.483621395534,31.2113782080457,2022-05-10
"黄浦区","上海市黄浦区鲁班路509弄",121.483254078411,31.2067494139374,2022-05-10
"黄浦区","上海市黄浦区鲁班路562弄",121.483005607107,31.2044397957759,2022-05-10
"黄浦区","上海市黄浦区陆家浜路418号",121.505629970359,31.2166838829652,2022-05-10
"黄浦区","上海市黄浦区陆家浜路468弄",121.504498105416,31.2161071433814,2022-05-10
"黄浦区","上海市黄浦区陆家浜路521弄",121.505512112676,31.2192072119766,2022-05-10
"黄浦区","上海市黄浦区陆家宅路91弄",121.502350619858,31.2301080052278,2022-05-10
"黄浦区","上海市黄浦区马当路301弄",121.482434015311,31.2213598976399,2022-05-10
"黄浦区","上海市黄浦区马当路357弄",121.482270074555,31.2192363183031,2022-05-10
"黄浦区","上海市黄浦区毛家园路88弄",121.507601750953,31.2598748941387,2022-05-10
"黄浦区","上海市黄浦区茂名南路151号",121.468601547746,31.2228520720258,2022-05-10
"黄浦区","上海市黄浦区茂名南路169弄",121.469133524269,31.2212484931447,2022-05-10
"黄浦区","上海市黄浦区蒙自路440弄",121.485670969386,31.2082518590436,2022-05-10
"黄浦区","上海市黄浦区蒙自路490弄",121.485480618448,31.2072328582784,2022-05-10
"黄浦区","上海市黄浦区蒙自西路72弄",121.48209804905,31.2132159800014,2022-05-10
"黄浦区","上海市黄浦区梦花街87号",121.494611085482,31.2247899794694,2022-05-10
"黄浦区","上海市黄浦区南车站路169弄",121.497902836193,31.2151263691007,2022-05-10
"黄浦区","上海市黄浦区南车站路1号",121.496712671223,31.2175159412956,2022-05-10
"黄浦区","上海市黄浦区南京西路455弄",121.474520572582,31.2368317132736,2022-05-10
"黄浦区","上海市黄浦区宁波路540号",121.483899960073,31.2428860378203,2022-05-10
"黄浦区","上海市黄浦区宁波路542弄",121.483778778659,31.2427559028324,2022-05-10
"黄浦区","上海市黄浦区蓬莱路115号",121.498761706091,31.2244942238211,2022-05-10
"黄浦区","上海市黄浦区普育东路200弄",121.502308755228,31.2136236482467,2022-05-10
"黄浦区","上海市黄浦区普育东路24号",121.502549321443,31.2169053129619,2022-05-10
"黄浦区","上海市黄浦区普育东路32号",121.502553273987,31.2160930143751,2022-05-10
"黄浦区","上海市黄浦区瞿溪路1003弄",121.483856931239,31.2057716302849,2022-05-10
"黄浦区","上海市黄浦区瞿溪路1072弄",121.481430608056,31.2047559228658,2022-05-10
"黄浦区","上海市黄浦区瞿溪路1199弄",121.501473690425,31.2126581356342,2022-05-10
"黄浦区","上海市黄浦区瞿溪路1200弄",121.477917514868,31.2023023965439,2022-05-10
"黄浦区","上海市黄浦区瞿溪路120弄",121.50172216173,31.2120859266995,2022-05-10
"黄浦区","上海市黄浦区瞿溪路122号",121.50094297153,31.2119094994099,2022-05-10
"黄浦区","上海市黄浦区瞿溪路1240弄",121.477558192664,31.2030009175686,2022-05-10
"黄浦区","上海市黄浦区瞿溪路1254弄",121.476834158423,31.2024935135258,2022-05-10
"黄浦区","上海市黄浦区瞿溪路126号",121.50094297153,31.2119094994099,2022-05-10
"黄浦区","上海市黄浦区瞿溪路301弄",121.498335460126,31.2103753786943,2022-05-10
"黄浦区","上海市黄浦区瞿溪路469号",121.494588448183,31.208841541699,2022-05-10
"黄浦区","上海市黄浦区瞿溪路566号",121.492495306514,31.2072535518952,2022-05-10
"黄浦区","上海市黄浦区瞿溪路601号",121.491644072213,31.2080429945178,2022-05-10
"黄浦区","上海市黄浦区瞿溪路883弄",121.485768974517,31.2063427195683,2022-05-10
"黄浦区","上海市黄浦区瞿溪路884号",121.485726125344,31.2059786466917,2022-05-10
"黄浦区","上海市黄浦区瞿溪路904弄",121.485646894798,31.2058076130278,2022-05-10
"黄浦区","上海市黄浦区瞿溪路907弄",121.485194148821,31.206016405323,2022-05-10
"黄浦区","上海市黄浦区瞿溪路937弄",121.484684090952,31.2063509816511,2022-05-10
"黄浦区","上海市黄浦区汝南街80号",121.490476903864,31.2083713092673,2022-05-10
"黄浦区","上海市黄浦区瑞金二路200弄",121.472902275206,31.2150271561415,2022-05-10
"黄浦区","上海市黄浦区陕西南路271弄",121.469344985386,31.2142398570488,2022-05-10
"黄浦区","上海市黄浦区顺昌路528号",121.485945940702,31.2182198304638,2022-05-10
"黄浦区","上海市黄浦区四川中路540号",121.493509583266,31.2467056428897,2022-05-10
"黄浦区","上海市黄浦区泗泾路33号",121.493025127104,31.2390324680688,2022-05-10
"黄浦区","上海市黄浦区天津路118号",121.490435042827,31.244342904401,2022-05-10
"黄浦区","上海市黄浦区天津路179弄",121.489620998374,31.2433134906166,2022-05-10
"黄浦区","上海市黄浦区天津路480号",121.483844624453,31.2421933718099,2022-05-10
"黄浦区","上海市黄浦区温州路49弄",121.476319968349,31.2433831888559,2022-05-10
"黄浦区","上海市黄浦区文庙路91号",121.496427998206,31.2242489566818,2022-05-10
"黄浦区","上海市黄浦区五里桥路210弄",121.487184254848,31.2096193117683,2022-05-10
"黄浦区","上海市黄浦区五里桥路269弄",121.48593902375,31.2095841026205,2022-05-10
"黄浦区","上海市黄浦区西藏南路1225号",121.493741615579,31.215063289745,2022-05-10
"黄浦区","上海市黄浦区西藏南路1341弄",121.494635788883,31.2116118499907,2022-05-10
"黄浦区","上海市黄浦区西藏南路1383弄",121.49478679404,31.2111731338686,2022-05-10
"黄浦区","上海市黄浦区西藏南路1433弄",121.495532028291,31.2103589324505,2022-05-10
"黄浦区","上海市黄浦区西藏南路1731号",121.49779800394,31.2051238613323,2022-05-10
"黄浦区","上海市黄浦区西凌家宅路111弄",121.493016593202,31.2103186275591,2022-05-10
"黄浦区","上海市黄浦区西凌家宅路137弄",121.491804150255,31.2098911012353,2022-05-10
"黄浦区","上海市黄浦区西凌家宅路27弄",121.493752125753,31.2105657842924,2022-05-10
"黄浦区","上海市黄浦区斜土东路197号",121.494968431414,31.2139589694899,2022-05-10
"黄浦区","上海市黄浦区斜土东路23弄",121.496886942491,31.2144777383494,2022-05-10
"黄浦区","上海市黄浦区斜土东路255号",121.493495030716,31.213408232861,2022-05-10
"黄浦区","上海市黄浦区斜土东路265弄",121.493419752715,31.2132894839525,2022-05-10
"黄浦区","上海市黄浦区斜土路118弄",121.489370999951,31.2115998822251,2022-05-10
"黄浦区","上海市黄浦区斜土路298弄",121.486648505442,31.2107846035487,2022-05-10
"黄浦区","上海市黄浦区斜土路456号",121.484234399214,31.2096175358686,2022-05-10
"黄浦区","上海市黄浦区斜土路645号",121.480752207735,31.2089162072882,2022-05-10
"黄浦区","上海市黄浦区斜土路80弄",121.490479149628,31.2107099394492,2022-05-10
"黄浦区","上海市黄浦区新昌路328弄",121.474649209931,31.2424730168396,2022-05-10
"黄浦区","上海市黄浦区学前街156号",121.496594723709,31.2205836919761,2022-05-10
"黄浦区","上海市黄浦区学西街1号",121.493912113965,31.2234769438639,2022-05-10
"黄浦区","上海市黄浦区仪凤弄115号",121.492940416895,31.2234303140857,2022-05-10
"黄浦区","上海市黄浦区永安路1弄",121.491585592524,31.2372471520636,2022-05-10
"黄浦区","上海市黄浦区永宁街55号",121.49506392129,31.2212375302558,2022-05-10
"黄浦区","上海市黄浦区永寿路50号",121.487560375365,31.2351964936914,2022-05-10
"黄浦区","上海市黄浦区肇嘉浜路168弄",121.47033518755,31.2099309430341,2022-05-10
"黄浦区","上海市黄浦区肇嘉浜路249号",121.468743300356,31.2094208740739,2022-05-10
"黄浦区","上海市黄浦区制造局路361号",121.491774236681,31.2121371175751,2022-05-10
"黄浦区","上海市黄浦区制造局路365弄",121.491094399072,31.2109848914388,2022-05-10
"黄浦区","上海市黄浦区制造局路455弄",121.491010407506,31.210925129407,2022-05-10
"黄浦区","上海市黄浦区制造局路466弄",121.491504565367,31.2075521417448,2022-05-10
"黄浦区","上海市黄浦区制造局路567弄",121.491828673995,31.2093086060248,2022-05-10
"黄浦区","上海市黄浦区中华路169弄",121.504585780034,31.2280301834777,2022-05-10
"黄浦区","上海市黄浦区中华路296号",121.505708033108,31.2261043090435,2022-05-10
"黄浦区","上海市黄浦区中华路99号",121.504783407246,31.2289680553855,2022-05-10
"黄浦区","上海市黄浦区中山南路1358弄",121.506243782514,31.2161680602201,2022-05-10
"黄浦区","上海市黄浦区中山南路1667号",121.501570976912,31.2105118901275,2022-05-10
"黄浦区","上海市黄浦区中山南路1726弄",121.49944953862,31.2099897019351,2022-05-10
"黄浦区","上海市黄浦区中山南一路1109弄",121.476887877092,31.2014854153116,2022-05-10
"黄浦区","上海市黄浦区中山南一路247弄",121.492960718599,31.2063049610685,2022-05-10
"黄浦区","上海市黄浦区中山南一路290号",121.493025216935,31.2058813544426,2022-05-10
"静安区","上海市静安区宝昌路399弄",121.477939253861,31.2686961903874,2022-05-10
"静安区","上海市静安区宝通路157弄",121.484974962276,31.2618239187526,2022-05-10
"静安区","上海市静安区宝通路239弄",121.484591206163,31.2625356545031,2022-05-10
"静安区","上海市静安区宝通路425弄",121.482698386623,31.2652133930519,2022-05-10
"静安区","上海市静安区宝源路209弄",121.486628203737,31.2623012908521,2022-05-10
"静安区","上海市静安区昌化路420弄",121.457280383065,31.2449600686925,2022-05-10
"静安区","上海市静安区昌平路556号",121.450257340757,31.2416003486832,2022-05-10
"静安区","上海市静安区昌平路999弄",121.443925364879,31.2386810269573,2022-05-10
"静安区","上海市静安区常德路812弄",121.449054689341,31.2403071546635,2022-05-10
"静安区","上海市静安区长乐路638弄",121.460752603353,31.2252078649354,2022-05-10
"静安区","上海市静安区场中路3428弄",121.432992717331,31.3091743536206,2022-05-10
"静安区","上海市静安区大统路933弄",121.466221397467,31.2615230326281,2022-05-10
"静安区","上海市静安区大统路938弄",121.465017937575,31.2604427207575,2022-05-10
"静安区","上海市静安区东宝兴路458弄",121.485668993113,31.265014533089,2022-05-10
"静安区","上海市静安区共和新路1302号",121.465565005631,31.2698678454035,2022-05-10
"静安区","上海市静安区共和新路1453弄",121.465438164893,31.2726359609035,2022-05-10
"静安区","上海市静安区共和新路1725弄",121.464347532173,31.2772026243291,2022-05-10
"静安区","上海市静安区共和新路2999弄",121.461149564557,31.2944510772998,2022-05-10
"静安区","上海市静安区共和新路3616弄",121.454428981715,31.3089819120165,2022-05-10
"静安区","上海市静安区共和新路3650弄",121.454836722586,31.3103605410192,2022-05-10
"静安区","上海市静安区共和新路555弄",121.470609979205,31.2589239041575,2022-05-10
"静安区","上海市静安区共和新路688弄",121.469175654797,31.2605111714909,2022-05-10
"静安区","上海市静安区广中西路99弄",121.455460685593,31.2881044615463,2022-05-10
"静安区","上海市静安区汉中路28弄",121.453431772769,31.2338449304017,2022-05-10
"静安区","上海市静安区汉中路78弄",121.465700020949,31.2493749592327,2022-05-10
"静安区","上海市静安区和田路451弄",121.458169885181,31.2772186730355,2022-05-10
"静安区","上海市静安区沪太路1170弄",121.433927224553,31.2833302520144,2022-05-10
"静安区","上海市静安区沪太路555弄",121.457268435602,31.2638327081641,2022-05-10
"静安区","上海市静安区沪太路631弄",121.456626326823,31.2673061427831,2022-05-10
"静安区","上海市静安区沪太路651弄",121.455284797375,31.2674438057978,2022-05-10
"静安区","上海市静安区华康路69弄",121.465006529095,31.250811966884,2022-05-10
"静安区","上海市静安区黄山路260号",121.474709216739,31.2721621138683,2022-05-10
"静安区","上海市静安区黄山路280弄",121.474549498019,31.272077159114,2022-05-10
"静安区","上海市静安区江宁路918号",121.453188421806,31.2472358075189,2022-05-10
"静安区","上海市静安区康定路980弄",121.444872987361,31.2376968613163,2022-05-10
"静安区","上海市静安区临汾路380弄",121.468559956201,31.3181868863255,2022-05-10
"静安区","上海市静安区临汾路99弄",121.455802041687,31.316900845253,2022-05-10
"静安区","上海市静安区临山路203弄",121.479793715756,31.261272923676,2022-05-10
"静安区","上海市静安区灵石路737弄",121.445329775713,31.2904458041579,2022-05-10
"静安区","上海市静安区柳营路1025弄",121.456559762385,31.2682738693517,2022-05-10
"静安区","上海市静安区柳营路319弄",121.469876782248,31.273721070047,2022-05-10
"静安区","上海市静安区柳营路588弄",121.46718222504,31.2717699787446,2022-05-10
"静安区","上海市静安区陆丰路2号",121.482056816827,31.2649021002413,2022-05-10
"静安区","上海市静安区洛川东路320弄",121.46965534994,31.2763943986478,2022-05-10
"静安区","上海市静安区洛川中路1100弄",121.456053477399,31.2707076099104,2022-05-10
"静安区","上海市静安区平型关路1537号",121.466094287237,31.2969426085247,2022-05-10
"静安区","上海市静安区平型关路300弄",121.47035315366,31.2768807237311,2022-05-10
"静安区","上海市静安区平型关路305弄",121.471647342408,31.2763879945405,2022-05-10
"静安区","上海市静安区普善路铁路新村15号",121.458997673708,31.262280146391,2022-05-10
"静安区","上海市静安区普善路铁路新村17号",121.459744524909,31.2627410791231,2022-05-10
"静安区","上海市静安区普善路铁路新村19号",121.459744524909,31.2627410791231,2022-05-10
"静安区","上海市静安区普善路铁路新村26号",121.459912328379,31.2626181485163,2022-05-10
"静安区","上海市静安区普善路铁路新村27号",121.460030635214,31.2626706236225,2022-05-10
"静安区","上海市静安区青云路461弄",121.476420937888,31.2686846157453,2022-05-10
"静安区","上海市静安区虬江路1431弄",121.472424825827,31.256164334672,2022-05-10
"静安区","上海市静安区虬江路888弄",121.482116733805,31.2580348745036,2022-05-10
"静安区","上海市静安区三泉路999弄",121.446826622184,31.3261068887154,2022-05-10
"静安区","上海市静安区陕西北路640弄",121.457804454499,31.2397935462044,2022-05-10
"静安区","上海市静安区陕西北路835弄",121.454580885177,31.2418672597267,2022-05-10
"静安区","上海市静安区少年村路479弄",121.439835918875,31.3065706120593,2022-05-10
"静安区","上海市静安区谈家桥路155弄",121.459095139856,31.2660413157599,2022-05-10
"静安区","上海市静安区谈家桥路163弄",121.456271855469,31.2669146046022,2022-05-10
"静安区","上海市静安区谈家桥路85弄",121.459246234843,31.2665920512221,2022-05-10
"静安区","上海市静安区天目中路749弄",121.46822066621,31.252132799701,2022-05-10
"静安区","上海市静安区通阁路200弄",121.47688104997,31.266835432512,2022-05-10
"静安区","上海市静安区万航渡路623弄",121.440392958122,31.2327279403492,2022-05-10
"静安区","上海市静安区乌鲁木齐北路425号",121.450586929049,31.2256638080428,2022-05-10
"静安区","上海市静安区西宝兴路922弄",121.474453738652,31.275670037316,2022-05-10
"静安区","上海市静安区西藏北路1303弄",121.471833111988,31.269373690272,2022-05-10
"静安区","上海市静安区西藏北路871号",121.473954819772,31.2628639323991,2022-05-10
"静安区","上海市静安区西康路786弄",121.450851839344,31.243465082291,2022-05-10
"静安区","上海市静安区西康路888号",121.449855259211,31.2449768175916,2022-05-10
"静安区","上海市静安区西康路894弄",121.449851127006,31.2451118120652,2022-05-10
"静安区","上海市静安区新丰路381号",121.450059533884,31.2447731291633,2022-05-10
"静安区","上海市静安区新闸路1829号",121.449404669167,31.2338656953289,2022-05-10
"静安区","上海市静安区新闸路1910弄",121.447706602262,31.2328402575056,2022-05-10
"静安区","上海市静安区新闸路1999号",121.44652657958,31.2322365353555,2022-05-10
"静安区","上海市静安区延平路230弄",121.44664166108,31.2368471513888,2022-05-10
"静安区","上海市静安区延平路340弄",121.445602591096,31.2381537470298,2022-05-10
"静安区","上海市静安区延长中路800弄",121.452208280664,31.2726029359805,2022-05-10
"静安区","上海市静安区阳曲路781弄",121.465950019372,31.324354778118,2022-05-10
"静安区","上海市静安区永兴路973弄",121.466076051635,31.2578379285958,2022-05-10
"静安区","上海市静安区永兴路99弄",121.482498513647,31.2611774638346,2022-05-10
"静安区","上海市静安区余姚路19号",121.450305579763,31.2424839000546,2022-05-10
"静安区","上海市静安区余姚路27号",121.450563752767,31.2424289436652,2022-05-10
"静安区","上海市静安区余姚路321弄",121.444438566816,31.2410680680527,2022-05-10
"静安区","上海市静安区余姚路487弄",121.442623360872,31.2386428955558,2022-05-10
"静安区","上海市静安区育婴堂路273弄",121.47395949096,31.259294099168,2022-05-10
"静安区","上海市静安区育婴堂路38弄",121.473188026188,31.2540109063199,2022-05-10
"静安区","上海市静安区育婴堂路39弄",121.474683076049,31.255124709524,2022-05-10
"静安区","上海市静安区原平路689弄",121.437877972185,31.2973405777675,2022-05-10
"静安区","上海市静安区芷江西路123弄",121.47196390527,31.2651924035841,2022-05-10
"静安区","上海市静安区芷江西路165弄",121.470599019878,31.2649569662532,2022-05-10
"静安区","上海市静安区芷江西路230号",121.468637839289,31.2636664103459,2022-05-10
"静安区","上海市静安区芷江中路413弄",121.476515439628,31.2656527046166,2022-05-10
"静安区","上海市静安区芷江中路531弄",121.474920498195,31.2645193491074,2022-05-10
"静安区","上海市静安区芷江中路660弄",121.475069886401,31.2641234778376,2022-05-10
"静安区","上海市静安区芷江中路684号",121.474394899641,31.263851382889,2022-05-10
"静安区","上海市静安区中华新路288弄",121.479036983194,31.262127736357,2022-05-10
"静安区","上海市静安区中华新路455弄",121.4744274183,31.2614964089054,2022-05-10
"静安区","上海市静安区中华新路893弄",121.46198462936,31.2612283963409,2022-05-10
"静安区","上海市静安区中山北路1038号",121.457717139204,31.2645253681897,2022-05-10
"静安区","上海市静安区中山北路255弄",121.47551796119,31.2703848381367,2022-05-10
"静安区","上海市静安区中山北路805弄",121.464330194877,31.2677061674839,2022-05-10
"静安区","上海市静安区中兴路1340弄",121.46757667099,31.2582863812331,2022-05-10
"静安区","上海市静安区中兴路1385弄",121.467360628515,31.2589000578996,2022-05-10
"静安区","上海市静安区中兴路678号",121.47881447292,31.2607414495766,2022-05-10
"静安区","上海市静安区中兴路700号",121.478311421834,31.2603330605716,2022-05-10
"徐汇区","上海市徐汇区东安一村",121.463765520033,31.1953510331687,2022-05-10
"徐汇区","上海市徐汇区复兴中路1196弄",121.466289039872,31.219698698493,2022-05-10
"徐汇区","上海市徐汇区复兴中路1218弄",121.465884173578,31.2194577422622,2022-05-10
"徐汇区","上海市徐汇区桂林西街9弄",121.443396352764,31.1945567728227,2022-05-10
"徐汇区","上海市徐汇区桂平路350弄",121.413579257293,31.166860408583,2022-05-10
"徐汇区","上海市徐汇区汇成四村",121.443023915299,31.1492877182944,2022-05-10
"徐汇区","上海市徐汇区机场新村",121.458088049549,31.1737422039756,2022-05-10
"徐汇区","上海市徐汇区康健路100弄",121.434161322968,31.1710799228616,2022-05-10
"徐汇区","上海市徐汇区罗秀二村",121.454301781655,31.1384360811623,2022-05-10
"徐汇区","上海市徐汇区南丹路333弄",121.436679902127,31.1965904828723,2022-05-10
"徐汇区","上海市徐汇区钦州南路8弄",121.443396352764,31.1945567728227,2022-05-10
"徐汇区","上海市徐汇区日晖二村",121.472543312324,31.2005826350408,2022-05-10
"徐汇区","上海市徐汇区日晖六村",121.466221038145,31.2012329836581,2022-05-10
"徐汇区","上海市徐汇区石龙路345弄",121.447770202292,31.1598419867287,2022-05-10
"徐汇区","上海市徐汇区天钥桥路327号",121.449593403155,31.1948099947181,2022-05-10
"徐汇区","上海市徐汇区田林东路414弄",121.432183254236,31.1800417440273,2022-05-10
"徐汇区","上海市徐汇区田林二村",121.426561838015,31.1763800015378,2022-05-10
"徐汇区","上海市徐汇区宛南华侨新村",121.456842369298,31.1870543293163,2022-05-10
"徐汇区","上海市徐汇区小木桥路360弄",121.466127973694,31.2007678867869,2022-05-10
"徐汇区","上海市徐汇区斜土路1620号",121.464444189846,31.2024620082078,2022-05-10
"徐汇区","上海市徐汇区斜土路2200弄",121.457232593212,31.1974553078788,2022-05-10
"徐汇区","上海市徐汇区肇嘉浜路201弄",121.470339499416,31.2081253821701,2022-05-10
"徐汇区","上海市徐汇区中漕路111弄",121.439408505113,31.1899562628442,2022-05-10
"徐汇区","上海市徐汇区中山西路2020号",121.433340002241,31.1883838623773,2022-05-10
"长宁区","上海市长宁区长宁支路133弄",121.432201400007,31.2337603267843,2022-05-10
"长宁区","上海市长宁区定西路1115号103店铺",121.429237440977,31.2184728339754,2022-05-10
"长宁区","上海市长宁区虹桥路1115弄住宅",121.417073935219,31.2038523247205,2022-05-10
"长宁区","上海市长宁区虹桥路2328弄",121.376819607689,31.1953314952944,2022-05-10
"长宁区","上海市长宁区江苏路62弄",121.434671740159,31.2295938127453,2022-05-10
"长宁区","上海市长宁区金钟路68弄",121.376952017921,31.2252768818641,2022-05-10
"长宁区","上海市长宁区水城南路16弄",121.401753873729,31.1981140182389,2022-05-10
"普陀区","上海市普陀区白玉新村",121.421699489951,31.2390235913603,2022-05-10
"普陀区","上海市普陀区北枫桥园",121.416259441613,31.247395496931,2022-05-10
"普陀区","上海市普陀区曹杨二村",121.411745007272,31.2501018398094,2022-05-10
"普陀区","上海市普陀区昌化路994弄",121.451138488632,31.2523540686302,2022-05-10
"普陀区","上海市普陀区黄陵路151弄",121.432570154419,31.267895916256,2022-05-10
"普陀区","上海市普陀区静宁路155弄",121.429107007017,31.2203788695753,2022-05-10
"普陀区","上海市普陀区礼泉路300弄",121.429937163702,31.2593677739739,2022-05-10
"普陀区","上海市普陀区梅岭北路400弄",121.412707990779,31.2493389160585,2022-05-10
"普陀区","上海市普陀区普陀一村",121.428633510182,31.2421393414841,2022-05-10
"普陀区","上海市普陀区桃浦路321弄",121.400029216981,31.2649575835921,2022-05-10
"普陀区","上海市普陀区铜川路346弄",121.42076677934,31.2588985144522,2022-05-10
"普陀区","上海市普陀区武威东路788弄",121.449732101526,31.2719072493736,2022-05-10
"普陀区","上海市普陀区香泉路85弄",121.417558211719,31.2705180983372,2022-05-10
"普陀区","上海市普陀区延长西路220弄",121.4448222331,31.2706418673398,2022-05-10
"普陀区","上海市普陀区延长西路540弄",121.439472015313,31.2661888579311,2022-05-10
"普陀区","上海市普陀区宜川三村",121.447419503821,31.263551892326,2022-05-10
"普陀区","上海市普陀区真北路3725弄",121.40954038589,31.2906612735426,2022-05-10
"普陀区","上海市普陀区中山北路3671弄",121.414423125489,31.2312606258947,2022-05-10
"普陀区","上海市普陀区子长路77弄",121.44274687788,31.2673912562068,2022-05-10
"虹口区","上海市虹口区北苏州路400号",121.490087937578,31.2488658770524,2022-05-10
"虹口区","上海市虹口区场中路8弄",121.511586454535,31.2697466989314,2022-05-10
"虹口区","上海市虹口区大连路975弄",121.512150500564,31.2731188333283,2022-05-10
"虹口区","上海市虹口区大连西路96号",121.502457065467,31.2835198147439,2022-05-10
"虹口区","上海市虹口区东汉阳路490号",121.504580030879,31.2581328842639,2022-05-10
"虹口区","上海市虹口区东余杭路211弄",121.515699392144,31.2672424482158,2022-05-10
"虹口区","上海市虹口区东余杭路600号",121.506333343573,31.2596256296651,2022-05-10
"虹口区","上海市虹口区多伦路198号",121.489015899783,31.2696479297168,2022-05-10
"虹口区","上海市虹口区丰镇路2弄",121.511586454535,31.2697466989314,2022-05-10
"虹口区","上海市虹口区广联路29弄",121.478626637237,31.2738841864092,2022-05-10
"虹口区","上海市虹口区广灵二路264弄",121.48052313983,31.2902378946309,2022-05-10
"虹口区","上海市虹口区广灵一村",121.484460592541,31.2927307726365,2022-05-10
"虹口区","上海市虹口区广粤路1500弄",121.474623787885,31.3090492473403,2022-05-10
"虹口区","上海市虹口区广粤路219号",121.471768523822,31.2908476584023,2022-05-10
"虹口区","上海市虹口区广粤路287弄",121.470100011167,31.2931038422955,2022-05-10
"虹口区","上海市虹口区广粤路53弄",121.471481515211,31.2880905748618,2022-05-10
"虹口区","上海市虹口区恒业路388弄",121.479535363091,31.2713869470974,2022-05-10
"虹口区","上海市虹口区横浜路63弄",121.51883706994,31.2828117282051,2022-05-10
"虹口区","上海市虹口区衡水路365号",121.488309403636,31.2578216246119,2022-05-10
"虹口区","上海市虹口区花园路118弄",121.480143965074,31.2769288700081,2022-05-10
"虹口区","上海市虹口区黄浦路60号",121.497944607399,31.2495936105674,2022-05-10
"虹口区","上海市虹口区吉祥路84弄",121.494832248299,31.2709887128917,2022-05-10
"虹口区","上海市虹口区九龙路473号",121.498232154993,31.2576194508905,2022-05-10
"虹口区","上海市虹口区奎照路2弄",121.511586454535,31.2697466989314,2022-05-10
"虹口区","上海市虹口区奎照路790弄",121.475194661037,31.3054898956609,2022-05-10
"虹口区","上海市虹口区昆明路155弄",121.514431477915,31.26177993187,2022-05-10
"虹口区","上海市虹口区昆山路158号",121.494290749737,31.2552823789025,2022-05-10
"虹口区","上海市虹口区溧阳路1335弄",121.49235436238,31.2693428247804,2022-05-10
"虹口区","上海市虹口区凉城路68弄",121.476499629451,31.2864375046157,2022-05-10
"虹口区","上海市虹口区临平路123号",121.506067624803,31.2667571863453,2022-05-10
"虹口区","上海市虹口区临平路250弄",121.502244795875,31.2678327953164,2022-05-10
"虹口区","上海市虹口区临平路333号",121.502142568708,31.2683045037026,2022-05-10
"虹口区","上海市虹口区闵行路201号",121.497858280239,31.2526549842722,2022-05-10
"虹口区","上海市虹口区蟠龙街26号",121.493613247721,31.2535387398974,2022-05-10
"虹口区","上海市虹口区青云路167弄",121.481787325174,31.2711303057557,2022-05-10
"虹口区","上海市虹口区曲阳路990弄",121.497929965019,31.2961838471889,2022-05-10
"虹口区","上海市虹口区水电路1013弄",121.485128482688,31.2944861002134,2022-05-10
"虹口区","上海市虹口区水电路1324弄",121.482455574643,31.2983062960363,2022-05-10
"虹口区","上海市虹口区四川北路1515弄",121.488911786174,31.261482363924,2022-05-10
"虹口区","上海市虹口区四川北路1545弄",121.488676879283,31.2614879973508,2022-05-10
"虹口区","上海市虹口区四川北路1604弄",121.48991869682,31.2620528045479,2022-05-10
"虹口区","上海市虹口区四川北路1856弄",121.490619824271,31.266843920751,2022-05-10
"虹口区","上海市虹口区四川北路1953弄",121.488481048682,31.2689843985128,2022-05-10
"虹口区","上海市虹口区四川北路1999弄",121.490374317375,31.2694836485029,2022-05-10
"虹口区","上海市虹口区四川北路2023弄",121.48945076948,31.2695980820892,2022-05-10
"虹口区","上海市虹口区四达路58弄",121.497159308722,31.2730979227972,2022-05-10
"虹口区","上海市虹口区四平路52弄",121.495263524774,31.2630122512771,2022-05-10
"虹口区","上海市虹口区四平路621弄",121.500505496747,31.2777983535493,2022-05-10
"虹口区","上海市虹口区天通庵路612号",121.482647915063,31.2693144035544,2022-05-10
"虹口区","上海市虹口区甜爱路311号",121.491052178713,31.2754691163263,2022-05-10
"虹口区","上海市虹口区同心路803弄",121.477894518247,31.2774575515322,2022-05-10
"虹口区","上海市虹口区汶水东路181弄",121.491917965563,31.2973938819121,2022-05-10
"虹口区","上海市虹口区武昌路138号",121.498309768589,31.251496388135,2022-05-10
"虹口区","上海市虹口区武进路224号",121.492799742252,31.258304130992,2022-05-10
"虹口区","上海市虹口区物华路98弄",121.500522744213,31.2646287728779,2022-05-10
"虹口区","上海市虹口区西宝兴路949弄",121.475029552484,31.2755931874033,2022-05-10
"虹口区","上海市虹口区祥德路335号",121.496542352498,31.2764902287313,2022-05-10
"虹口区","上海市虹口区新港路69号",121.512429873578,31.2743317132818,2022-05-10
"虹口区","上海市虹口区新市南路1145弄",121.487905145019,31.3041639550062,2022-05-10
"虹口区","上海市虹口区逸仙路328号",121.492856784652,31.3052188468465,2022-05-10
"虹口区","上海市虹口区逸仙路58号",121.495536250327,31.300159021582,2022-05-10
"虹口区","上海市虹口区乍浦路349号",121.493063844072,31.2559886078869,2022-05-10
"虹口区","上海市虹口区周家嘴路628号",121.507457393258,31.2627191630695,2022-05-10
"杨浦区","上海市杨浦区凤城二村",121.525134338914,31.2841340200324,2022-05-10
"杨浦区","上海市杨浦区凤城三村",121.528297991259,31.2878228700411,2022-05-10
"杨浦区","上海市杨浦区国伟路100弄",121.542639977709,31.3404388729251,2022-05-10
"杨浦区","上海市杨浦区佳木斯路154弄",121.547461542703,31.3057865520548,2022-05-10
"杨浦区","上海市杨浦区军工路1300号",121.552326765345,31.3112211518375,2022-05-10
"杨浦区","上海市杨浦区军工路516号",121.55851465302,31.2962789626884,2022-05-10
"杨浦区","上海市杨浦区开鲁二村",121.534190965235,31.3281462206896,2022-05-10
"杨浦区","上海市杨浦区开鲁四村",121.536914986863,31.3320019746491,2022-05-10
"杨浦区","上海市杨浦区控江二村",121.532540867844,31.2855664042064,2022-05-10
"杨浦区","上海市杨浦区控江四村",121.531554977546,31.2909119209767,2022-05-10
"杨浦区","上海市杨浦区控江五村",121.536617288417,31.2934922620784,2022-05-10
"杨浦区","上海市杨浦区眉州路432弄",121.541669448436,31.2693939843272,2022-05-10
"杨浦区","上海市杨浦区民府路133弄",121.523419312,31.3194064456334,2022-05-10
"杨浦区","上海市杨浦区民星路191号",121.556150762071,31.3175919547471,2022-05-10
"杨浦区","上海市杨浦区民星路50号",121.560395435266,31.3179674700781,2022-05-10
"杨浦区","上海市杨浦区平凉路1359弄",121.542840569329,31.2697733974667,2022-05-10
"杨浦区","上海市杨浦区平凉路2545弄",121.545825458878,31.2725263921886,2022-05-10
"杨浦区","上海市杨浦区市光路143弄",121.522965559921,31.3199993450417,2022-05-10
"杨浦区","上海市杨浦区市光三村",121.547556583426,31.3256469628713,2022-05-10
"杨浦区","上海市杨浦区双阳二村",121.53975444075,31.284079705345,2022-05-10
"杨浦区","上海市杨浦区松花一村",121.547631861428,31.3012392597695,2022-05-10
"杨浦区","上海市杨浦区翔殷路500弄",121.542882430366,31.3129806821146,2022-05-10
"杨浦区","上海市杨浦区翔殷路791弄",121.543887993554,31.3118738933923,2022-05-10
"杨浦区","上海市杨浦区许昌路1440弄",121.521681162703,31.2757392484785,2022-05-10
"杨浦区","上海市杨浦区延吉东路137弄",121.551377615743,31.299151281681,2022-05-10
"杨浦区","上海市杨浦区延吉东路149弄",121.551384757272,31.2978785933838,2022-05-10
"杨浦区","上海市杨浦区永吉路97弄",121.540422510558,31.2898938207044,2022-05-10
"杨浦区","上海市杨浦区中原路30弄",121.53880717759,31.3140313094036,2022-05-10
"宝山区","上海市宝山区爱辉路301号",121.460171130196,31.3411124594209,2022-05-10
"宝山区","上海市宝山区爱辉路1018弄",121.453574333853,31.3518318990072,2022-05-10
"宝山区","上海市宝山区宝杨路2237号",121.459054746052,31.3885976880945,2022-05-10
"宝山区","上海市宝山区长江西路1340号",121.461728073306,31.3431923274623,2022-05-10
"宝山区","上海市宝山区长临路1118弄",121.440358912343,31.3332804047635,2022-05-10
"宝山区","上海市宝山区城银路555弄",121.35643912177,31.3214720526675,2022-05-10
"宝山区","上海市宝山区春雷路332弄",121.439764054434,31.4161944992957,2022-05-10
"宝山区","上海市宝山区大华三路81号",121.425104516986,31.2821866953056,2022-05-10
"宝山区","上海市宝山区大康路896弄",121.430019421915,31.3370813947915,2022-05-10
"宝山区","上海市宝山区电台路568弄",121.39808896691,31.3617968880602,2022-05-10
"宝山区","上海市宝山区富联路1666号",121.403334891427,31.3837680999225,2022-05-10
"宝山区","上海市宝山区共和新路4703弄",121.457799513819,31.3245066238653,2022-05-10
"宝山区","上海市宝山区共康路379号",121.445041419644,31.3275144913876,2022-05-10
"宝山区","上海市宝山区顾北东路188弄",121.419497024501,31.365664893139,2022-05-10
"宝山区","上海市宝山区顾北东路501弄",121.412708619593,31.3631561581129,2022-05-10
"宝山区","上海市宝山区红林路99弄",121.435407362541,31.3719905056769,2022-05-10
"宝山区","上海市宝山区花园宅路52弄",121.431822764234,31.3349507657618,2022-05-10
"宝山区","上海市宝山区华灵路510弄",121.42724239427,31.2807160678904,2022-05-10
"宝山区","上海市宝山区华灵路1788弄",121.414441810244,31.2849836087296,2022-05-10
"宝山区","上海市宝山区华灵路1900弄",121.411514052926,31.2848785292534,2022-05-10
"宝山区","上海市宝山区江杨北路1568弄",121.447009966339,31.4052019307942,2022-05-10
"宝山区","上海市宝山区界华路100弄",121.429417641062,31.3082084393117,2022-05-10
"宝山区","上海市宝山区锦秋路101号",121.41038497273,31.3279808857,2022-05-10
"宝山区","上海市宝山区锦秋路1456弄",121.383621846502,31.3237625079335,2022-05-10
"宝山区","上海市宝山区锦秋路1588弄",121.379542731012,31.3228064617812,2022-05-10
"宝山区","上海市宝山区菊泉街1596弄",121.378812008422,31.3675497477029,2022-05-10
"宝山区","上海市宝山区聚丰园路91弄",121.39170785372,31.3211830811319,2022-05-10
"宝山区","上海市宝山区聚丰园路628弄",121.381421986139,31.3174156494305,2022-05-10
"宝山区","上海市宝山区康宁路1600弄",121.430215965169,31.3491040650363,2022-05-10
"宝山区","上海市宝山区兰岗路1号",121.47209595618,31.3839034331243,2022-05-10
"宝山区","上海市宝山区莲花山路700弄",121.445980148902,31.3672822571444,2022-05-10
"宝山区","上海市宝山区陆翔路678弄",121.374042496205,31.3582427883393,2022-05-10
"宝山区","上海市宝山区南大路118弄",121.410824513616,31.3061439885889,2022-05-10
"宝山区","上海市宝山区年吉路650弄",121.341464458749,31.404977403002,2022-05-10
"宝山区","上海市宝山区盘古路927弄",121.468494020577,31.4078248745127,2022-05-10
"宝山区","上海市宝山区祁华路58弄",121.387636643318,31.3294212335613,2022-05-10
"宝山区","上海市宝山区三泉路1859弄",121.442669623606,31.3376849514711,2022-05-10
"宝山区","上海市宝山区上大路128弄",121.412465627953,31.3187254372669,2022-05-10
"宝山区","上海市宝山区盛桥老街14弄",121.408235237814,31.4607306907459,2022-05-10
"宝山区","上海市宝山区市台路388号",121.35909648913,31.3207953164791,2022-05-10
"宝山区","上海市宝山区市台路555弄",121.35467997009,31.3253172091423,2022-05-10
"宝山区","上海市宝山区市一路153弄",121.3554071484,31.4215874504897,2022-05-10
"宝山区","上海市宝山区水产路2199弄",121.452999687818,31.3754430338956,2022-05-10
"宝山区","上海市宝山区松兰路960号",121.451161485253,31.3873048097147,2022-05-10
"宝山区","上海市宝山区松兰路1000号",121.450814649496,31.388045951895,2022-05-10
"宝山区","上海市宝山区淞兴西路187号",121.496777888203,31.3745827849582,2022-05-10
"宝山区","上海市宝山区泰和西路3493弄",121.409703338509,31.3564074833504,2022-05-10
"宝山区","上海市宝山区铁城路1555号",121.459905950409,31.3631079021689,2022-05-10
"宝山区","上海市宝山区铁山路38号",121.474144002912,31.3687509029117,2022-05-10
"宝山区","上海市宝山区纬地路88弄",121.411321366394,31.3330935649043,2022-05-10
"宝山区","上海市宝山区杨泰路99弄",121.456365818225,31.3713307085066,2022-05-10
"宝山区","上海市宝山区一二八纪念路149号",121.470289912952,31.3339255121859,2022-05-10
"宝山区","上海市宝山区友谊路309号",121.482183927057,31.4083927249124,2022-05-10
"宝山区","上海市宝山区友谊路1105号",121.468513064653,31.4037943467806,2022-05-10
"宝山区","上海市宝山区友谊路1500号",121.464594117036,31.3996433600242,2022-05-10
"宝山区","上海市宝山区友谊路2858弄",121.441200983928,31.3915048969253,2022-05-10
"宝山区","上海市宝山区月新南路820号",121.406107421553,31.4158899509981,2022-05-10
"宝山区","上海市宝山区川路1438弄",121.436451912188,31.3657857608899,2022-05-10
"宝山区","上海市宝山区川路1498弄",121.435347535394,31.3674186164033,2022-05-10
"宝山区","上海市宝山区镇泰路211弄",121.450334235709,31.3880437940601,2022-05-10
"宝山区","上海市宝山区竹韵路58弄",121.452594462203,31.3713189153604,2022-05-10
"宝山区","上海市宝山区宝城二村",121.497024922218,31.4151940239588,2022-05-10
"宝山区","上海市宝山区北宗村",121.40980457754,31.3939123805,2022-05-10
"宝山区","上海市宝山区蔡家弄村",121.372254778409,31.3787062193081,2022-05-10
"宝山区","上海市宝山区陈巷村",121.480655729723,31.3824195354258,2022-05-10
"宝山区","上海市宝山区东街村",121.450824710517,31.3849289071253,2022-05-10
"宝山区","上海市宝山区共富二村",121.438082965503,31.3545538710787,2022-05-10
"宝山区","上海市宝山区共康八村",121.43955951027,31.330407825842,2022-05-10
"宝山区","上海市宝山区海滨二村",121.498164961741,31.386908920076,2022-05-10
"宝山区","上海市宝山区呼玛一村",121.45830175643,31.3481438842397,2022-05-10
"宝山区","上海市宝山区呼玛二村",121.45330969305,31.3472565524271,2022-05-10
"宝山区","上海市宝山区聚源桥村",121.392207042092,31.4452782264077,2022-05-10
"宝山区","上海市宝山区毛家弄村",121.392927752602,31.4335117389984,2022-05-10
"宝山区","上海市宝山区炮台村",121.501956080484,31.3930851305226,2022-05-10
"宝山区","上海市宝山区祁连一村",121.387170961742,31.3189928991877,2022-05-10
"宝山区","上海市宝山区羌家村",121.396827296821,31.3663309742464,2022-05-10
"宝山区","上海市宝山区勤丰村",121.399036948714,31.420418857931,2022-05-10
"宝山区","上海市宝山区沈巷村",121.415304992009,31.4273331312371,2022-05-10
"宝山区","上海市宝山区盛宅一村",121.418138157756,31.358906995317,2022-05-10
"宝山区","上海市宝山区泗塘一村",121.460399838779,31.3447274291945,2022-05-10
"宝山区","上海市宝山区泗塘二村",121.462024244633,31.3421664706414,2022-05-10
"宝山区","上海市宝山区谭杨村",121.401169256504,31.3806532239243,2022-05-10
"宝山区","上海市宝山区通河六村",121.458292414052,31.337235877828,2022-05-10
"宝山区","上海市宝山区通河七村",121.4583457734,31.3354539810118,2022-05-10
"宝山区","上海市宝山区通河八村",121.45409059003,31.3358375979219,2022-05-10
"宝山区","上海市宝山区西街村",121.443972525918,31.3785332667254,2022-05-10
"宝山区","上海市宝山区永清二村",121.500347664469,31.3957558846403,2022-05-10
"宝山区","上海市宝山区朱家弄村",121.395986662525,31.3476683389689,2022-05-10
"闵行区","上海市闵行区古美西路631弄",121.397135505442,31.1364251418561,2022-05-10
"闵行区","上海市闵行区华江路1415弄",121.334038526421,31.2320862246904,2022-05-10
"闵行区","上海市闵行区许浦村",121.344134402386,31.2307916640076,2022-05-10
"闵行区","上海市闵行区银都路759弄",121.448127638054,31.1110314749479,2022-05-10
"闵行区","上海市闵行区赵家村",121.266859018349,31.253805076628,2022-05-10
"闵行区","上海市闵行区朱梅路266弄",121.439608917073,31.1287581566454,2022-05-10
"嘉定区","上海市嘉定区陈村村",121.335398291471,31.3591514463439,2022-05-10
"嘉定区","上海市嘉定区东环路651弄",121.224217533757,31.3330240107215,2022-05-10
"嘉定区","上海市嘉定区龚闵村",121.186593354929,31.2652562208115,2022-05-10
"嘉定区","上海市嘉定区横河村",121.220092514855,31.2768416048628,2022-05-10
"嘉定区","上海市嘉定区曲江路100弄",121.351942024726,31.2611098624652,2022-05-10
"松江区","上海市松江区宝胜路33号",121.270530033646,31.0305858509907,2022-05-10
"松江区","上海市松江区北松公路4562号",121.325840590337,31.0209844106886,2022-05-10
"松江区","上海市松江区场东路333弄",121.364865137623,31.1040754347679,2022-05-10
"松江区","上海市松江区车香路253号",121.29209996589,31.0121204669661,2022-05-10
"松江区","上海市松江区谷阳北路1066号",121.242319198258,31.0324874247266,2022-05-10
"松江区","上海市松江区沪松公路1399弄",121.325305020592,31.1431290583762,2022-05-10
"松江区","上海市松江区沪亭北路338弄",121.324690489792,31.1507871441709,2022-05-10
"松江区","上海市松江区九新公路28弄",121.234479596241,31.0371351764645,2022-05-10
"松江区","上海市松江区联阳路12弄",121.291729684359,31.0296982923841,2022-05-10
"松江区","上海市松江区思贤路3255弄",121.180715292825,31.0282932513876,2022-05-10
"松江区","上海市松江区团结村",121.32120129153,30.9531812403172,2022-05-10
"松江区","上海市松江区中山二路182弄",121.237095821209,31.0161532649776,2022-05-10
"松江区","上海市松江区朱龙村",121.323455319716,31.1246639473885,2022-05-10
"青浦区","上海市青浦区光联村",121.317580850833,31.1659544365636,2022-05-10
"青浦区","上海市青浦区京华路215号",121.280644863857,31.1764472006821,2022-05-10
"青浦区","上海市青浦区京华路281弄",121.279786802434,31.177331521486,2022-05-10
"青浦区","上海市青浦区京华路86号",121.282655900403,31.1741856526724,2022-05-10
"青浦区","上海市青浦区龙联路58弄",121.303675620522,31.2042845888757,2022-05-10
"青浦区","上海市青浦区龙联路59弄",121.304506373458,31.2028638546565,2022-05-10
"青浦区","上海市青浦区清河湾路388弄",121.098673948904,31.1708570713801,2022-05-10
"青浦区","上海市青浦区胜利路738号",121.110849671617,31.1766782263384,2022-05-10
"青浦区","上海市青浦区崧泽大道333号",121.308617558455,31.1962050582445,2022-05-10
"青浦区","上海市青浦区诸光路1355弄",121.306263998019,31.1876238336174,2022-05-10
"崇明区","上海市崇明区花博园北P1P2集中隔离点",121.487847922958,31.7026769367826,2022-05-10
"崇明区","上海市崇明区花博园北P3保障点",121.487847922958,31.7026769367826,2022-05-10
"崇明区","上海市崇明区大通路388号",121.624553313095,31.5515273196804,2022-05-10
"崇明区","上海市崇明区已对相关居住地落实终末消毒等措施",121.403556862718,31.628569984404,2022-05-10
"崇明区","上海市崇明区资料各区卫健委新闻办",121.403556862718,31.628569984404,2022-05-10
"崇明区","上海市崇明区编辑吴维嘉",121.403556862718,31.628569984404,2022-05-10
