"district","address","lng","lat","date"
"浦东新区","上海市浦东新区八灶村唐家宅",121.72414179752509,31.16212419793255,"2022-04-12"
"浦东新区","上海市浦东新区白杨路1155弄",121.56579802426458,31.197739179406092,"2022-04-12"
"浦东新区","上海市浦东新区百曲村",121.5546630711292,31.117902747608948,"2022-04-12"
"浦东新区","上海市浦东新区板泉路1821号工地生活区",121.53178862680957,31.17093794683169,"2022-04-12"
"浦东新区","上海市浦东新区板泉路2101弄",121.53960469322134,31.168815850763366,"2022-04-12"
"浦东新区","上海市浦东新区北艾路1128弄",121.54102778881024,31.190859917795574,"2022-04-12"
"浦东新区","上海市浦东新区北艾路1130弄",121.54028291388137,31.19126274074832,"2022-04-12"
"浦东新区","上海市浦东新区北艾路1200弄",121.53888676745775,31.188481867872763,"2022-04-12"
"浦东新区","上海市浦东新区北艾路1660弄",121.53028818711626,31.187040813780268,"2022-04-12"
"浦东新区","上海市浦东新区北蔡大街31弄",121.56054356584508,31.19367809757782,"2022-04-12"
"浦东新区","上海市浦东新区北蔡三村",121.56095445078532,31.188175725858915,"2022-04-12"
"浦东新区","上海市浦东新区北蔡镇南新村",121.54984959807098,31.17214172372261,"2022-04-12"
"浦东新区","上海市浦东新区北蔡镇吴家宅",121.6006798560309,31.160534334914544,"2022-04-12"
"浦东新区","上海市浦东新区北蔡镇徐家宅",121.62073362823563,31.187797912489447,"2022-04-12"
"浦东新区","上海市浦东新区北蔡镇姚家宅",121.56095445078532,31.188175725858915,"2022-04-12"
"浦东新区","上海市浦东新区北蔡镇周家宅",121.61609774299029,31.172355534634484,"2022-04-12"
"浦东新区","上海市浦东新区北城壕路111弄",121.70764576429261,31.20404189418742,"2022-04-12"
"浦东新区","上海市浦东新区北万家宅",121.67504212513016,31.269511195913047,"2022-04-12"
"浦东新区","上海市浦东新区北新园路350弄",121.63335446132862,31.32701601446308,"2022-04-12"
"浦东新区","上海市浦东新区北张家浜路28弄",121.52616676143647,31.22157977251237,"2022-04-12"
"浦东新区","上海市浦东新区北张家浜路58号",121.52762345365146,31.222173076955738,"2022-04-12"
"浦东新区","上海市浦东新区北中路247弄",121.56372599277528,31.190340323055423,"2022-04-12"
"浦东新区","上海市浦东新区滨海一村傅家宅",121.76968175467563,31.15744700355159,"2022-04-12"
"浦东新区","上海市浦东新区滨海一村龚家宅",121.76968175467563,31.15744700355159,"2022-04-12"
"浦东新区","上海市浦东新区滨海一村盛家宅",121.76968175467563,31.15744700355159,"2022-04-12"
"浦东新区","上海市浦东新区博华路930弄",121.55674921320147,31.18032002999115,"2022-04-12"
"浦东新区","上海市浦东新区博华路999弄",121.55711392523853,31.17680629046571,"2022-04-12"
"浦东新区","上海市浦东新区博山东路111弄",121.57015076361317,31.257144215743075,"2022-04-12"
"浦东新区","上海市浦东新区博山东路136弄",121.57186104747363,31.255988453537327,"2022-04-12"
"浦东新区","上海市浦东新区博山东路440弄",121.57526571518699,31.25858318762898,"2022-04-12"
"浦东新区","上海市浦东新区博山东路811弄",121.57981814785047,31.265442810713736,"2022-04-12"
"浦东新区","上海市浦东新区博山路12弄",121.56321782134827,31.253252567913812,"2022-04-12"
"浦东新区","上海市浦东新区博山路51弄",121.5636509842652,31.250794833134776,"2022-04-12"
"浦东新区","上海市浦东新区博兴路1383弄",121.60541087182975,31.275169971640373,"2022-04-12"
"浦东新区","上海市浦东新区博兴路250弄",121.58638727638383,31.274900995229025,"2022-04-12"
"浦东新区","上海市浦东新区博兴路341弄",121.58962611690005,31.28158489894264,"2022-04-12"
"浦东新区","上海市浦东新区博兴路462弄",121.58940908628885,31.27201836204534,"2022-04-12"
"浦东新区","上海市浦东新区博兴路465弄",121.58987225260978,31.272066665151705,"2022-04-12"
"浦东新区","上海市浦东新区博兴路467号",121.59044761728893,31.27143555917832,"2022-04-12"
"浦东新区","上海市浦东新区博兴路616弄",121.59050564782487,31.26885013299071,"2022-04-12"
"浦东新区","上海市浦东新区博兴路799弄",121.59697731021042,31.27188533546996,"2022-04-12"
"浦东新区","上海市浦东新区博兴路986弄",121.59726297136258,31.27067103482398,"2022-04-12"
"浦东新区","上海市浦东新区彩云路220弄",121.82058100249868,30.905540823620633,"2022-04-12"
"浦东新区","上海市浦东新区彩云路51弄",121.82433870427748,30.903810834024625,"2022-04-12"
"浦东新区","上海市浦东新区蔡路村东蔡家宅",121.75183443079128,31.230186868212748,"2022-04-12"
"浦东新区","上海市浦东新区蔡路村杨家宅",121.74440496474422,31.209984837533348,"2022-04-12"
"浦东新区","上海市浦东新区曹家油车",121.64748831039206,31.28342653789337,"2022-04-12"
"浦东新区","上海市浦东新区曹路镇姜家宅",121.70484942907059,31.292735015579424,"2022-04-12"
"浦东新区","上海市浦东新区草高支路1050弄",121.5696346870977,31.35747820438455,"2022-04-12"
"浦东新区","上海市浦东新区草高支路1118弄",121.56821069320328,31.35716598590056,"2022-04-12"
"浦东新区","上海市浦东新区草高支路168弄",121.58993270857061,31.35816168939117,"2022-04-12"
"浦东新区","上海市浦东新区草高支路170弄",121.58842607056927,31.35798885280393,"2022-04-12"
"浦东新区","上海市浦东新区草高支路766弄",121.57668836162316,31.35788609120189,"2022-04-12"
"浦东新区","上海市浦东新区柴场村工地生活区",121.894828827476,30.900192727463445,"2022-04-12"
"浦东新区","上海市浦东新区长浜村",121.56830106273758,31.047479279855114,"2022-04-12"
"浦东新区","上海市浦东新区长岛路1066弄",121.59706776957526,31.26601407599254,"2022-04-12"
"浦东新区","上海市浦东新区长岛路1201弄",121.59672973721186,31.2693476089323,"2022-04-12"
"浦东新区","上海市浦东新区长岛路1203弄",121.60099758668976,31.270094010785566,"2022-04-12"
"浦东新区","上海市浦东新区长岛路1267弄",121.60152282592145,31.268319782291993,"2022-04-12"
"浦东新区","上海市浦东新区长岛路1280弄",121.59964231316687,31.26688312097201,"2022-04-12"
"浦东新区","上海市浦东新区长岛路1398弄",121.60597842125094,31.269798784217294,"2022-04-12"
"浦东新区","上海市浦东新区长岛路1560弄",121.60831428506853,31.270698813371908,"2022-04-12"
"浦东新区","上海市浦东新区长岛路259弄",121.5832523698151,31.273179327236935,"2022-04-12"
"浦东新区","上海市浦东新区长岛路625弄",121.59057454785749,31.266999409719872,"2022-04-12"
"浦东新区","上海市浦东新区长岛路728弄",121.58962611690005,31.28158489894264,"2022-04-12"
"浦东新区","上海市浦东新区长岛路800弄",121.59383476804486,31.265307536930138,"2022-04-12"
"浦东新区","上海市浦东新区长岛路823弄",121.59383198329778,31.268428892953793,"2022-04-12"
"浦东新区","上海市浦东新区长岛路85弄",121.58469343151421,31.274539040952714,"2022-04-12"
"浦东新区","上海市浦东新区长丰村北张家宅",121.71321624659053,31.145940096183317,"2022-04-12"
"浦东新区","上海市浦东新区长丰村顾家宅",121.67899889140996,31.190286185566155,"2022-04-12"
"浦东新区","上海市浦东新区长丰村陆家宅",121.66622561587194,31.197467509120983,"2022-04-12"
"浦东新区","上海市浦东新区长丰村南张家宅",121.68373170381983,31.189947613169206,"2022-04-12"
"浦东新区","上海市浦东新区长江村",121.8125462885258,31.056096591091777,"2022-04-12"
"浦东新区","上海市浦东新区长路村",121.78597225560742,31.078967774136117,"2022-04-12"
"浦东新区","上海市浦东新区长桥村龚家宅",121.74213961790915,31.15310457420541,"2022-04-12"
"浦东新区","上海市浦东新区长桥村吴家宅",121.74213961790915,31.15310457420541,"2022-04-12"
"浦东新区","上海市浦东新区长清路103弄",121.49598118104579,31.1756628987045,"2022-04-12"
"浦东新区","上海市浦东新区长清路1658弄",121.50101402749598,31.152114101025887,"2022-04-12"
"浦东新区","上海市浦东新区长清路595弄",121.49833788555121,31.165653164939044,"2022-04-12"
"浦东新区","上海市浦东新区长清路643弄",121.49877580948733,31.164183177280332,"2022-04-12"
"浦东新区","上海市浦东新区长清路693弄",121.53688426481492,31.18970225553777,"2022-04-12"
"浦东新区","上海市浦东新区长清路773弄",121.49801207014275,31.16197386509983,"2022-04-12"
"浦东新区","上海市浦东新区长清路807弄",121.4992229859702,31.16205328041866,"2022-04-12"
"浦东新区","上海市浦东新区长清路937弄",121.53688426481492,31.18970225553777,"2022-04-12"
"浦东新区","上海市浦东新区长清路967弄",121.50066126292222,31.158099737357915,"2022-04-12"
"浦东新区","上海市浦东新区长元村长元宅",121.64700565084155,31.172397400731402,"2022-04-12"
"浦东新区","上海市浦东新区昌里东路190弄",121.514451330467,31.181876268964892,"2022-04-12"
"浦东新区","上海市浦东新区昌里东路500弄",121.52065736391323,31.18351774907825,"2022-04-12"
"浦东新区","上海市浦东新区昌里东路650弄",121.52139900494227,31.18353589919409,"2022-04-12"
"浦东新区","上海市浦东新区昌里东路675弄",121.52415096387209,31.186762393304466,"2022-04-12"
"浦东新区","上海市浦东新区昌里东路80弄",121.51274787372843,31.180374404948385,"2022-04-12"
"浦东新区","上海市浦东新区昌里路167弄",121.50454544611682,31.181091626219736,"2022-04-12"
"浦东新区","上海市浦东新区昌里路340弄",121.50096839357609,31.178239082858738,"2022-04-12"
"浦东新区","上海市浦东新区昌邑路1500号",121.54414715469363,31.25102891692304,"2022-04-12"
"浦东新区","上海市浦东新区潮洞坝",121.58350515298562,31.278056442544635,"2022-04-12"
"浦东新区","上海市浦东新区潮乐路8弄",121.86014929411054,30.882074011806658,"2022-04-12"
"浦东新区","上海市浦东新区车站新村",121.64973856569456,31.032398926315587,"2022-04-12"
"浦东新区","上海市浦东新区沉香村",121.59855105163334,31.07315362991328,"2022-04-12"
"浦东新区","上海市浦东新区陈胡村",121.77555370830271,31.200086337706974,"2022-04-12"
"浦东新区","上海市浦东新区陈家队陈家宅",121.57857947438275,31.194413133383005,"2022-04-12"
"浦东新区","上海市浦东新区陈桥村",121.5626802753311,31.18017783623941,"2022-04-12"
"浦东新区","上海市浦东新区陈邵路103号工地生活区",121.63919118651121,31.293293005844543,"2022-04-12"
"浦东新区","上海市浦东新区陈行村东陈家宅",121.76648145146576,31.197053052111507,"2022-04-12"
"浦东新区","上海市浦东新区晨晖路377弄",121.61694987559706,31.212694270152028,"2022-04-12"
"浦东新区","上海市浦东新区晨晖路725号",121.60192311085669,31.206522168753896,"2022-04-12"
"浦东新区","上海市浦东新区晨晖路825弄",121.60213861434853,31.244250205910852,"2022-04-12"
"浦东新区","上海市浦东新区晨晖路828弄",121.60213861434853,31.244250205910852,"2022-04-12"
"浦东新区","上海市浦东新区晨阳路200弄",121.75730265559538,31.181476108936714,"2022-04-12"
"浦东新区","上海市浦东新区晨阳西路150弄",121.74112749709106,31.176943623213628,"2022-04-12"
"浦东新区","上海市浦东新区成山路1066弄",121.52722271956345,31.179217231083737,"2022-04-12"
"浦东新区","上海市浦东新区成山路1339号",121.53131881302785,31.182029891034983,"2022-04-12"
"浦东新区","上海市浦东新区成山路143号",121.49798512097745,31.176820579877997,"2022-04-12"
"浦东新区","上海市浦东新区成山路1488弄",121.53343153775677,31.18197984224341,"2022-04-12"
"浦东新区","上海市浦东新区成山路2008弄",121.54348528319389,31.183276545290262,"2022-04-12"
"浦东新区","上海市浦东新区成山路2388弄",121.55237302807906,31.185659824651268,"2022-04-12"
"浦东新区","上海市浦东新区成山路24弄",121.49230899795155,31.17414687706441,"2022-04-12"
"浦东新区","上海市浦东新区成山路475弄",121.51349724018485,31.178313077688014,"2022-04-12"
"浦东新区","上海市浦东新区成山路544弄",121.51475873061251,31.174425412250987,"2022-04-12"
"浦东新区","上海市浦东新区成山路608弄",121.51511598671382,31.177611823719104,"2022-04-12"
"浦东新区","上海市浦东新区成山路648弄",121.51511598671382,31.177611823719104,"2022-04-12"
"浦东新区","上海市浦东新区成山路668弄",121.51947303792888,31.175870831284065,"2022-04-12"
"浦东新区","上海市浦东新区成山路963弄",121.52224161551062,31.179266740683868,"2022-04-12"
"浦东新区","上海市浦东新区成一村",121.83884391283875,31.069752336372705,"2022-04-12"
"浦东新区","上海市浦东新区城东路282弄",121.76954003200966,31.056242530312144,"2022-04-12"
"浦东新区","上海市浦东新区城丰路15弄",121.69708187115637,31.197356076198027,"2022-04-12"
"浦东新区","上海市浦东新区城丰路212弄",121.69319589135075,31.19656878299049,"2022-04-12"
"浦东新区","上海市浦东新区城丰路245弄",121.6933846253384,31.19550818548739,"2022-04-12"
"浦东新区","上海市浦东新区城丰路599弄",121.68633607115436,31.19324732901012,"2022-04-12"
"浦东新区","上海市浦东新区城丰路70弄",121.69583511293908,31.197620178960314,"2022-04-12"
"浦东新区","上海市浦东新区城丰路98号",121.69518114652782,31.197371906940138,"2022-04-12"
"浦东新区","上海市浦东新区城南村朱家宅",121.70598264147144,31.19406291479385,"2022-04-12"
"浦东新区","上海市浦东新区城南路356弄",121.71010200104854,31.198530246664788,"2022-04-12"
"浦东新区","上海市浦东新区城南路41弄",121.7113340629877,31.198713079628778,"2022-04-12"
"浦东新区","上海市浦东新区城南路550弄",121.703256014757,31.197110892411658,"2022-04-12"
"浦东新区","上海市浦东新区城南路627弄",121.70162621907025,31.19559058416537,"2022-04-12"
"浦东新区","上海市浦东新区储楼村",121.62147589807853,31.07406915740577,"2022-04-12"
"浦东新区","上海市浦东新区川北公路2999号",121.61894132908212,31.210795258813466,"2022-04-12"
"浦东新区","上海市浦东新区川北公路3087弄",121.61985692697317,31.21228138612905,"2022-04-12"
"浦东新区","上海市浦东新区川环南路918弄",121.70236759060764,31.192514446419413,"2022-04-12"
"浦东新区","上海市浦东新区川南奉公路5053号",121.76406429099953,31.120222543307158,"2022-04-12"
"浦东新区","上海市浦东新区川沙路1666弄",121.67243200864038,31.28581336211361,"2022-04-12"
"浦东新区","上海市浦东新区川沙路2015弄",121.65277879086253,31.290487771739045,"2022-04-12"
"浦东新区","上海市浦东新区川沙路2278弄",121.69089380382034,31.245918378759093,"2022-04-12"
"浦东新区","上海市浦东新区川沙路326弄",121.67276932235937,31.286348319613808,"2022-04-12"
"浦东新区","上海市浦东新区川沙路4586弄",121.69958688590148,31.205495427525655,"2022-04-12"
"浦东新区","上海市浦东新区川沙路4650弄",121.70311273502816,31.20415787499188,"2022-04-12"
"浦东新区","上海市浦东新区川沙路5015弄",121.65277879086253,31.290487771739045,"2022-04-12"
"浦东新区","上海市浦东新区川沙路5600弄",121.70604013302408,31.18822160088633,"2022-04-12"
"浦东新区","上海市浦东新区川沙新镇张家宅",121.76902635097555,31.176455310920424,"2022-04-12"
"浦东新区","上海市浦东新区川沙新镇朱家宅",121.70777440164164,31.20232857380201,"2022-04-12"
"浦东新区","上海市浦东新区川周公路2788号",121.63096218392499,31.14987290440756,"2022-04-12"
"浦东新区","上海市浦东新区川周公路2828弄",121.62452196223231,31.14912484831265,"2022-04-12"
"浦东新区","上海市浦东新区川周公路2928弄",121.62099799954723,31.147934683568153,"2022-04-12"
"浦东新区","上海市浦东新区川周公路3010弄",121.61762315557678,31.147196115555047,"2022-04-12"
"浦东新区","上海市浦东新区川周公路3083号",121.61405733185492,31.144310707430428,"2022-04-12"
"浦东新区","上海市浦东新区川周公路4011弄",121.59395999183295,31.131479828376055,"2022-04-12"
"浦东新区","上海市浦东新区川周公路4058弄",121.59137826179726,31.132164580808443,"2022-04-12"
"浦东新区","上海市浦东新区川周公路4293弄",121.5884997316211,31.12640218041496,"2022-04-12"
"浦东新区","上海市浦东新区川周公路4318弄",121.58742940060596,31.12689477181507,"2022-04-12"
"浦东新区","上海市浦东新区川周公路8288弄",121.71119496936254,31.18350886710539,"2022-04-12"
"浦东新区","上海市浦东新区川周公路凌空路交界口工地生活区",121.59081421576755,31.129858766635852,"2022-04-12"
"浦东新区","上海市浦东新区川周路6561弄",121.68284902882573,31.173149751390465,"2022-04-12"
"浦东新区","上海市浦东新区创新西路199弄",121.66081045059668,31.207582255485885,"2022-04-12"
"浦东新区","上海市浦东新区创新西路28弄",121.6642993793669,31.210286275536046,"2022-04-12"
"浦东新区","上海市浦东新区创新西路300弄",121.6596102246048,31.209471139848752,"2022-04-12"
"浦东新区","上海市浦东新区创新西路333弄",121.65809011202082,31.20731771752115,"2022-04-12"
"浦东新区","上海市浦东新区创新西路75弄",121.66373147062347,31.209726792242737,"2022-04-12"
"浦东新区","上海市浦东新区创新中路180弄",121.66982889893356,31.21249383149702,"2022-04-12"
"浦东新区","上海市浦东新区创新中路199弄",121.66869568653271,31.214145121289572,"2022-04-12"
"浦东新区","上海市浦东新区创新中路380弄",121.67244189000098,31.21383929476541,"2022-04-12"
"浦东新区","上海市浦东新区创新中路399弄",121.67324470563524,31.215325489578447,"2022-04-12"
"浦东新区","上海市浦东新区创新中路593弄",121.67577702886787,31.216838837693654,"2022-04-12"
"浦东新区","上海市浦东新区创业路66弄",121.58485970786411,31.120077939878794,"2022-04-12"
"浦东新区","上海市浦东新区创业路78弄",121.58485970786411,31.120077939878794,"2022-04-12"
"浦东新区","上海市浦东新区创业路87弄",121.58485970786411,31.120077939878794,"2022-04-12"
"浦东新区","上海市浦东新区春晖路276弄",121.59182516878847,31.3464065285783,"2022-04-12"
"浦东新区","上海市浦东新区春晖路289弄",121.59067273264974,31.34454230852392,"2022-04-12"
"浦东新区","上海市浦东新区春雷村东夏家宅",121.74405264932321,31.225539130288773,"2022-04-12"
"浦东新区","上海市浦东新区春泉路45弄",121.65488073592533,31.220931032067803,"2022-04-12"
"浦东新区","上海市浦东新区达秀路151号",121.66013375705602,31.243292573416156,"2022-04-12"
"浦东新区","上海市浦东新区大丰村丁家宅",121.66972460566384,31.2288207632593,"2022-04-12"
"浦东新区","上海市浦东新区大洪村徐家宅",121.74346964904723,31.19786451196395,"2022-04-12"
"浦东新区","上海市浦东新区大桥村",121.55045460683195,31.227348292436346,"2022-04-12"
"浦东新区","上海市浦东新区大同路1010弄",121.57860112354555,31.341412626376524,"2022-04-12"
"浦东新区","上海市浦东新区大同路118号",121.45839877342485,30.99357895417332,"2022-04-12"
"浦东新区","上海市浦东新区大同路868弄",121.58016004292756,31.34302732757853,"2022-04-12"
"浦东新区","上海市浦东新区大同路922弄",121.57933297304452,31.3423643180898,"2022-04-12"
"浦东新区","上海市浦东新区大团镇果园村",121.73744013263371,30.983664773262714,"2022-04-12"
"浦东新区","上海市浦东新区大星村凌家宅",121.72821121131584,31.227971358702003,"2022-04-12"
"浦东新区","上海市浦东新区大星村奚家宅",121.72821121131584,31.227971358702003,"2022-04-12"
"浦东新区","上海市浦东新区大众村沈家宅",121.60951972123236,31.206682082088673,"2022-04-12"
"浦东新区","上海市浦东新区大众村田家宅",121.65805786285301,31.230103154222878,"2022-04-12"
"浦东新区","上海市浦东新区大众村王家宅",121.53235348131425,31.22265914373994,"2022-04-12"
"浦东新区","上海市浦东新区大众村中心队西沟圈",121.65794629330867,31.234817171771624,"2022-04-12"
"浦东新区","上海市浦东新区道新村东杜家宅",121.76613901740538,31.16709130336095,"2022-04-12"
"浦东新区","上海市浦东新区道新村龚家宅",121.7662995446,31.168596778997063,"2022-04-12"
"浦东新区","上海市浦东新区道新村南金家宅",121.76663290577477,31.165019718880142,"2022-04-12"
"浦东新区","上海市浦东新区道新村邱家宅",121.66171225949816,31.17469552725319,"2022-04-12"
"浦东新区","上海市浦东新区德川路259弄",121.67468334190947,31.20108680619202,"2022-04-12"
"浦东新区","上海市浦东新区德平路100弄",121.56868266291822,31.253939981179144,"2022-04-12"
"浦东新区","上海市浦东新区德平路1065弄",121.57423419096989,31.249263047832805,"2022-04-12"
"浦东新区","上海市浦东新区德平路1088号",121.57446173175556,31.248227899624347,"2022-04-12"
"浦东新区","上海市浦东新区德平路1125弄",121.57509494730955,31.249053580204333,"2022-04-12"
"浦东新区","上海市浦东新区德平路1189弄",121.57681313625848,31.2458715286161,"2022-04-12"
"浦东新区","上海市浦东新区德平路24弄",121.56223983613957,31.2599824712324,"2022-04-12"
"浦东新区","上海市浦东新区德平路25弄",121.56473182545479,31.260091745972705,"2022-04-12"
"浦东新区","上海市浦东新区德平路34弄",121.58962611690005,31.28158489894264,"2022-04-12"
"浦东新区","上海市浦东新区德平路58弄",121.56502817644252,31.258310922203265,"2022-04-12"
"浦东新区","上海市浦东新区德州路150弄",121.49257031502441,31.17204431909572,"2022-04-12"
"浦东新区","上海市浦东新区德州路220弄",121.53688426481492,31.18970225553777,"2022-04-12"
"浦东新区","上海市浦东新区德州路223弄",121.53688426481492,31.18970225553777,"2022-04-12"
"浦东新区","上海市浦东新区德州路255弄",121.49763226657313,31.176228764666757,"2022-04-12"
"浦东新区","上海市浦东新区德州路262号",121.49929754532752,31.173466524744164,"2022-04-12"
"浦东新区","上海市浦东新区德州路380弄",121.4933411509825,31.171454327607343,"2022-04-12"
"浦东新区","上海市浦东新区德州路420弄",121.49035248855083,31.172388749436156,"2022-04-12"
"浦东新区","上海市浦东新区德州路465弄",121.53688426481492,31.18970225553777,"2022-04-12"
"浦东新区","上海市浦东新区灯塔村陆蔡家宅",121.64959510630462,31.315205711906042,"2022-04-12"
"浦东新区","上海市浦东新区邓二村谢家宅",121.7679602419963,31.147181976158844,"2022-04-12"
"浦东新区","上海市浦东新区邓三村北顾家宅",121.76701989578847,31.14069331387061,"2022-04-12"
"浦东新区","上海市浦东新区邓三村南王家宅",121.55380142367048,31.162845112362536,"2022-04-12"
"浦东新区","上海市浦东新区邓三村石家宅",121.76269500391066,31.137858860060753,"2022-04-12"
"浦东新区","上海市浦东新区邓一村石家宅",121.76269500391066,31.137858860060753,"2022-04-12"
"浦东新区","上海市浦东新区邓一村邬家宅",121.75638458736418,31.142501487193847,"2022-04-12"
"浦东新区","上海市浦东新区荻山村安南队王家圈",121.5450845364933,31.141903969388537,"2022-04-12"
"浦东新区","上海市浦东新区叠桥村",121.62282874617655,31.13384997321586,"2022-04-12"
"浦东新区","上海市浦东新区丁香路1299弄",121.56935998527274,31.236016885940792,"2022-04-12"
"浦东新区","上海市浦东新区丁香路1399弄",121.57049679089563,31.236774283462957,"2022-04-12"
"浦东新区","上海市浦东新区丁香路1599弄",121.57230687649823,31.233862298835515,"2022-04-12"
"浦东新区","上海市浦东新区丁香路910弄",121.56039202170554,31.231240477950827,"2022-04-12"
"浦东新区","上海市浦东新区东波路325弄",121.58954131685991,31.290262195768317,"2022-04-12"
"浦东新区","上海市浦东新区东昌路490弄",121.5197235753356,31.23752233486166,"2022-04-12"
"浦东新区","上海市浦东新区东方路1800弄",121.5284736099861,31.209089242825165,"2022-04-12"
"浦东新区","上海市浦东新区东方路1888弄",121.52753937225572,31.205595808829546,"2022-04-12"
"浦东新区","上海市浦东新区东方路1957弄",121.52716208394153,31.20301674735678,"2022-04-12"
"浦东新区","上海市浦东新区东方路3344弄",121.52063023508683,31.197538785966152,"2022-04-12"
"浦东新区","上海市浦东新区东方路573弄",121.53133354523821,31.237684588126452,"2022-04-12"
"浦东新区","上海市浦东新区东风村奚家宅",121.71033261330244,31.235344555116807,"2022-04-12"
"浦东新区","上海市浦东新区东高路152号",121.58309031550111,31.29591925125039,"2022-04-12"
"浦东新区","上海市浦东新区东高路26弄",121.58267206445566,31.294097375993264,"2022-04-12"
"浦东新区","上海市浦东新区东沟三村",121.58073810252323,31.298450778787142,"2022-04-12"
"浦东新区","上海市浦东新区东海村曹家宅",121.6806459345625,31.30709827726155,"2022-04-12"
"浦东新区","上海市浦东新区东海村胡家宅",121.67786990104503,31.30705492876369,"2022-04-12"
"浦东新区","上海市浦东新区东海村张家宅",121.67786990104503,31.30705492876369,"2022-04-12"
"浦东新区","上海市浦东新区东建路348号",121.54043903937901,31.206553286628463,"2022-04-12"
"浦东新区","上海市浦东新区东建路680弄",121.52969618510942,31.207201251711854,"2022-04-12"
"浦东新区","上海市浦东新区东靖路247弄",121.58407117528745,31.298685745986468,"2022-04-12"
"浦东新区","上海市浦东新区东靖路374弄",121.58639643910003,31.296492721498744,"2022-04-12"
"浦东新区","上海市浦东新区东康名苑",121.63093855849009,31.148392161687806,"2022-04-12"
"浦东新区","上海市浦东新区东陆路1018弄",121.59902095524562,31.277911928226455,"2022-04-12"
"浦东新区","上海市浦东新区东陆路1182弄",121.60235600428196,31.275368269875603,"2022-04-12"
"浦东新区","上海市浦东新区东陆路1268弄",121.60156055475287,31.272878863483545,"2022-04-12"
"浦东新区","上海市浦东新区东陆路1350弄",121.58962611690005,31.28158489894264,"2022-04-12"
"浦东新区","上海市浦东新区东陆路1456弄",121.58962611690005,31.28158489894264,"2022-04-12"
"浦东新区","上海市浦东新区东陆路1485弄",121.60853931059879,31.27364560741404,"2022-04-12"
"浦东新区","上海市浦东新区东陆路1528弄",121.60840555290835,31.272890360445157,"2022-04-12"
"浦东新区","上海市浦东新区东陆路1755弄",121.61732842153897,31.269241122913556,"2022-04-12"
"浦东新区","上海市浦东新区东陆路2000弄",121.61592365138246,31.267711183214853,"2022-04-12"
"浦东新区","上海市浦东新区东陆路429弄",121.59239119109031,31.286284671095828,"2022-04-12"
"浦东新区","上海市浦东新区东陆路898弄",121.59898160946427,31.280897766199242,"2022-04-12"
"浦东新区","上海市浦东新区东门路500弄",121.77622707811298,31.05149254506408,"2022-04-12"
"浦东新区","上海市浦东新区东明村池河队养鸭滩",121.52665669726161,31.17003595372565,"2022-04-12"
"浦东新区","上海市浦东新区东明村西康队康家宅",121.53576515581058,31.169821442313022,"2022-04-12"
"浦东新区","上海市浦东新区东明路355弄",121.51669511796983,31.18945566158956,"2022-04-12"
"浦东新区","上海市浦东新区东明路383弄",121.51666089252988,31.18856805701816,"2022-04-12"
"浦东新区","上海市浦东新区东明路511弄",121.51733183691529,31.186186319019924,"2022-04-12"
"浦东新区","上海市浦东新区东明路560弄",121.52969618510942,31.207201251711854,"2022-04-12"
"浦东新区","上海市浦东新区东三街102弄",121.51710618257118,31.20763978042601,"2022-04-12"
"浦东新区","上海市浦东新区东三街15弄",121.5137983521918,31.206974419328482,"2022-04-12"
"浦东新区","上海市浦东新区东三里桥路79弄",121.51530166646273,31.20609578333686,"2022-04-12"
"浦东新区","上海市浦东新区东书房路390弄",121.5416177958692,31.16966648705868,"2022-04-12"
"浦东新区","上海市浦东新区东书房路560弄",121.54307367960921,31.167733309908424,"2022-04-12"
"浦东新区","上海市浦东新区东泰林路799弄",121.55031141693367,31.14966815921915,"2022-04-12"
"浦东新区","上海市浦东新区东亭路836弄",121.75966600756158,31.1767994933391,"2022-04-12"
"浦东新区","上海市浦东新区东钟文宅",121.65212078207647,31.324259151415855,"2022-04-12"
"浦东新区","上海市浦东新区峨山路280弄",121.53440970262659,31.220273408639333,"2022-04-12"
"浦东新区","上海市浦东新区繁锦路688弄",121.58962611690005,31.28158489894264,"2022-04-12"
"浦东新区","上海市浦东新区繁荣东路159弄",121.59187017389452,31.112814326185486,"2022-04-12"
"浦东新区","上海市浦东新区范桥村",121.6391556284815,31.063877148672805,"2022-04-12"
"浦东新区","上海市浦东新区芳草路258号",121.56304902974296,31.19953351173709,"2022-04-12"
"浦东新区","上海市浦东新区芳华路229弄",121.56081054224263,31.202551968217783,"2022-04-12"
"浦东新区","上海市浦东新区芳华路310弄",121.56401821155765,31.201334527828102,"2022-04-12"
"浦东新区","上海市浦东新区芳华路630弄",121.55655904192501,31.200205103357757,"2022-04-12"
"浦东新区","上海市浦东新区芳华路63号",121.55817159014597,31.20073105268403,"2022-04-12"
"浦东新区","上海市浦东新区芳芯路251弄",121.5630040246369,31.19846669279656,"2022-04-12"
"浦东新区","上海市浦东新区飞桥村",121.6188211358049,31.047104149006337,"2022-04-12"
"浦东新区","上海市浦东新区丰乐村",121.69316382184405,31.079587573682847,"2022-04-12"
"浦东新区","上海市浦东新区福山路100弄",121.53377469046157,31.238417889095363,"2022-04-12"
"浦东新区","上海市浦东新区福山路102弄",121.53400762108032,31.237370810745112,"2022-04-12"
"浦东新区","上海市浦东新区福山路111弄",121.53454615523356,31.237997901317506,"2022-04-12"
"浦东新区","上海市浦东新区福山路40弄",121.53090649079877,31.242456421863974,"2022-04-12"
"浦东新区","上海市浦东新区福山路49弄",121.53247097967495,31.244225892802888,"2022-04-12"
"浦东新区","上海市浦东新区福山路651弄",121.52969618510942,31.207201251711854,"2022-04-12"
"浦东新区","上海市浦东新区富强村",121.77243425258874,31.03565606179299,"2022-04-12"
"浦东新区","上海市浦东新区高宝路379弄",121.58962611690005,31.28158489894264,"2022-04-12"
"浦东新区","上海市浦东新区高宝路528弄",121.58962611690005,31.28158489894264,"2022-04-12"
"浦东新区","上海市浦东新区高宝路68弄",121.62729152795012,31.29737066259963,"2022-04-12"
"浦东新区","上海市浦东新区高东二路118弄",121.63203026917635,31.32990867036808,"2022-04-12"
"浦东新区","上海市浦东新区高东二路47弄",121.62814150462366,31.330491493692474,"2022-04-12"
"浦东新区","上海市浦东新区高东新路115弄",121.62393734500641,31.33750544564541,"2022-04-12"
"浦东新区","上海市浦东新区高东镇南杨家宅",121.63353133768352,31.321220716119758,"2022-04-12"
"浦东新区","上海市浦东新区高科西路2111弄",121.5423303317997,31.194181224726066,"2022-04-12"
"浦东新区","上海市浦东新区高科西路2907弄",121.56493636961942,31.19557081466723,"2022-04-12"
"浦东新区","上海市浦东新区高科中路2947弄",121.64283499801981,31.211193826614693,"2022-04-12"
"浦东新区","上海市浦东新区高攀路149弄",121.54084704974164,31.36825981525934,"2022-04-12"
"浦东新区","上海市浦东新区高桥村丁家宅",121.82634578827842,30.92227747900876,"2022-04-12"
"浦东新区","上海市浦东新区高桥村钱家宅",121.73491822974499,31.167107988943496,"2022-04-12"
"浦东新区","上海市浦东新区高桥村唐家宅",121.82634578827842,30.92227747900876,"2022-04-12"
"浦东新区","上海市浦东新区高桥村西汤家宅",121.82634578827842,30.92227747900876,"2022-04-12"
"浦东新区","上海市浦东新区高桥镇瞿家宅",121.60846169700272,31.293221641276308,"2022-04-12"
"浦东新区","上海市浦东新区高桥镇沈家宅",121.55850126826813,31.362552263234768,"2022-04-12"
"浦东新区","上海市浦东新区高桥镇西浜头",121.61563583429707,31.292504199206448,"2022-04-12"
"浦东新区","上海市浦东新区高桥镇姚家宅",121.59081475475085,31.349738423472427,"2022-04-12"
"浦东新区","上海市浦东新区高青路4567弄",121.53688426481492,31.18970225553777,"2022-04-12"
"浦东新区","上海市浦东新区高斯路1296弄",121.62431526213446,31.205968685823215,"2022-04-12"
"浦东新区","上海市浦东新区高斯路986弄",121.61793711335253,31.206653975660434,"2022-04-12"
"浦东新区","上海市浦东新区高西村",121.62881990494479,31.16237271781684,"2022-04-12"
"浦东新区","上海市浦东新区龚华路35弄",121.65277879086253,31.290487771739045,"2022-04-12"
"浦东新区","上海市浦东新区龚华路425弄",121.65277879086253,31.290487771739045,"2022-04-12"
"浦东新区","上海市浦东新区龚华路479弄",121.69382398656333,31.26551897447492,"2022-04-12"
"浦东新区","上海市浦东新区龚华路50弄",121.69183253307827,31.27058283787956,"2022-04-12"
"浦东新区","上海市浦东新区拱海路240弄",121.7468341625043,31.075214482134594,"2022-04-12"
"浦东新区","上海市浦东新区拱海路78弄",121.77485958763513,31.060910455271795,"2022-04-12"
"浦东新区","上海市浦东新区拱极路3058弄",121.76557847476714,31.060400427012322,"2022-04-12"
"浦东新区","上海市浦东新区拱极路3335弄",121.76300321253115,31.059690249628925,"2022-04-12"
"浦东新区","上海市浦东新区拱极路4100弄",121.77485958763513,31.060910455271795,"2022-04-12"
"浦东新区","上海市浦东新区拱乐路698弄",121.77709385309956,31.06964198907137,"2022-04-12"
"浦东新区","上海市浦东新区拱鸣路95弄",121.77485958763513,31.060910455271795,"2022-04-12"
"浦东新区","上海市浦东新区拱泰路29弄",121.76773728256873,31.064268452593392,"2022-04-12"
"浦东新区","上海市浦东新区拱为路2600弄",121.74541825335946,31.063557763042446,"2022-04-12"
"浦东新区","上海市浦东新区共和村高家宅",121.74016397460105,31.17659805099963,"2022-04-12"
"浦东新区","上海市浦东新区共一村陆家宅",121.72958229501573,31.251354302448412,"2022-04-12"
"浦东新区","上海市浦东新区顾东村",121.66813478457229,31.299381001669992,"2022-04-12"
"浦东新区","上海市浦东新区顾东村胡家宅",121.66813478457229,31.299381001669992,"2022-04-12"
"浦东新区","上海市浦东新区顾东村新屋宅",121.66573451224963,31.301817865497682,"2022-04-12"
"浦东新区","上海市浦东新区顾家圩村",121.55291641308204,31.370953481246723,"2022-04-12"
"浦东新区","上海市浦东新区顾三村西蔡家宅",121.67513429127548,31.16686172180349,"2022-04-12"
"浦东新区","上海市浦东新区顾唐路138弄",121.65277879086253,31.290487771739045,"2022-04-12"
"浦东新区","上海市浦东新区崮山路157号",121.55848599707447,31.253071819138345,"2022-04-12"
"浦东新区","上海市浦东新区崮山路201号",121.55921865504841,31.252590155131383,"2022-04-12"
"浦东新区","上海市浦东新区崮山路251弄",121.56005946900574,31.252282833521154,"2022-04-12"
"浦东新区","上海市浦东新区崮山路322弄",121.5592861177922,31.251792753021967,"2022-04-12"
"浦东新区","上海市浦东新区崮山路717号",121.56675642641318,31.2457458744099,"2022-04-12"
"浦东新区","上海市浦东新区崮山路73号",121.55715560661419,31.25365573984125,"2022-04-12"
"浦东新区","上海市浦东新区崮山路908号",121.56813451689604,31.242554139213205,"2022-04-12"
"浦东新区","上海市浦东新区关岳路159弄",121.59259465728833,31.125905567769568,"2022-04-12"
"浦东新区","上海市浦东新区关岳路181弄",121.59338911868134,31.12613470853981,"2022-04-12"
"浦东新区","上海市浦东新区关岳路39弄",121.58874128597272,31.12524194512442,"2022-04-12"
"浦东新区","上海市浦东新区观海路1588弄",121.77485958763513,31.060910455271795,"2022-04-12"
"浦东新区","上海市浦东新区光辉村",121.71870938478405,31.06985788920638,"2022-04-12"
"浦东新区","上海市浦东新区光明村李家圈",121.66406707756201,31.290130969550965,"2022-04-12"
"浦东新区","上海市浦东新区光明村凌家圈",121.66529263576926,31.295885077434527,"2022-04-12"
"浦东新区","上海市浦东新区光明村葡萄园",121.66490052541417,31.29664029270497,"2022-04-12"
"浦东新区","上海市浦东新区光明村沙桥宅",121.65818551206597,31.29296768284297,"2022-04-12"
"浦东新区","上海市浦东新区光明村施家宅",121.66490052541417,31.29664029270497,"2022-04-12"
"浦东新区","上海市浦东新区光明村双盘宅",121.65932860582741,31.296363355434945,"2022-04-12"
"浦东新区","上海市浦东新区光明路222弄",121.62230296796156,31.337702069276634,"2022-04-12"
"浦东新区","上海市浦东新区光耀村杜家宅",121.66795835737013,31.28235728072298,"2022-04-12"
"浦东新区","上海市浦东新区光耀村姚湾宅",121.66282714646658,31.281753788082668,"2022-04-12"
"浦东新区","上海市浦东新区光泽路428弄",121.62307622934456,31.336400104686092,"2022-04-12"
"浦东新区","上海市浦东新区光泽路429弄",121.62474869454303,31.336184046972157,"2022-04-12"
"浦东新区","上海市浦东新区国展路1099号工地生活区",121.49642224905118,31.188057640036867,"2022-04-12"
"浦东新区","上海市浦东新区国展路1776号工地生活区",121.49656676797295,31.188922647488646,"2022-04-12"
"浦东新区","上海市浦东新区国展路812号工地生活区",121.49157762040221,31.186525726091563,"2022-04-12"
"浦东新区","上海市浦东新区海春路150弄",121.59261513865395,31.354915900397863,"2022-04-12"
"浦东新区","上海市浦东新区海基五路海洋六路交界口工地生活区",121.894828827476,30.900192727463445,"2022-04-12"
"浦东新区","上海市浦东新区海鸣路98弄",121.6775482178419,31.28862783374773,"2022-04-12"
"浦东新区","上海市浦东新区海鹏路301弄",121.68073091426376,31.295363983048894,"2022-04-12"
"浦东新区","上海市浦东新区海鹏路380弄",121.67648363598202,31.293987138169218,"2022-04-12"
"浦东新区","上海市浦东新区海鹏路529弄",121.67682840563677,31.294185087870826,"2022-04-12"
"浦东新区","上海市浦东新区海容路399弄",121.68625863721941,31.287655457702563,"2022-04-12"
"浦东新区","上海市浦东新区海顺路359弄",121.68936776241998,31.2816070420314,"2022-04-12"
"浦东新区","上海市浦东新区海松路398弄",121.68749075305689,31.283934428831106,"2022-04-12"
"浦东新区","上海市浦东新区海松路421弄",121.68724659361928,31.286058313469407,"2022-04-12"
"浦东新区","上海市浦东新区海松路52弄",121.68181436053933,31.28191619603565,"2022-04-12"
"浦东新区","上海市浦东新区海桐路61弄",121.55697657432606,31.21027484808847,"2022-04-12"
"浦东新区","上海市浦东新区海阳路1065弄",121.51253497532255,31.16475645125977,"2022-04-12"
"浦东新区","上海市浦东新区海阳路1080弄",121.51343947914056,31.16413535922777,"2022-04-12"
"浦东新区","上海市浦东新区海阳路1125弄",121.51526025457873,31.165597159209877,"2022-04-12"
"浦东新区","上海市浦东新区海阳路1333弄",121.51957697187638,31.16616887957148,"2022-04-12"
"浦东新区","上海市浦东新区海阳路215弄",121.49560461137601,31.159262270593285,"2022-04-12"
"浦东新区","上海市浦东新区海阳路445弄",121.50053909337286,31.16070985464262,"2022-04-12"
"浦东新区","上海市浦东新区海阳路815弄",121.50842495812276,31.164245363887332,"2022-04-12"
"浦东新区","上海市浦东新区海阳路860弄",121.50955529594596,31.16321761869808,"2022-04-12"
"浦东新区","上海市浦东新区韩荡村汤家宅",121.61058026071746,31.159022163234475,"2022-04-12"
"浦东新区","上海市浦东新区航昌路376弄",121.61521767308216,31.084972297071307,"2022-04-12"
"浦东新区","上海市浦东新区航昌路489弄",121.61637509481649,31.080440873866234,"2022-04-12"
"浦东新区","上海市浦东新区航城七路450弄",121.76550050184888,31.148175591932038,"2022-04-12"
"浦东新区","上海市浦东新区航城三路86弄",121.75078428132332,31.15442207275794,"2022-04-12"
"浦东新区","上海市浦东新区航城五路151弄",121.75421535921869,31.148331664371444,"2022-04-12"
"浦东新区","上海市浦东新区航定路568弄",121.59669164905823,31.032990409747207,"2022-04-12"
"浦东新区","上海市浦东新区航东村",121.60773721360891,31.03214843823002,"2022-04-12"
"浦东新区","上海市浦东新区航鹤路1700弄",121.59218161641483,31.05361961150756,"2022-04-12"
"浦东新区","上海市浦东新区航鹤路89弄",121.59296404051402,31.02797714909172,"2022-04-12"
"浦东新区","上海市浦东新区航梅路525弄",121.5806510567193,31.03066676980315,"2022-04-12"
"浦东新区","上海市浦东新区航梅路526弄",121.58752462099001,31.028592642453045,"2022-04-12"
"浦东新区","上海市浦东新区航亭环路158号工地生活区",121.77185601333197,31.10770235457041,"2022-04-12"
"浦东新区","上海市浦东新区航亭环路399弄",121.76848242698925,31.105525647466997,"2022-04-12"
"浦东新区","上海市浦东新区航头镇果园村",121.64244189952865,31.025361102765,"2022-04-12"
"浦东新区","上海市浦东新区航头镇梅园村",121.59123174816858,31.06555502677004,"2022-04-12"
"浦东新区","上海市浦东新区航头镇郑庄村",121.5933624390077,31.03943583786847,"2022-04-12"
"浦东新区","上海市浦东新区航兴北路95弄",121.60089491036997,31.03327601616537,"2022-04-12"
"浦东新区","上海市浦东新区合庆镇赵家宅",121.72998850876732,31.243208518641033,"2022-04-12"
"浦东新区","上海市浦东新区和佳路105弄",121.52030208408404,31.133297374938646,"2022-04-12"
"浦东新区","上海市浦东新区和炯路601弄",121.5159549142296,31.130611149249244,"2022-04-12"
"浦东新区","上海市浦东新区和炯路77弄",121.52553031198265,31.139159418419815,"2022-04-12"
"浦东新区","上海市浦东新区和龙路218号",121.57862510830266,31.34814843305594,"2022-04-12"
"浦东新区","上海市浦东新区和平村罗家宅",121.64117457011517,31.076888446741915,"2022-04-12"
"浦东新区","上海市浦东新区和平村钱家宅",121.73625113546069,31.20555766394675,"2022-04-12"
"浦东新区","上海市浦东新区菏泽路25弄",121.59678004232042,31.279692532722535,"2022-04-12"
"浦东新区","上海市浦东新区菏泽路418弄",121.59991962007778,31.27295023721562,"2022-04-12"
"浦东新区","上海市浦东新区菏泽路567弄",121.60177210044444,31.270406002106668,"2022-04-12"
"浦东新区","上海市浦东新区鹤驰路88弄",121.600970727355,31.086394893804805,"2022-04-12"
"浦东新区","上海市浦东新区鹤驰路99弄",121.59974166575626,31.084967271555595,"2022-04-12"
"浦东新区","上海市浦东新区鹤东村",121.60297826050872,31.06114895730399,"2022-04-12"
"浦东新区","上海市浦东新区沿江村",121.60803796629367,31.060273364197414,"2022-04-12"
"浦东新区","上海市浦东新区鹤洁路138弄",121.60424523059997,31.075308430310802,"2022-04-12"
"浦东新区","上海市浦东新区鹤鸣村",121.60056208817852,31.050200132685855,"2022-04-12"
"浦东新区","上海市浦东新区鹤沙路201弄",121.6058805957809,31.087527234505693,"2022-04-12"
"浦东新区","上海市浦东新区鹤韵路549弄",121.60366501507109,31.080751851766777,"2022-04-12"
"浦东新区","上海市浦东新区横沔江路116弄",121.63967431008297,31.185167309932236,"2022-04-12"
"浦东新区","上海市浦东新区横桥路118弄",121.58411510242689,31.11546349750111,"2022-04-12"
"浦东新区","上海市浦东新区红旗村陈家宅",121.76031278752876,31.174451442812664,"2022-04-12"
"浦东新区","上海市浦东新区红旗村东桥队毛家塘",121.50789055617487,31.133660107274697,"2022-04-12"
"浦东新区","上海市浦东新区红旗村姜胡宅队江湖宅",121.50020627118141,31.126931789483034,"2022-04-12"
"浦东新区","上海市浦东新区红旗村李家队李家油车",121.49825739737753,31.130522124833654,"2022-04-12"
"浦东新区","上海市浦东新区红旗村余家宅",121.76031278752876,31.174451442812664,"2022-04-12"
"浦东新区","上海市浦东新区红桥村",121.6399521559772,31.108110249652228,"2022-04-12"
"浦东新区","上海市浦东新区红一村",121.7712909791662,31.0958843007522,"2022-04-12"
"浦东新区","上海市浦东新区虹三村龚家宅",121.67957668151398,31.259966342393376,"2022-04-12"
"浦东新区","上海市浦东新区虹三村赵家宅",121.67957668151398,31.259966342393376,"2022-04-12"
"浦东新区","上海市浦东新区虹盛路107弄",121.68813941946564,31.24425198115341,"2022-04-12"
"浦东新区","上海市浦东新区虹盛路160弄",121.68811157199482,31.24445335518812,"2022-04-12"
"浦东新区","上海市浦东新区虹四村卫家宅",121.59223353847332,31.23769060893676,"2022-04-12"
"浦东新区","上海市浦东新区虹四村吴张家宅",121.65836822740671,31.246790543527457,"2022-04-12"
"浦东新区","上海市浦东新区洪山路180弄",121.50558209067532,31.182015139001965,"2022-04-12"
"浦东新区","上海市浦东新区洪山路237弄",121.50688247773158,31.178985516539065,"2022-04-12"
"浦东新区","上海市浦东新区洪山路851弄",121.51121177130636,31.166624337590093,"2022-04-12"
"浦东新区","上海市浦东新区胡桥村",121.69652231665421,31.047419413712582,"2022-04-12"
"浦东新区","上海市浦东新区胡巷村金家宅",121.52500489308987,31.158715770519464,"2022-04-12"
"浦东新区","上海市浦东新区沪南公路2688弄",121.57105805217824,31.137466084958678,"2022-04-12"
"浦东新区","上海市浦东新区沪南公路3219号",121.57466897083671,31.129971825336472,"2022-04-12"
"浦东新区","上海市浦东新区沪南公路4789弄",121.59647003708892,31.076126819346666,"2022-04-12"
"浦东新区","上海市浦东新区沪南公路5192号",121.5953829975913,31.058301819203898,"2022-04-12"
"浦东新区","上海市浦东新区沪南路2518弄",121.53688426481492,31.18970225553777,"2022-04-12"
"浦东新区","上海市浦东新区沪南路4851弄",121.53688426481492,31.18970225553777,"2022-04-12"
"浦东新区","上海市浦东新区沪一小区",121.59052954275143,31.27583955442008,"2022-04-12"
"浦东新区","上海市浦东新区花木路500弄",121.54909843500354,31.21781187340708,"2022-04-12"
"浦东新区","上海市浦东新区花墙村",121.55274169266035,31.156328175262196,"2022-04-12"
"浦东新区","上海市浦东新区花山路1001弄",121.588490748566,31.3561458336138,"2022-04-12"
"浦东新区","上海市浦东新区花山路333弄",121.57510240324528,31.352382590745112,"2022-04-12"
"浦东新区","上海市浦东新区花山路618弄",121.58301925953528,31.35294877524317,"2022-04-12"
"浦东新区","上海市浦东新区花园石桥路28弄",121.50753410854851,31.239186613907332,"2022-04-12"
"浦东新区","上海市浦东新区华丰路50弄",121.51450495930594,31.197495463859788,"2022-04-12"
"浦东新区","上海市浦东新区华鹏路390弄",121.53233048469319,31.17833987955854,"2022-04-12"
"浦东新区","上海市浦东新区华夏东路2139弄",121.69924472133273,31.206321716887274,"2022-04-12"
"浦东新区","上海市浦东新区华夏东路860弄",121.67234154927552,31.20033012373384,"2022-04-12"
"浦东新区","上海市浦东新区华夏东路孙东路交界口工地生活区",121.71529744079605,31.2073266744522,"2022-04-12"
"浦东新区","上海市浦东新区华夏二路1278弄",121.69602645201269,31.181511714829725,"2022-04-12"
"浦东新区","上海市浦东新区华夏二路1500弄",121.6970799847148,31.178171884998676,"2022-04-12"
"浦东新区","上海市浦东新区华夏二路350弄",121.69105999033968,31.198575884956675,"2022-04-12"
"浦东新区","上海市浦东新区华夏三路299弄",121.68553990298088,31.198713571919157,"2022-04-12"
"浦东新区","上海市浦东新区华星村东宋家宅",121.70947085159723,31.208492303617756,"2022-04-12"
"浦东新区","上海市浦东新区华星村西宋家宅",121.70947085159723,31.208492303617756,"2022-04-12"
"浦东新区","上海市浦东新区华绣路179弄",121.53195032180136,31.190764154415543,"2022-04-12"
"浦东新区","上海市浦东新区环东中心村四灶姚家宅",121.65826429345921,31.19680555082436,"2022-04-12"
"浦东新区","上海市浦东新区环林东路271弄",121.53316411220645,31.155298952705344,"2022-04-12"
"浦东新区","上海市浦东新区环林西路613弄",121.53057519572668,31.14668408261998,"2022-04-12"
"浦东新区","上海市浦东新区环桥路1136弄",121.58485970786411,31.120077939878794,"2022-04-12"
"浦东新区","上海市浦东新区环桥路1137弄",121.58485970786411,31.120077939878794,"2022-04-12"
"浦东新区","上海市浦东新区环桥路1481弄",121.58485970786411,31.120077939878794,"2022-04-12"
"浦东新区","上海市浦东新区环桥路1488弄",121.58485970786411,31.120077939878794,"2022-04-12"
"浦东新区","上海市浦东新区环庆东路820弄",121.73639279823962,31.237007398873367,"2022-04-12"
"浦东新区","上海市浦东新区环庆南路239弄",121.73137998400229,31.234790849212583,"2022-04-12"
"浦东新区","上海市浦东新区环庆南路336弄",121.7346897906538,31.23247181041194,"2022-04-12"
"浦东新区","上海市浦东新区环庆中路168弄",121.7280142129175,31.239109425236762,"2022-04-12"
"浦东新区","上海市浦东新区环镇东路185弄",121.61084795575943,31.0264618393061,"2022-04-12"
"浦东新区","上海市浦东新区环镇东路200弄",121.61055241324665,31.02659962387937,"2022-04-12"
"浦东新区","上海市浦东新区黄华村",121.8835299407715,30.977847150075128,"2022-04-12"
"浦东新区","上海市浦东新区黄楼村华家宅",121.67026745168353,31.168147433085426,"2022-04-12"
"浦东新区","上海市浦东新区黄楼村周黄家宅",121.63894416736446,31.059057171820783,"2022-04-12"
"浦东新区","上海市浦东新区汇华路2弄",121.74277930126281,31.20013653127087,"2022-04-12"
"浦东新区","上海市浦东新区汇南村",121.74898102284259,31.041389909445435,"2022-04-12"
"浦东新区","上海市浦东新区会龙村",121.72001938370924,31.100736018736946,"2022-04-12"
"浦东新区","上海市浦东新区惠东村",121.7830716271157,31.046320700815905,"2022-04-12"
"浦东新区","上海市浦东新区惠东路300弄",121.77742784308816,31.048886200601984,"2022-04-12"
"浦东新区","上海市浦东新区火箭村",121.61498941365208,31.14512934591589,"2022-04-12"
"浦东新区","上海市浦东新区藿香路238弄",121.60213861434853,31.244250205910852,"2022-04-12"
"浦东新区","上海市浦东新区机口村北费家宅",121.66677699579395,31.218435852424488,"2022-04-12"
"浦东新区","上海市浦东新区吉灿路17弄",121.71289573118457,31.116515338861625,"2022-04-12"
"浦东新区","上海市浦东新区季景北路185弄",121.59110032607248,31.348164315361803,"2022-04-12"
"浦东新区","上海市浦东新区季景路19弄",121.59338067460956,31.34651061354801,"2022-04-12"
"浦东新区","上海市浦东新区季景路259弄",121.59623279460374,31.342344348315745,"2022-04-12"
"浦东新区","上海市浦东新区季景路333弄",121.59761771220847,31.340393689407513,"2022-04-12"
"浦东新区","上海市浦东新区季景路370弄",121.59585865035882,31.342088287628954,"2022-04-12"
"浦东新区","上海市浦东新区济阳路65弄",121.48830893334616,31.173016198002603,"2022-04-12"
"浦东新区","上海市浦东新区佳乐路77弄",121.58962611690005,31.28158489894264,"2022-04-12"
"浦东新区","上海市浦东新区佳林路82弄",121.61235917511885,31.275853751560025,"2022-04-12"
"浦东新区","上海市浦东新区佳林路919弄",121.61825789825012,31.270835776924955,"2022-04-12"
"浦东新区","上海市浦东新区建光村倪家宅",121.75372910644613,31.218350771640285,"2022-04-12"
"浦东新区","上海市浦东新区建中路126弄",121.62086558931504,31.209758372329954,"2022-04-12"
"浦东新区","上海市浦东新区建中路242弄",121.61848103733881,31.20858789444908,"2022-04-12"
"浦东新区","上海市浦东新区建中路285弄",121.52553031198265,31.139159418419815,"2022-04-12"
"浦东新区","上海市浦东新区江东路1075弄",121.5452249416445,31.373269234769598,"2022-04-12"
"浦东新区","上海市浦东新区江东路1217弄",121.54692606278877,31.37199119938643,"2022-04-12"
"浦东新区","上海市浦东新区江东路25号",121.55593013823747,31.368827676072844,"2022-04-12"
"浦东新区","上海市浦东新区江晖路296弄",121.74378702038389,31.179845869758992,"2022-04-12"
"浦东新区","上海市浦东新区江绣路59弄",121.74566061319169,31.174232291519893,"2022-04-12"
"浦东新区","上海市浦东新区江耀路123弄",121.48339160898455,31.15822458212775,"2022-04-12"
"浦东新区","上海市浦东新区胶东路657弄",121.6051786598554,31.26519865412464,"2022-04-12"
"浦东新区","上海市浦东新区胶东路818弄",121.60741481176139,31.266421128345605,"2022-04-12"
"浦东新区","上海市浦东新区界龙村戴家宅",121.62911760339081,31.349474904656457,"2022-04-12"
"浦东新区","上海市浦东新区界龙村费家宅",121.69242190503522,31.1779911279228,"2022-04-12"
"浦东新区","上海市浦东新区界龙村孙家宅",121.69261199276927,31.176436773231853,"2022-04-12"
"浦东新区","上海市浦东新区界龙村吴陆家宅",121.73563346059203,31.112557095596284,"2022-04-12"
"浦东新区","上海市浦东新区金港路龙东大道交界口工地生活区",121.65799345434795,31.23341820626681,"2022-04-12"
"浦东新区","上海市浦东新区金高路2131弄",121.61704653326993,31.267471971131776,"2022-04-12"
"浦东新区","上海市浦东新区金高路988弄",121.61620527015982,31.292764484741046,"2022-04-12"
"浦东新区","上海市浦东新区金工路172弄",121.59656480832024,31.262466587897183,"2022-04-12"
"浦东新区","上海市浦东新区金海路3333弄",121.66935504277704,31.276255900084443,"2022-04-12"
"浦东新区","上海市浦东新区金沪路1218弄",121.61069129127848,31.246915347325004,"2022-04-12"
"浦东新区","上海市浦东新区金吉路33弄",121.65277879086253,31.290487771739045,"2022-04-12"
"浦东新区","上海市浦东新区金家浜",121.56486576280632,31.263202163919217,"2022-04-12"
"浦东新区","上海市浦东新区金口路155弄",121.58424499740363,31.25593427683329,"2022-04-12"
"浦东新区","上海市浦东新区金口路471弄",121.58930820658007,31.25260682548617,"2022-04-12"
"浦东新区","上海市浦东新区金口路53弄",121.58303381208452,31.256732646879147,"2022-04-12"
"浦东新区","上海市浦东新区金葵路1315弄",121.60213861434853,31.244250205910852,"2022-04-12"
"浦东新区","上海市浦东新区金葵路945弄",121.60213861434853,31.244250205910852,"2022-04-12"
"浦东新区","上海市浦东新区金陵村",121.78971989636449,30.996952505678358,"2022-04-12"
"浦东新区","上海市浦东新区金明村",121.62144903874378,31.24040904239046,"2022-04-12"
"浦东新区","上海市浦东新区金睦路353弄",121.68155771465513,31.29351069944203,"2022-04-12"
"浦东新区","上海市浦东新区金桥路1498弄",121.59570477062498,31.256519645967902,"2022-04-12"
"浦东新区","上海市浦东新区金桥路301弄",121.57861711338361,31.27287901780519,"2022-04-12"
"浦东新区","上海市浦东新区金桥路351弄",121.57962303589369,31.273050854795017,"2022-04-12"
"浦东新区","上海市浦东新区金桥路530弄",121.62178482534341,31.26066381567406,"2022-04-12"
"浦东新区","上海市浦东新区金桥路835弄",121.62178482534341,31.26066381567406,"2022-04-12"
"浦东新区","上海市浦东新区金桥路989弄",121.62178482534341,31.26066381567406,"2022-04-12"
"浦东新区","上海市浦东新区金石村",121.78842588727738,30.96274444219653,"2022-04-12"
"浦东新区","上海市浦东新区金台路115弄",121.59090395648799,31.25565343726163,"2022-04-12"
"浦东新区","上海市浦东新区金台路200弄",121.59422157839744,31.257084483190823,"2022-04-12"
"浦东新区","上海市浦东新区金晓路289弄",121.68460809067537,31.28122952865363,"2022-04-12"
"浦东新区","上海市浦东新区金晓路96弄",121.68123198907722,31.283805739728272,"2022-04-12"
"浦东新区","上海市浦东新区金星村",121.77908746251785,31.11921989828282,"2022-04-12"
"浦东新区","上海市浦东新区金杨路1155弄",121.59556571293203,31.26379227197009,"2022-04-12"
"浦东新区","上海市浦东新区金杨路660弄",121.58839992987893,31.25750168417267,"2022-04-12"
"浦东新区","上海市浦东新区金杨路685弄",121.58834306714016,31.258255434906122,"2022-04-12"
"浦东新区","上海市浦东新区金杨路757弄",121.58899155388781,31.259965802192976,"2022-04-12"
"浦东新区","上海市浦东新区金杨路785弄",121.58943756257352,31.25969878847117,"2022-04-12"
"浦东新区","上海市浦东新区金钻路328弄",121.67561344743451,31.29449219450759,"2022-04-12"
"浦东新区","上海市浦东新区金钻路398弄",121.67726893465885,31.293179906356418,"2022-04-12"
"浦东新区","上海市浦东新区金钻路669弄",121.68113407377663,31.28976946004042,"2022-04-12"
"浦东新区","上海市浦东新区锦安东路458弄",121.5489740196904,31.206312837075853,"2022-04-12"
"浦东新区","上海市浦东新区锦绣路300弄",121.57156047445,31.231704265536017,"2022-04-12"
"浦东新区","上海市浦东新区锦绣路3088弄",121.5462948235069,31.185731419409098,"2022-04-12"
"浦东新区","上海市浦东新区锦绣路3336弄",121.54705955098754,31.183574979857113,"2022-04-12"
"浦东新区","上海市浦东新区京浦路160弄",121.57469457254375,31.15991251964416,"2022-04-12"
"浦东新区","上海市浦东新区竟新村",121.33840213526592,31.835599975365863,"2022-04-12"
"浦东新区","上海市浦东新区居家桥路1070弄",121.57885866773526,31.248907091510297,"2022-04-12"
"浦东新区","上海市浦东新区居家桥路151弄",121.56804217108962,31.266784117232525,"2022-04-12"
"浦东新区","上海市浦东新区居家桥路199弄",121.56871509174714,31.264171399185773,"2022-04-12"
"浦东新区","上海市浦东新区居家桥路699弄",121.57510204392308,31.256166649910742,"2022-04-12"
"浦东新区","上海市浦东新区巨峰路176弄",121.60320166908903,31.285412489153977,"2022-04-12"
"浦东新区","上海市浦东新区巨峰路399弄",121.60283534010208,31.286491277884508,"2022-04-12"
"浦东新区","上海市浦东新区巨峰路90弄",121.60248023993398,31.284755704928653,"2022-04-12"
"浦东新区","上海市浦东新区巨峰路997弄",121.6237273211782,31.2870005408357,"2022-04-12"
"浦东新区","上海市浦东新区巨野路197弄",121.55197768382412,31.248084805613694,"2022-04-12"
"浦东新区","上海市浦东新区巨野路482弄",121.55494415810973,31.242174152454698,"2022-04-12"
"浦东新区","上海市浦东新区俱进路285弄",121.61465964569936,31.306102336581564,"2022-04-12"
"浦东新区","上海市浦东新区俱进路500弄",121.58962611690005,31.28158489894264,"2022-04-12"
"浦东新区","上海市浦东新区军民村陈家宅",121.7485447158564,31.173449608564322,"2022-04-12"
"浦东新区","上海市浦东新区军民村黄家宅",121.7485447158564,31.173449608564322,"2022-04-12"
"浦东新区","上海市浦东新区军民村周家宅",121.7485447158564,31.173449608564322,"2022-04-12"
"浦东新区","上海市浦东新区康安路御北路交界口工地生活区",121.56378599958333,31.16393929723239,"2022-04-12"
"浦东新区","上海市浦东新区康安路御桥路交界口工地生活区",121.54239006911612,31.155811788475507,"2022-04-12"
"浦东新区","上海市浦东新区康达路508弄",121.58485970786411,31.120077939878794,"2022-04-12"
"浦东新区","上海市浦东新区康达路688弄",121.58485970786411,31.120077939878794,"2022-04-12"
"浦东新区","上海市浦东新区康涵路188弄",121.58485970786411,31.120077939878794,"2022-04-12"
"浦东新区","上海市浦东新区康弘路428弄",121.58485970786411,31.120077939878794,"2022-04-12"
"浦东新区","上海市浦东新区康弘路508弄",121.60698461325266,31.12693472616589,"2022-04-12"
"浦东新区","上海市浦东新区康弘路515弄",121.60653348422555,31.127466032407003,"2022-04-12"
"浦东新区","上海市浦东新区康弘路580弄",121.60607678570427,31.132845541712022,"2022-04-12"
"浦东新区","上海市浦东新区康桥东路905弄",121.62738333477324,31.16324774668628,"2022-04-12"
"浦东新区","上海市浦东新区康桥路1259弄",121.58485970786411,31.120077939878794,"2022-04-12"
"浦东新区","上海市浦东新区康桥路1298弄",121.58485970786411,31.120077939878794,"2022-04-12"
"浦东新区","上海市浦东新区康桥路1558弄",121.58763637019544,31.155405954675448,"2022-04-12"
"浦东新区","上海市浦东新区康桥路1633弄",121.58485970786411,31.120077939878794,"2022-04-12"
"浦东新区","上海市浦东新区康桥路90弄",121.58485970786411,31.120077939878794,"2022-04-12"
"浦东新区","上海市浦东新区康杉路151弄",121.56730133853553,31.15772404321492,"2022-04-12"
"浦东新区","上海市浦东新区康杉路1758弄",121.58452158567016,31.119686481592485,"2022-04-12"
"浦东新区","上海市浦东新区康杉路359弄",121.53688426481492,31.18970225553777,"2022-04-12"
"浦东新区","上海市浦东新区康杉路386弄",121.56535264439273,31.15791919113146,"2022-04-12"
"浦东新区","上海市浦东新区康杉路608弄",121.53688426481492,31.18970225553777,"2022-04-12"
"浦东新区","上海市浦东新区康沈公路389弄",121.58284930013278,31.127973842443726,"2022-04-12"
"浦东新区","上海市浦东新区康沈路1527弄",121.58264879834296,31.124953139907806,"2022-04-12"
"浦东新区","上海市浦东新区康沈路1870弄",121.58378407684646,31.117394273176185,"2022-04-12"
"浦东新区","上海市浦东新区康沈路1929弄",121.58702570210977,31.11734851809284,"2022-04-12"
"浦东新区","上海市浦东新区康沈路1938弄",121.58268131700241,31.11475775473791,"2022-04-12"
"浦东新区","上海市浦东新区康沈路2132号",121.58745563112684,31.109873291437935,"2022-04-12"
"浦东新区","上海市浦东新区康沈路2262弄",121.58731262088966,31.107124171661162,"2022-04-12"
"浦东新区","上海市浦东新区康沈路3001弄",121.59000394419755,31.095345471807125,"2022-04-12"
"浦东新区","上海市浦东新区康沈路400弄",121.58485970786411,31.120077939878794,"2022-04-12"
"浦东新区","上海市浦东新区康沈路465弄",121.58485970786411,31.120077939878794,"2022-04-12"
"浦东新区","上海市浦东新区康士路15弄",121.56951673958423,31.15566839870212,"2022-04-12"
"浦东新区","上海市浦东新区康梧路189号工地生活区",121.55714895915341,31.14227717699841,"2022-04-12"
"浦东新区","上海市浦东新区康意路御北路交界口工地生活区",121.56378599958333,31.16393929723239,"2022-04-12"
"浦东新区","上海市浦东新区科农路99弄",121.63626380338377,31.194416454082223,"2022-04-12"
"浦东新区","上海市浦东新区莱阳路111弄",121.58953781346843,31.332463488478048,"2022-04-12"
"浦东新区","上海市浦东新区莱阳路1443弄",121.59004535608157,31.301096015536285,"2022-04-12"
"浦东新区","上海市浦东新区莱阳路17号",121.58350515298562,31.278056442544635,"2022-04-12"
"浦东新区","上海市浦东新区莱阳路201弄",121.58640533232457,31.27945497158419,"2022-04-12"
"浦东新区","上海市浦东新区莱阳路301弄",121.5859471965145,31.280357685263912,"2022-04-12"
"浦东新区","上海市浦东新区莱阳路350弄",121.58832150780792,31.280456057381212,"2022-04-12"
"浦东新区","上海市浦东新区莱阳路3777弄",121.58657538155761,31.338805467132957,"2022-04-12"
"浦东新区","上海市浦东新区莱阳路451弄",121.5892918574198,31.282158997327386,"2022-04-12"
"浦东新区","上海市浦东新区莱阳路817弄",121.58773841770139,31.28696960402002,"2022-04-12"
"浦东新区","上海市浦东新区莱阳路880弄",121.59082230051713,31.28833690890775,"2022-04-12"
"浦东新区","上海市浦东新区莱阳路881弄",121.58956036093673,31.289971893195336,"2022-04-12"
"浦东新区","上海市浦东新区兰城路115弄",121.58550415223696,31.27245247181405,"2022-04-12"
"浦东新区","上海市浦东新区兰谷路2777弄",121.60213897367075,31.316277446367362,"2022-04-12"
"浦东新区","上海市浦东新区兰陵路23弄",121.52327224142223,31.20101506872557,"2022-04-12"
"浦东新区","上海市浦东新区兰嵩路360弄",121.59949355377441,31.329141154812422,"2022-04-12"
"浦东新区","上海市浦东新区兰亭路孙浦路交界口工地生活区",121.6645525218596,31.191912304557867,"2022-04-12"
"浦东新区","上海市浦东新区栏杆村大徐家宅",121.67290191225264,31.179777437248575,"2022-04-12"
"浦东新区","上海市浦东新区栏杆村潘家宅",121.67668907845216,31.178844788292746,"2022-04-12"
"浦东新区","上海市浦东新区蓝村路30弄",121.53864979446423,31.21674943185774,"2022-04-12"
"浦东新区","上海市浦东新区蓝村路470弄",121.53160402502728,31.2174828969005,"2022-04-12"
"浦东新区","上海市浦东新区蓝靛路1688弄",121.64602586902181,31.103753943832537,"2022-04-12"
"浦东新区","上海市浦东新区劳动新村",121.55045460683195,31.227348292436346,"2022-04-12"
"浦东新区","上海市浦东新区崂山路150弄",121.52940513254315,31.23332318141492,"2022-04-12"
"浦东新区","上海市浦东新区崂山路502号",121.52356526867958,31.242727884421647,"2022-04-12"
"浦东新区","上海市浦东新区崂山路551弄",121.52875567791624,31.232572857538436,"2022-04-12"
"浦东新区","上海市浦东新区崂山路571弄",121.52954349184849,31.232309393717138,"2022-04-12"
"浦东新区","上海市浦东新区崂山路600号",121.53086310264264,31.231583223991144,"2022-04-12"
"浦东新区","上海市浦东新区崂山路645弄",121.53134881643189,31.227805460283697,"2022-04-12"
"浦东新区","上海市浦东新区崂山路80弄",121.52311467863576,31.244151178196617,"2022-04-12"
"浦东新区","上海市浦东新区乐城路32弄",121.60201231259384,31.036382742336368,"2022-04-12"
"浦东新区","上海市浦东新区乐城路3弄",121.55045460683195,31.227348292436346,"2022-04-12"
"浦东新区","上海市浦东新区李桥村",121.72117891646153,31.022446657389377,"2022-04-12"
"浦东新区","上海市浦东新区里仁村",121.57510536765346,31.11385058423264,"2022-04-12"
"浦东新区","上海市浦东新区历城路22弄",121.53688426481492,31.18970225553777,"2022-04-12"
"浦东新区","上海市浦东新区历城路83弄",121.53688426481492,31.18970225553777,"2022-04-12"
"浦东新区","上海市浦东新区立新村",121.76391813669305,31.177471711327076,"2022-04-12"
"浦东新区","上海市浦东新区丽雅路122号",121.68894690628856,31.24175641995265,"2022-04-12"
"浦东新区","上海市浦东新区利川路421弄",121.68866573666394,31.21415577617192,"2022-04-12"
"浦东新区","上海市浦东新区利川路王桥路交界口工地生活区",121.6986327057888,31.215171381638122,"2022-04-12"
"浦东新区","上海市浦东新区利津路1111弄",121.59922487059637,31.284803924296515,"2022-04-12"
"浦东新区","上海市浦东新区利津路158弄",121.5873028293596,31.28462670835332,"2022-04-12"
"浦东新区","上海市浦东新区利津路385弄",121.59099567348056,31.28276487908113,"2022-04-12"
"浦东新区","上海市浦东新区利津路51弄",121.58499023165471,31.28841490555284,"2022-04-12"
"浦东新区","上海市浦东新区利民村",121.70195760397287,31.039560530843964,"2022-04-12"
"浦东新区","上海市浦东新区连波路66弄",121.55848438012455,31.200897848506106,"2022-04-12"
"浦东新区","上海市浦东新区莲安西路125弄",121.55974578072166,31.18532718248633,"2022-04-12"
"浦东新区","上海市浦东新区莲安西路35弄",121.5613702764059,31.187106769577635,"2022-04-12"
"浦东新区","上海市浦东新区莲溪路1099弄",121.56986339568053,31.18174774834683,"2022-04-12"
"浦东新区","上海市浦东新区莲溪路477弄",121.56893382913881,31.188689385868962,"2022-04-12"
"浦东新区","上海市浦东新区莲溪路780弄",121.5687171578498,31.18347820498392,"2022-04-12"
"浦东新区","上海市浦东新区莲振路269号",121.57436094187736,31.173909356804987,"2022-04-12"
"浦东新区","上海市浦东新区莲中路255弄",121.56544552918247,31.188280991250455,"2022-04-12"
"浦东新区","上海市浦东新区莲中路318弄",121.5644852405923,31.186504438505555,"2022-04-12"
"浦东新区","上海市浦东新区莲中路356弄",121.56492999165029,31.185761076768486,"2022-04-12"
"浦东新区","上海市浦东新区联丰村徐隆昌队陆家宅",121.51109292548739,31.158316438724242,"2022-04-12"
"浦东新区","上海市浦东新区联丰村徐隆昌队徐隆昌",121.50962716038676,31.158874297586184,"2022-04-12"
"浦东新区","上海市浦东新区联合村南浜宅",121.68253309477787,31.30387485270314,"2022-04-12"
"浦东新区","上海市浦东新区联勤村冯桥队冯家宅",121.55744791522713,31.171212397581485,"2022-04-12"
"浦东新区","上海市浦东新区联勤村冯桥队张家宅",121.55744791522713,31.171212397581485,"2022-04-12"
"浦东新区","上海市浦东新区联勤村李家队李家宅",121.55718596934042,31.173231011079945,"2022-04-12"
"浦东新区","上海市浦东新区联勤村麦家队麦家宅",121.55391344236757,31.16926349405447,"2022-04-12"
"浦东新区","上海市浦东新区联勤村太平队北王家宅",121.59179166199296,31.162595434952983,"2022-04-12"
"浦东新区","上海市浦东新区林德路718弄",121.51775682525206,31.134869848898855,"2022-04-12"
"浦东新区","上海市浦东新区林悦路125弄",121.52553031198265,31.139159418419815,"2022-04-12"
"浦东新区","上海市浦东新区林展路411弄",121.51568173952401,31.128169902288004,"2022-04-12"
"浦东新区","上海市浦东新区临江村陈家宅",121.48517950644107,31.129345634527656,"2022-04-12"
"浦东新区","上海市浦东新区临江村丁家队丁家宅",121.4843862128452,31.127340605764598,"2022-04-12"
"浦东新区","上海市浦东新区临江村临江队王家渡",121.48103454515693,31.130823354677393,"2022-04-12"
"浦东新区","上海市浦东新区临江村庞家宅",121.482806722267,31.124007039641032,"2022-04-12"
"浦东新区","上海市浦东新区临江村泰保队泰保堂",121.48492124360695,31.12396584750807,"2022-04-12"
"浦东新区","上海市浦东新区临江村唐家宅",121.48517950644107,31.129345634527656,"2022-04-12"
"浦东新区","上海市浦东新区临江村王家渡队王家渡",121.48103454515693,31.130823354677393,"2022-04-12"
"浦东新区","上海市浦东新区临江村王家宅队丁家宅",121.4843862128452,31.127340605764598,"2022-04-12"
"浦东新区","上海市浦东新区临江村王家宅队王家宅",121.48402985504939,31.126877924520862,"2022-04-12"
"浦东新区","上海市浦东新区临江村西新队罗汉松",121.48732861254314,31.132083362831438,"2022-04-12"
"浦东新区","上海市浦东新区临江村西新队石河圈",121.48517950644107,31.129345634527656,"2022-04-12"
"浦东新区","上海市浦东新区临江村西新队小金家宅",121.48845769273862,31.12994199578137,"2022-04-12"
"浦东新区","上海市浦东新区临江村小陈家宅",121.52472668787344,31.1243504097577,"2022-04-12"
"浦东新区","上海市浦东新区临江村益民队陈家宅",121.48517950644107,31.129345634527656,"2022-04-12"
"浦东新区","上海市浦东新区临江村益民队罗汉松",121.48732861254314,31.132083362831438,"2022-04-12"
"浦东新区","上海市浦东新区临江村益民队小金家宅",121.48845769273862,31.12994199578137,"2022-04-12"
"浦东新区","上海市浦东新区临江村筠西队庞家宅",121.482806722267,31.124007039641032,"2022-04-12"
"浦东新区","上海市浦东新区临江村张塘队塘湾宅",121.49501181956997,31.131568697329346,"2022-04-12"
"浦东新区","上海市浦东新区临江村周北队周家宅",121.47873641017075,31.124012372204763,"2022-04-12"
"浦东新区","上海市浦东新区临沂北路150弄",121.52346528727632,31.21156899766171,"2022-04-12"
"浦东新区","上海市浦东新区临沂路101弄",121.52104049121323,31.201323022068365,"2022-04-12"
"浦东新区","上海市浦东新区临沂路181弄",121.52066814357934,31.19757925080322,"2022-04-12"
"浦东新区","上海市浦东新区临沂路280弄",121.51602965324803,31.198943924920997,"2022-04-12"
"浦东新区","上海市浦东新区临沂路81弄",121.52588604096461,31.20134163205489,"2022-04-12"
"浦东新区","上海市浦东新区灵山路1396弄",121.56940948190635,31.24344377919883,"2022-04-12"
"浦东新区","上海市浦东新区灵山路1415弄",121.57078020628401,31.244998737805226,"2022-04-12"
"浦东新区","上海市浦东新区灵山路1671弄",121.57231100870358,31.245771344870743,"2022-04-12"
"浦东新区","上海市浦东新区灵山路1724弄",121.57452973348266,31.246303135635344,"2022-04-12"
"浦东新区","上海市浦东新区灵山路1799弄",121.5777726163737,31.24837161086446,"2022-04-12"
"浦东新区","上海市浦东新区灵山路2000弄",121.58274383906591,31.248450721415264,"2022-04-12"
"浦东新区","上海市浦东新区灵山路600弄",121.55040475087615,31.234124986355546,"2022-04-12"
"浦东新区","上海市浦东新区灵山路701弄",121.55204514656792,31.236214804107753,"2022-04-12"
"浦东新区","上海市浦东新区灵山路785弄",121.55683212680005,31.238343247038493,"2022-04-12"
"浦东新区","上海市浦东新区灵岩路56弄",121.50007296264374,31.17253829314167,"2022-04-12"
"浦东新区","上海市浦东新区灵岩南路1065号",121.50651183687815,31.148492604144845,"2022-04-12"
"浦东新区","上海市浦东新区灵岩南路156弄",121.50071075955583,31.164839185970084,"2022-04-12"
"浦东新区","上海市浦东新区灵岩南路380弄",121.50329428620252,31.159025485187325,"2022-04-12"
"浦东新区","上海市浦东新区灵岩南路410弄",121.50306899118061,31.15906666194195,"2022-04-12"
"浦东新区","上海市浦东新区灵岩南路499弄",121.50409180183428,31.156965620082993,"2022-04-12"
"浦东新区","上海市浦东新区凌河路155号",121.60337809629121,31.282747519732474,"2022-04-12"
"浦东新区","上海市浦东新区凌河路188弄",121.60216197029179,31.281903851498075,"2022-04-12"
"浦东新区","上海市浦东新区凌河路354弄",121.60602863652895,31.279935494106077,"2022-04-12"
"浦东新区","上海市浦东新区凌河路38弄",121.60075360691324,31.282569682663706,"2022-04-12"
"浦东新区","上海市浦东新区凌河路420弄",121.60593224834773,31.279917054061343,"2022-04-12"
"浦东新区","上海市浦东新区凌河路618弄",121.60815285956838,31.276965751274,"2022-04-12"
"浦东新区","上海市浦东新区凌空路55弄",121.72371240749132,31.208434161489265,"2022-04-12"
"浦东新区","上海市浦东新区凌路村",121.78423767887107,31.102367956385212,"2022-04-12"
"浦东新区","上海市浦东新区凌桥村仓房浜",121.53905564889364,31.37029614329091,"2022-04-12"
"浦东新区","上海市浦东新区凌桥村毛家浜西",121.53841345028455,31.375995898223735,"2022-04-12"
"浦东新区","上海市浦东新区凌桥村赵家浜西",121.54355032051281,31.372859025940794,"2022-04-12"
"浦东新区","上海市浦东新区凌兆路379弄",121.52553031198265,31.139159418419815,"2022-04-12"
"浦东新区","上海市浦东新区凌兆路405弄",121.50361749652501,31.150184425286565,"2022-04-12"
"浦东新区","上海市浦东新区凌兆路555弄",121.50815052578945,31.150254347365593,"2022-04-12"
"浦东新区","上海市浦东新区凌兆路608弄",121.52553031198265,31.139159418419815,"2022-04-12"
"浦东新区","上海市浦东新区凌兆路726弄",121.51165194100625,31.150804064437544,"2022-04-12"
"浦东新区","上海市浦东新区柳埠路135弄",121.58893424199627,31.268891029980523,"2022-04-12"
"浦东新区","上海市浦东新区柳埠路142弄",121.5889156470722,31.269330401417204,"2022-04-12"
"浦东新区","上海市浦东新区柳埠路196弄",121.58988132549543,31.271021584060716,"2022-04-12"
"浦东新区","上海市浦东新区六灶镇果园村",121.73744013263371,30.983664773262714,"2022-04-12"
"浦东新区","上海市浦东新区龙东大道2895弄",121.64040094940998,31.230898116632318,"2022-04-12"
"浦东新区","上海市浦东新区龙居路150弄",121.56829396612406,31.257918960465464,"2022-04-12"
"浦东新区","上海市浦东新区龙居路191弄",121.56989717196772,31.257917648521467,"2022-04-12"
"浦东新区","上海市浦东新区龙居路30弄",121.58962611690005,31.28158489894264,"2022-04-12"
"浦东新区","上海市浦东新区龙新路57号",121.66023670286746,31.240047649209075,"2022-04-12"
"浦东新区","上海市浦东新区龙阳路158号工地生活区",121.51824640175501,31.208450144787154,"2022-04-12"
"浦东新区","上海市浦东新区陆凌村瞿家宅",121.57010962122082,31.352399705849844,"2022-04-12"
"浦东新区","上海市浦东新区陆凌村宋家宅",121.57010962122082,31.352399705849844,"2022-04-12"
"浦东新区","上海市浦东新区陆凌村西凌家宅",121.58173863520024,31.35356684063773,"2022-04-12"
"浦东新区","上海市浦东新区陆路村",121.79838423266935,31.061125834078922,"2022-04-12"
"浦东新区","上海市浦东新区陆万村",121.70305389601725,31.26979731811335,"2022-04-12"
"浦东新区","上海市浦东新区鹿溪村",121.70279338741936,31.124679790400943,"2022-04-12"
"浦东新区","上海市浦东新区罗家村",121.69816765302629,31.28839932165863,"2022-04-12"
"浦东新区","上海市浦东新区罗山路108弄",121.55887945488784,31.254641589752865,"2022-04-12"
"浦东新区","上海市浦东新区罗山路1505号",121.57685921933114,31.23429457881754,"2022-04-12"
"浦东新区","上海市浦东新区罗山路1700弄",121.57507257950235,31.231436321956892,"2022-04-12"
"浦东新区","上海市浦东新区吕三村南蒋家宅",121.64495697529549,31.219218638333935,"2022-04-12"
"浦东新区","上海市浦东新区吕三村三林新村",121.64844419728523,31.222081282929306,"2022-04-12"
"浦东新区","上海市浦东新区绿林路211号",121.55549302277632,31.178095650126707,"2022-04-12"
"浦东新区","上海市浦东新区绿林路51弄",121.55520295992714,31.180852424344394,"2022-04-12"
"浦东新区","上海市浦东新区绿林路东钟家宅",121.54865494157326,31.173251634963325,"2022-04-12"
"浦东新区","上海市浦东新区马樱丹路127弄",121.92562345900245,30.88912552734818,"2022-04-12"
"浦东新区","上海市浦东新区梅花路777弄",121.52969618510942,31.207201251711854,"2022-04-12"
"浦东新区","上海市浦东新区梅林村",121.5686535578197,31.092572579867824,"2022-04-12"
"浦东新区","上海市浦东新区沔北村唐家宅",121.63362943264522,31.167854047744267,"2022-04-12"
"浦东新区","上海市浦东新区沔北村朱家宅",121.63755026670462,31.173264843515458,"2022-04-12"
"浦东新区","上海市浦东新区沔青村",121.64343910847528,31.15640288269039,"2022-04-12"
"浦东新区","上海市浦东新区苗圃路219号",121.55324797764578,31.24808341635039,"2022-04-12"
"浦东新区","上海市浦东新区苗圃路463弄",121.55669244029323,31.24284675034898,"2022-04-12"
"浦东新区","上海市浦东新区苗桥路445号",121.60251662130713,31.104273708865044,"2022-04-12"
"浦东新区","上海市浦东新区苗桥路935弄",121.60251662130713,31.104273708865044,"2022-04-12"
"浦东新区","上海市浦东新区妙川路1111弄",121.7206909569085,31.18840857614465,"2022-04-12"
"浦东新区","上海市浦东新区妙境路162弄",121.69502043967206,31.20233359303947,"2022-04-12"
"浦东新区","上海市浦东新区妙栏路392弄",121.69737561705813,31.191923193652435,"2022-04-12"
"浦东新区","上海市浦东新区民春路399弄",121.65277879086253,31.290487771739045,"2022-04-12"
"浦东新区","上海市浦东新区民春路516弄",121.65277879086253,31.290487771739045,"2022-04-12"
"浦东新区","上海市浦东新区民丰村东曹家宅",121.64861595329873,31.214212833818383,"2022-04-12"
"浦东新区","上海市浦东新区民丰村西龚家宅",121.64474219044806,31.207675762451128,"2022-04-12"
"浦东新区","上海市浦东新区民建村北邵家宅",121.65451647304103,31.28037867132429,"2022-04-12"
"浦东新区","上海市浦东新区民建村徐家宅",121.65358097768292,31.273397305600508,"2022-04-12"
"浦东新区","上海市浦东新区民民路318弄",121.65277879086253,31.290487771739045,"2022-04-12"
"浦东新区","上海市浦东新区民区路260弄",121.66203439185404,31.279504351019632,"2022-04-12"
"浦东新区","上海市浦东新区民区路265弄",121.66102813218295,31.281407571513213,"2022-04-12"
"浦东新区","上海市浦东新区民生路423弄",121.54973704039058,31.246115041047304,"2022-04-12"
"浦东新区","上海市浦东新区民唐路秦家港路交界口工地生活区",121.69745116455151,31.27622735160854,"2022-04-12"
"浦东新区","上海市浦东新区民同路10弄",121.65704143016846,31.279681808150222,"2022-04-12"
"浦东新区","上海市浦东新区民同路176弄",121.65780364239369,31.278610039104937,"2022-04-12"
"浦东新区","上海市浦东新区民同路290弄",121.65855004444192,31.27564688975859,"2022-04-12"
"浦东新区","上海市浦东新区民同路293弄",121.65277879086253,31.290487771739045,"2022-04-12"
"浦东新区","上海市浦东新区民同路40弄",121.65727175570123,31.279284766642558,"2022-04-12"
"浦东新区","上海市浦东新区民雪路918弄",121.66510605771485,31.276406126650397,"2022-04-12"
"浦东新区","上海市浦东新区民耀路227弄",121.66051742333934,31.27989336747134,"2022-04-12"
"浦东新区","上海市浦东新区民耀路268弄",121.65922925323802,31.278209443845476,"2022-04-12"
"浦东新区","上海市浦东新区民耀路277弄",121.65277879086253,31.290487771739045,"2022-04-12"
"浦东新区","上海市浦东新区民耀路290弄",121.65277879086253,31.290487771739045,"2022-04-12"
"浦东新区","上海市浦东新区民耀路358弄",121.65277879086253,31.290487771739045,"2022-04-12"
"浦东新区","上海市浦东新区民耀路391弄",121.65277879086253,31.290487771739045,"2022-04-12"
"浦东新区","上海市浦东新区民耀路423弄",121.66188096127293,31.27561255420451,"2022-04-12"
"浦东新区","上海市浦东新区民耀路97弄",121.65950790760722,31.28071167009252,"2022-04-12"
"浦东新区","上海市浦东新区民耀路98弄",121.65811795949162,31.28017073937814,"2022-04-12"
"浦东新区","上海市浦东新区民义村",121.70506789697062,31.13432390227659,"2022-04-12"
"浦东新区","上海市浦东新区民治村",121.63595272018568,31.117047786070078,"2022-04-12"
"浦东新区","上海市浦东新区民众村运河西",121.67691104974368,31.282449015583392,"2022-04-12"
"浦东新区","上海市浦东新区牟平路154弄",121.58962611690005,31.28158489894264,"2022-04-12"
"浦东新区","上海市浦东新区牟平路304弄",121.60664199953115,31.26981051304805,"2022-04-12"
"浦东新区","上海市浦东新区牡丹路340弄",121.55639375371118,31.21414133803395,"2022-04-12"
"浦东新区","上海市浦东新区牡丹路89弄",121.55029884065652,31.21322987781171,"2022-04-12"
"浦东新区","上海市浦东新区暮二村顾家宅",121.68257405750913,31.224491521794413,"2022-04-12"
"浦东新区","上海市浦东新区暮二村小丁家宅",121.66972460566384,31.2288207632593,"2022-04-12"
"浦东新区","上海市浦东新区南曹路901弄",121.67039869411853,31.20845261563489,"2022-04-12"
"浦东新区","上海市浦东新区南阜村东汤队东汤家宅",121.52616765974199,31.136051601892248,"2022-04-12"
"浦东新区","上海市浦东新区南阜村高树队北孙家宅",121.52678497528844,31.139491065259833,"2022-04-12"
"浦东新区","上海市浦东新区南阜村高树队王家宅",121.52688154313076,31.136351345808084,"2022-04-12"
"浦东新区","上海市浦东新区南阜村高树队西汤家宅",121.52688154313076,31.136351345808084,"2022-04-12"
"浦东新区","上海市浦东新区南阜村红光队顾家宅",121.52616765974199,31.136051601892248,"2022-04-12"
"浦东新区","上海市浦东新区南阜村红光队南孙家宅",121.52678497528844,31.139491065259833,"2022-04-12"
"浦东新区","上海市浦东新区南泐村",121.79204938221297,30.923010840618915,"2022-04-12"
"浦东新区","上海市浦东新区南六公路399弄",121.71310898891265,31.067526883918102,"2022-04-12"
"浦东新区","上海市浦东新区南码头路1187弄",121.52183135938422,31.189506015307874,"2022-04-12"
"浦东新区","上海市浦东新区南码头路1349弄",121.52236010200738,31.18623597940405,"2022-04-12"
"浦东新区","上海市浦东新区南码头路1675弄",121.52084888264797,31.18090401847181,"2022-04-12"
"浦东新区","上海市浦东新区南码头路1696弄",121.52143736258755,31.18262993380266,"2022-04-12"
"浦东新区","上海市浦东新区南码头路193弄",121.51551258859648,31.204743182053495,"2022-04-12"
"浦东新区","上海市浦东新区南码头路450弄",121.5163195364361,31.200368116304254,"2022-04-12"
"浦东新区","上海市浦东新区南码头路451弄",121.51651428907066,31.200820319373893,"2022-04-12"
"浦东新区","上海市浦东新区南门大街21弄",121.76114821165304,31.048234487203842,"2022-04-12"
"浦东新区","上海市浦东新区南桥路1152弄",121.69498378880726,31.192894248671443,"2022-04-12"
"浦东新区","上海市浦东新区南桥路459弄",121.70791184238466,31.195454514332024,"2022-04-12"
"浦东新区","上海市浦东新区南桥路983弄",121.69942851464009,31.193460242298354,"2022-04-12"
"浦东新区","上海市浦东新区南泉北路101弄",121.52204021541529,31.24412385486496,"2022-04-12"
"浦东新区","上海市浦东新区南泉北路170弄",121.5230033785831,31.24240169701636,"2022-04-12"
"浦东新区","上海市浦东新区南泉路1111弄",121.52953361048787,31.219331589345497,"2022-04-12"
"浦东新区","上海市浦东新区南泉路1211弄",121.52972225464497,31.219263571698672,"2022-04-12"
"浦东新区","上海市浦东新区南泉路1300弄",121.52893030850737,31.217418043380952,"2022-04-12"
"浦东新区","上海市浦东新区南塘村龚家宅",121.5746809183,31.34539427690696,"2022-04-12"
"浦东新区","上海市浦东新区南塘村顾家宅",121.5746809183,31.34539427690696,"2022-04-12"
"浦东新区","上海市浦东新区南塘村姚家宅",121.5746809183,31.34539427690696,"2022-04-12"
"浦东新区","上海市浦东新区南团公路35弄",121.77053999575986,31.046109000843707,"2022-04-12"
"浦东新区","上海市浦东新区南新村东钟家宅",121.54865494157326,31.173251634963325,"2022-04-12"
"浦东新区","上海市浦东新区南新村吴家宅",121.52662561589096,31.360191454559764,"2022-04-12"
"浦东新区","上海市浦东新区南新村西钟家宅",121.54865494157326,31.173251634963325,"2022-04-12"
"浦东新区","上海市浦东新区南新村徐家宅",121.52662561589096,31.360191454559764,"2022-04-12"
"浦东新区","上海市浦东新区南新村杨家湾",121.51562487678522,31.229719025472257,"2022-04-12"
"浦东新区","上海市浦东新区南新村赵家厍",121.54343515774643,31.176791383130574,"2022-04-12"
"浦东新区","上海市浦东新区南洋泾路287弄",121.56068693540446,31.244845682121518,"2022-04-12"
"浦东新区","上海市浦东新区南祝路111号",121.76132185410812,31.13231125210565,"2022-04-12"
"浦东新区","上海市浦东新区南祝路258弄",121.76188598996839,31.125974889673685,"2022-04-12"
"浦东新区","上海市浦东新区泥城路9弄",121.83301265245127,30.908106042675996,"2022-04-12"
"浦东新区","上海市浦东新区年家浜东路129弄",121.59892537553935,31.120365137063242,"2022-04-12"
"浦东新区","上海市浦东新区年家浜路28弄",121.59212753842314,31.1211568569416,"2022-04-12"
"浦东新区","上海市浦东新区年家浜路371弄",121.57872113716168,31.120414136710504,"2022-04-12"
"浦东新区","上海市浦东新区年家浜路425弄",121.57891103894649,31.12004169237844,"2022-04-12"
"浦东新区","上海市浦东新区宁桥路825号",121.62686052096643,31.259191383125927,"2022-04-12"
"浦东新区","上海市浦东新区牌楼村",121.56557758009242,31.05914827465531,"2022-04-12"
"浦东新区","上海市浦东新区牌楼东路528弄",121.66326435175829,31.02912968730048,"2022-04-12"
"浦东新区","上海市浦东新区牌楼西路303弄",121.64756457652985,31.02946295992039,"2022-04-12"
"浦东新区","上海市浦东新区潘桥村沈家宅",121.58434650592626,31.21535621848612,"2022-04-12"
"浦东新区","上海市浦东新区彭平东路88弄",121.80741211321407,30.913157344375648,"2022-04-12"
"浦东新区","上海市浦东新区鹏飞路333弄",121.53688426481492,31.18970225553777,"2022-04-12"
"浦东新区","上海市浦东新区鹏飞路51弄",121.56052119803788,31.18149263748743,"2022-04-12"
"浦东新区","上海市浦东新区鹏岳路152弄",121.56093334060584,31.177214966797443,"2022-04-12"
"浦东新区","上海市浦东新区鹏岳路233弄",121.53688426481492,31.18970225553777,"2022-04-12"
"浦东新区","上海市浦东新区鹏岳路70弄",121.55880363790278,31.180936844062057,"2022-04-12"
"浦东新区","上海市浦东新区浦城路580弄",121.52108055563897,31.230158967011022,"2022-04-12"
"浦东新区","上海市浦东新区浦电路218弄",121.53039158208045,31.226031741548418,"2022-04-12"
"浦东新区","上海市浦东新区浦电路221号",121.53004456666196,31.22498830738765,"2022-04-12"
"浦东新区","上海市浦东新区浦电路29弄",121.52179830174146,31.22198277216662,"2022-04-12"
"浦东新区","上海市浦东新区浦电路300号",121.5316105826575,31.225676082809564,"2022-04-12"
"浦东新区","上海市浦东新区浦电路305弄",121.53191394042821,31.225381642362095,"2022-04-12"
"浦东新区","上海市浦东新区浦电路330弄",121.53452881793721,31.22662717934152,"2022-04-12"
"浦东新区","上海市浦东新区浦电路331弄",121.53518233519571,31.225922581402024,"2022-04-12"
"浦东新区","上海市浦东新区浦东北路4646弄",121.56793473375062,31.354701504584735,"2022-04-12"
"浦东新区","上海市浦东新区浦东大道136弄",121.52017353656555,31.24402420953977,"2022-04-12"
"浦东新区","上海市浦东新区浦东大道140弄",121.52166903557857,31.244048831438676,"2022-04-12"
"浦东新区","上海市浦东新区浦东大道1585弄",121.54725475277486,31.250760642806057,"2022-04-12"
"浦东新区","上海市浦东新区浦东大道1623弄",121.54904390785909,31.25176759291442,"2022-04-12"
"浦东新区","上海市浦东新区浦东大道1695弄",121.5507839256319,31.253683600624225,"2022-04-12"
"浦东新区","上海市浦东新区浦东大道1851弄",121.5524974433922,31.253101686701353,"2022-04-12"
"浦东新区","上海市浦东新区浦东大道2511弄",121.56640626692538,31.265127505972,"2022-04-12"
"浦东新区","上海市浦东新区浦东大道2530号",121.56820242879259,31.26486891824946,"2022-04-12"
"浦东新区","上海市浦东新区浦东大道2639弄",121.57382941450709,31.27009640284229,"2022-04-12"
"浦东新区","上海市浦东新区浦东大道2641弄",121.57542031356526,31.2714724426133,"2022-04-12"
"浦东新区","上海市浦东新区浦东大道2746弄",121.57975652409247,31.27446558512791,"2022-04-12"
"浦东新区","上海市浦东新区浦东大道2778弄",121.5813748214687,31.275651133477883,"2022-04-12"
"浦东新区","上海市浦东新区浦东大道2894号",121.5828239679174,31.278944432984467,"2022-04-12"
"浦东新区","上海市浦东新区浦东大道2902弄",121.56868841207348,31.265697229843504,"2022-04-12"
"浦东新区","上海市浦东新区浦东大道2920弄",121.58360261913344,31.280936343289373,"2022-04-12"
"浦东新区","上海市浦东新区浦东大道2970弄",121.58527436568751,31.2829352319847,"2022-04-12"
"浦东新区","上海市浦东新区浦东大道3076弄",121.58410504140518,31.28716926588193,"2022-04-12"
"浦东新区","上海市浦东新区浦东大道604弄",121.5286538100714,31.24519470737441,"2022-04-12"
"浦东新区","上海市浦东新区浦东大道651弄",121.53008481074879,31.247033899201057,"2022-04-12"
"浦东新区","上海市浦东新区浦东大道834弄",121.53304706299849,31.245103090301225,"2022-04-12"
"浦东新区","上海市浦东新区浦东南路1288号",121.52355987884653,31.230896186745355,"2022-04-12"
"浦东新区","上海市浦东新区浦东南路1475弄",121.52575174429087,31.228549414736456,"2022-04-12"
"浦东新区","上海市浦东新区浦东南路1533号",121.5276446536615,31.227372301137734,"2022-04-12"
"浦东新区","上海市浦东新区浦东南路1650弄",121.52428831478456,31.224547337929618,"2022-04-12"
"浦东新区","上海市浦东新区浦东南路1700弄",121.5250607676926,31.22378497774176,"2022-04-12"
"浦东新区","上海市浦东新区浦东南路2351弄",121.51946171927945,31.20559866583432,"2022-04-12"
"浦东新区","上海市浦东新区浦东南路3405弄",121.51540326481592,31.20034881113828,"2022-04-12"
"浦东新区","上海市浦东新区浦东南路3649弄",121.51231318369214,31.1950220549798,"2022-04-12"
"浦东新区","上海市浦东新区浦东南路595弄",121.51977783298841,31.241151584442484,"2022-04-12"
"浦东新区","上海市浦东新区浦建路83弄",121.5253901763231,31.215623976480853,"2022-04-12"
"浦东新区","上海市浦东新区浦明路233弄",121.5171928690529,31.23258212082952,"2022-04-12"
"浦东新区","上海市浦东新区浦三路12弄",121.51782779138736,31.202722003983574,"2022-04-12"
"浦东新区","上海市浦东新区浦三路2801弄",121.53688426481492,31.18970225553777,"2022-04-12"
"浦东新区","上海市浦东新区浦三路288弄",121.51958191255669,31.198441132237164,"2022-04-12"
"浦东新区","上海市浦东新区浦三路4688弄",121.52245244781382,31.19432339723418,"2022-04-12"
"浦东新区","上海市浦东新区浦三路5127弄",121.53688426481492,31.18970225553777,"2022-04-12"
"浦东新区","上海市浦东新区浦三路628弄",121.52245244781382,31.19432339723418,"2022-04-12"
"浦东新区","上海市浦东新区浦三路635弄",121.52513218298063,31.195144302174068,"2022-04-12"
"浦东新区","上海市浦东新区浦三路657号",121.53688426481492,31.18970225553777,"2022-04-12"
"浦东新区","上海市浦东新区浦三路724弄",121.52408554919298,31.190857247126132,"2022-04-12"
"浦东新区","上海市浦东新区浦三路775弄",121.52672901085516,31.1896008532192,"2022-04-12"
"浦东新区","上海市浦东新区浦三路783弄",121.52589412571419,31.189367774206577,"2022-04-12"
"浦东新区","上海市浦东新区浦三路817弄",121.52567502900033,31.188961853906115,"2022-04-12"
"浦东新区","上海市浦东新区浦三路858弄",121.52533412205928,31.18786409944692,"2022-04-12"
"浦东新区","上海市浦东新区浦三路新浦路交界口工地生活区",121.54168274335757,31.17621169450409,"2022-04-12"
"浦东新区","上海市浦东新区浦三路秀浦路交界口工地生活区",121.61602489041343,31.135717238318502,"2022-04-12"
"浦东新区","上海市浦东新区浦兴路1185弄",121.58962611690005,31.28158489894264,"2022-04-12"
"浦东新区","上海市浦东新区普庆路115弄",121.72634336466895,31.160583313604086,"2022-04-12"
"浦东新区","上海市浦东新区七灶村",121.72086397054973,31.14402497426147,"2022-04-12"
"浦东新区","上海市浦东新区栖山路100弄",121.5504374491967,31.247552793436665,"2022-04-12"
"浦东新区","上海市浦东新区栖山路1088弄",121.56609437525233,31.26014005524514,"2022-04-12"
"浦东新区","上海市浦东新区栖山路1460弄",121.5723494561794,31.261677295730113,"2022-04-12"
"浦东新区","上海市浦东新区栖山路1558弄",121.57216036286955,31.26303980059529,"2022-04-12"
"浦东新区","上海市浦东新区栖山路1689弄",121.57390154843955,31.265103198293538,"2022-04-12"
"浦东新区","上海市浦东新区栖山路1899弄",121.58012761409864,31.267992295212288,"2022-04-12"
"浦东新区","上海市浦东新区栖山路400弄",121.55757897800103,31.25201788165849,"2022-04-12"
"浦东新区","上海市浦东新区栖山路401弄",121.55603344337112,31.253987830572694,"2022-04-12"
"浦东新区","上海市浦东新区栖山路465弄",121.5573284405943,31.253880941167854,"2022-04-12"
"浦东新区","上海市浦东新区栖山路友林路交界口工地生活区",121.57415118754076,31.26727396479583,"2022-04-12"
"浦东新区","上海市浦东新区栖霞路190弄",121.52608115292138,31.244186142787363,"2022-04-12"
"浦东新区","上海市浦东新区栖霞路86号",121.5242515740892,31.24224323405418,"2022-04-12"
"浦东新区","上海市浦东新区齐爱路168弄",121.63626380338377,31.194416454082223,"2022-04-12"
"浦东新区","上海市浦东新区齐爱路99弄",121.6624740225706,31.224360898011767,"2022-04-12"
"浦东新区","上海市浦东新区齐河路10弄",121.508225444469,31.18342313671538,"2022-04-12"
"浦东新区","上海市浦东新区齐河路1179弄",121.5263850496754,31.190858991053652,"2022-04-12"
"浦东新区","上海市浦东新区齐河路28弄",121.53688426481492,31.18970225553777,"2022-04-12"
"浦东新区","上海市浦东新区齐河路438弄",121.51495483070534,31.185495627621506,"2022-04-12"
"浦东新区","上海市浦东新区其成村",121.69209061625129,31.120092933510254,"2022-04-12"
"浦东新区","上海市浦东新区启明村小秦家宅",121.6968420235852,31.284485676008405,"2022-04-12"
"浦东新区","上海市浦东新区启明村庄家宅",121.69918588232184,31.284123295970193,"2022-04-12"
"浦东新区","上海市浦东新区千汇路1000弄",121.77126178423713,31.126797320222785,"2022-04-12"
"浦东新区","上海市浦东新区千汇路1280弄",121.76684274994189,31.114088797527916,"2022-04-12"
"浦东新区","上海市浦东新区千汇路198弄",121.77467103330859,31.111882866766123,"2022-04-12"
"浦东新区","上海市浦东新区千汇路280弄",121.7739199600717,31.114844939105055,"2022-04-12"
"浦东新区","上海市浦东新区千汇路750弄",121.77091009762997,31.122895232134738,"2022-04-12"
"浦东新区","上海市浦东新区前峰村夹路村宅",121.69704926266637,31.276754185320776,"2022-04-12"
"浦东新区","上海市浦东新区前锋村曹黄宅",121.70483855957393,31.276629575682062,"2022-04-12"
"浦东新区","上海市浦东新区前锋村大徐家宅",121.70483855957393,31.276629575682062,"2022-04-12"
"浦东新区","上海市浦东新区前锋村黄家宅",121.70483855957393,31.276629575682062,"2022-04-12"
"浦东新区","上海市浦东新区前锋村陆家宅",121.70483855957393,31.276629575682062,"2022-04-12"
"浦东新区","上海市浦东新区前锋村杨张村",121.7016981733416,31.27716960102064,"2022-04-12"
"浦东新区","上海市浦东新区前进村顾家宅",121.75866170200142,31.124503585038568,"2022-04-12"
"浦东新区","上海市浦东新区前进村南李家宅",121.60357644214781,31.240662526223556,"2022-04-12"
"浦东新区","上海市浦东新区前进村唐家队",121.75866170200142,31.124503585038568,"2022-04-12"
"浦东新区","上海市浦东新区前哨村包家宅",121.76420748089782,31.205888844405063,"2022-04-12"
"浦东新区","上海市浦东新区钱仓路399号",121.52797891314175,31.244880028981072,"2022-04-12"
"浦东新区","上海市浦东新区钱堂村立达宅",121.59951870632868,31.16388174546565,"2022-04-12"
"浦东新区","上海市浦东新区桥北村",121.80671134508573,31.022963080371614,"2022-04-12"
"浦东新区","上海市浦东新区勤奋村卫家宅",121.732101682649,31.261476576156298,"2022-04-12"
"浦东新区","上海市浦东新区勤奋村徐家宅",121.74039403064216,31.255172867012874,"2022-04-12"
"浦东新区","上海市浦东新区勤奋村张家宅",121.732101682649,31.261476576156298,"2022-04-12"
"浦东新区","上海市浦东新区勤俭村北杨家宅",121.74440496474422,31.209984837533348,"2022-04-12"
"浦东新区","上海市浦东新区勤俭村程家宅",121.72448584853542,30.98971824435168,"2022-04-12"
"浦东新区","上海市浦东新区勤乐村",121.76096352004018,31.084333203950713,"2022-04-12"
"浦东新区","上海市浦东新区勤星村",121.76687230419317,31.101274971404703,"2022-04-12"
"浦东新区","上海市浦东新区勤益村东顾家宅",121.71681036693595,31.215195470671564,"2022-04-12"
"浦东新区","上海市浦东新区勤益村东周家宅",121.71681036693595,31.215195470671564,"2022-04-12"
"浦东新区","上海市浦东新区勤益村徐家宅",121.62837272846193,31.184125737428683,"2022-04-12"
"浦东新区","上海市浦东新区勤政路88弄",121.630646878691,31.178079584411226,"2022-04-12"
"浦东新区","上海市浦东新区青三村二村宅",121.72744253129095,31.232256901569173,"2022-04-12"
"浦东新区","上海市浦东新区青三村金家宅",121.72896578794422,31.232326067687385,"2022-04-12"
"浦东新区","上海市浦东新区青四村龚家宅",121.74369593220518,31.234053814552556,"2022-04-12"
"浦东新区","上海市浦东新区青桐路18弄",121.62753874162647,31.223778492828462,"2022-04-12"
"浦东新区","上海市浦东新区清溪路260弄",121.58022328363546,31.348955343285247,"2022-04-12"
"浦东新区","上海市浦东新区清溪路299弄",121.57943744597533,31.34797696565905,"2022-04-12"
"浦东新区","上海市浦东新区清溪路365弄",121.57808163346913,31.347103664355974,"2022-04-12"
"浦东新区","上海市浦东新区清溪路400弄",121.57747563657209,31.347650837499692,"2022-04-12"
"浦东新区","上海市浦东新区清溪路430号",121.5771385025142,31.347004206020664,"2022-04-12"
"浦东新区","上海市浦东新区清溪路80弄",121.58211044385082,31.351067570792566,"2022-04-12"
"浦东新区","上海市浦东新区庆丰村",121.72371950410485,31.24705219137166,"2022-04-12"
"浦东新区","上海市浦东新区庆星村顾家宅",121.72570709487623,31.240436443995055,"2022-04-12"
"浦东新区","上海市浦东新区庆星村夏家宅",121.72911930835588,31.238801827751818,"2022-04-12"
"浦东新区","上海市浦东新区庆星村张家宅",121.7404823340738,31.241826968403426,"2022-04-12"
"浦东新区","上海市浦东新区秋岚路251弄",121.5992007960087,31.332779953782694,"2022-04-12"
"浦东新区","上海市浦东新区秋亭路88弄",121.76766398083912,31.102882843970885,"2022-04-12"
"浦东新区","上海市浦东新区秋霞路300弄",121.59359420182928,31.34069964153498,"2022-04-12"
"浦东新区","上海市浦东新区人民东路2640弄",121.77245347632666,31.05908315701856,"2022-04-12"
"浦东新区","上海市浦东新区人民东路580号",121.78580103857722,31.05553085212552,"2022-04-12"
"浦东新区","上海市浦东新区人民西路1955弄",121.72880301498581,31.055428840869066,"2022-04-12"
"浦东新区","上海市浦东新区人南村",121.63357553431462,31.14529322728839,"2022-04-12"
"浦东新区","上海市浦东新区仁义村",121.64729337809639,31.064314697494762,"2022-04-12"
"浦东新区","上海市浦东新区日新村北万家宅",121.67504212513016,31.269511195913047,"2022-04-12"
"浦东新区","上海市浦东新区日新村龚家宅",121.81868045753123,31.067839373744686,"2022-04-12"
"浦东新区","上海市浦东新区日新村南房宅",121.67561021353467,31.271915582828562,"2022-04-12"
"浦东新区","上海市浦东新区荣成路41弄",121.5250040846149,31.247636381216935,"2022-04-12"
"浦东新区","上海市浦东新区乳山路130弄",121.52982205638712,31.240771900734742,"2022-04-12"
"浦东新区","上海市浦东新区乳山路161弄",121.52801807926198,31.24159718403063,"2022-04-12"
"浦东新区","上海市浦东新区乳山路200弄",121.53552171501738,31.2435075340906,"2022-04-12"
"浦东新区","上海市浦东新区乳山路313弄",121.52639681747759,31.238932508563483,"2022-04-12"
"浦东新区","上海市浦东新区瑞安路211弄",121.59732225952624,31.09677571959406,"2022-04-12"
"浦东新区","上海市浦东新区瑞福路52弄",121.60760264744353,31.101758418286778,"2022-04-12"
"浦东新区","上海市浦东新区瑞和路900弄",121.60939719236082,31.093720075982464,"2022-04-12"
"浦东新区","上海市浦东新区瑞建路88弄",121.59935979608397,31.102542023663887,"2022-04-12"
"浦东新区","上海市浦东新区瑞浦路287弄",121.5908505971407,31.100446829005506,"2022-04-12"
"浦东新区","上海市浦东新区瑞浦路288弄",121.59111029726364,31.101848861383374,"2022-04-12"
"浦东新区","上海市浦东新区瑞浦路611弄",121.59207364009254,31.097330078746456,"2022-04-12"
"浦东新区","上海市浦东新区瑞浦路612弄",121.59252090640595,31.09634543383294,"2022-04-12"
"浦东新区","上海市浦东新区瑞浦路77弄",121.59264092002209,31.103960025909874,"2022-04-12"
"浦东新区","上海市浦东新区瑞浦路8弄",121.55045460683195,31.227348292436346,"2022-04-12"
"浦东新区","上海市浦东新区瑞阳路693弄",121.59767502410001,31.09454387106959,"2022-04-12"
"浦东新区","上海市浦东新区瑞阳路81弄",121.59474385322095,31.10537166826629,"2022-04-12"
"浦东新区","上海市浦东新区瑞意路399弄",121.59268628445034,31.102791860761887,"2022-04-12"
"浦东新区","上海市浦东新区三八村工地生活区",121.894828827476,30.900192727463445,"2022-04-12"
"浦东新区","上海市浦东新区三彩路166弄",121.52553031198265,31.139159418419815,"2022-04-12"
"浦东新区","上海市浦东新区三彩路52弄",121.52553031198265,31.139159418419815,"2022-04-12"
"浦东新区","上海市浦东新区三岔港村唐家宅",121.51798418637664,31.380508714452173,"2022-04-12"
"浦东新区","上海市浦东新区三吉村",121.73131036532526,31.11407326189662,"2022-04-12"
"浦东新区","上海市浦东新区三林村南行街金家宅",121.50671332680406,31.140756597820538,"2022-04-12"
"浦东新区","上海市浦东新区三林村镇前队洪家新宅",121.5046341987012,31.13952467804987,"2022-04-12"
"浦东新区","上海市浦东新区三林路165号",121.50129088525416,31.14243472734326,"2022-04-12"
"浦东新区","上海市浦东新区三林路184号",121.5025309960107,31.14241486936929,"2022-04-12"
"浦东新区","上海市浦东新区三林路235号",121.50273652831137,31.143691257217654,"2022-04-12"
"浦东新区","上海市浦东新区三林路359弄",121.53688426481492,31.18970225553777,"2022-04-12"
"浦东新区","上海市浦东新区三林路430弄",121.50748703733979,31.14472972450974,"2022-04-12"
"浦东新区","上海市浦东新区三林路675弄",121.5116861664462,31.147046995039812,"2022-04-12"
"浦东新区","上海市浦东新区三林路788弄",121.51430643378824,31.147340445444716,"2022-04-12"
"浦东新区","上海市浦东新区三林镇大陈家宅",121.50909724996643,31.15089708721877,"2022-04-12"
"浦东新区","上海市浦东新区三林镇大瞿家宅",121.53261120516505,31.1270776188598,"2022-04-12"
"浦东新区","上海市浦东新区三林镇红旗村",121.50596809255296,31.13338755586118,"2022-04-12"
"浦东新区","上海市浦东新区三林镇庞家宅",121.482806722267,31.124007039641032,"2022-04-12"
"浦东新区","上海市浦东新区三林镇小陈家宅",121.52472668787344,31.1243504097577,"2022-04-12"
"浦东新区","上海市浦东新区三林镇小金家宅",121.48845769273862,31.12994199578137,"2022-04-12"
"浦东新区","上海市浦东新区三三公路5020弄",121.8799029424444,30.98125570677017,"2022-04-12"
"浦东新区","上海市浦东新区三舒路181弄",121.52553031198265,31.139159418419815,"2022-04-12"
"浦东新区","上海市浦东新区三旋路506弄",121.52553031198265,31.139159418419815,"2022-04-12"
"浦东新区","上海市浦东新区三灶村",121.71252634795889,31.075053958120254,"2022-04-12"
"浦东新区","上海市浦东新区森林村孙家宅",121.7524338397313,31.209180509097376,"2022-04-12"
"浦东新区","上海市浦东新区森林村杨家宅",121.74440496474422,31.209984837533348,"2022-04-12"
"浦东新区","上海市浦东新区沙北村",121.59799095814788,31.05717724748277,"2022-04-12"
"浦东新区","上海市浦东新区商城路1028弄",121.53281691712684,31.237543716492585,"2022-04-12"
"浦东新区","上海市浦东新区商城路108弄",121.515923024384,31.233896804114586,"2022-04-12"
"浦东新区","上海市浦东新区商城路1177弄",121.53330308006883,31.240919559981307,"2022-04-12"
"浦东新区","上海市浦东新区商城路1266号工地生活区",121.53685884276898,31.241609147960517,"2022-04-12"
"浦东新区","上海市浦东新区商城路341号",121.51784521851424,31.235682492828975,"2022-04-12"
"浦东新区","上海市浦东新区商城路918弄",121.52874947960822,31.23782785243076,"2022-04-12"
"浦东新区","上海市浦东新区商城路930号",121.52946120706376,31.238358530525517,"2022-04-12"
"浦东新区","上海市浦东新区上川路620号",121.6544609577605,31.279709584018402,"2022-04-12"
"浦东新区","上海市浦东新区上南路1000弄",121.50066746123024,31.180593835385782,"2022-04-12"
"浦东新区","上海市浦东新区上南路1251弄",121.50260627401242,31.178521236106434,"2022-04-12"
"浦东新区","上海市浦东新区上南路1500弄",121.50233130269582,31.17495691317739,"2022-04-12"
"浦东新区","上海市浦东新区上南路1551弄",121.50452460542898,31.17454150695551,"2022-04-12"
"浦东新区","上海市浦东新区上南路3058弄",121.50351589817183,31.166831594975967,"2022-04-12"
"浦东新区","上海市浦东新区上南路3339弄",121.51310917220454,31.16583609100493,"2022-04-12"
"浦东新区","上海市浦东新区上南路3827弄",121.51337641809376,31.157441286606257,"2022-04-12"
"浦东新区","上海市浦东新区上南路3848弄",121.51183600380526,31.156075235710073,"2022-04-12"
"浦东新区","上海市浦东新区上南路3880弄",121.5122859650352,31.155066947292617,"2022-04-12"
"浦东新区","上海市浦东新区上南路5588号",121.53410068553116,31.12914416758575,"2022-04-12"
"浦东新区","上海市浦东新区上南路6500弄",121.58485970786411,31.120077939878794,"2022-04-12"
"浦东新区","上海市浦东新区上南路6869弄",121.57180786778744,31.1245453952005,"2022-04-12"
"浦东新区","上海市浦东新区上南路929弄",121.50767882556616,31.18609371739358,"2022-04-12"
"浦东新区","上海市浦东新区上南路东明路交界口工地生活区",121.524156982519,31.16133938991003,"2022-04-12"
"浦东新区","上海市浦东新区上浦路201弄",121.4998086811627,31.15145537649195,"2022-04-12"
"浦东新区","上海市浦东新区上浦路202弄",121.49871723996809,31.150139999629182,"2022-04-12"
"浦东新区","上海市浦东新区上浦路276弄",121.52553031198265,31.139159418419815,"2022-04-12"
"浦东新区","上海市浦东新区上浦路510弄",121.50622294182614,31.152101739360106,"2022-04-12"
"浦东新区","上海市浦东新区上浦路69弄",121.49651181011053,31.15167626528333,"2022-04-12"
"浦东新区","上海市浦东新区尚博路799弄",121.530770397514,31.156164699441437,"2022-04-12"
"浦东新区","上海市浦东新区申江路985弄",121.63373516320374,31.292824425912787,"2022-04-12"
"浦东新区","上海市浦东新区申江路轲桥路交界口工地生活区",121.63667774256278,31.29081163122542,"2022-04-12"
"浦东新区","上海市浦东新区申江南路5550号",121.6517467276621,31.071525376293682,"2022-04-12"
"浦东新区","上海市浦东新区沈家弄路900弄",121.55137033946883,31.24494602122636,"2022-04-12"
"浦东新区","上海市浦东新区沈家弄路901弄",121.55289826731075,31.244971955008257,"2022-04-12"
"浦东新区","上海市浦东新区沈家弄路936号",121.55367107954098,31.2460098406675,"2022-04-12"
"浦东新区","上海市浦东新区沈梅东路300弄",121.59944531476852,31.097618118483165,"2022-04-12"
"浦东新区","上海市浦东新区沈西村梅林施家宅",121.56652502291381,31.098212439231574,"2022-04-12"
"浦东新区","上海市浦东新区沈庄村",121.58911480140377,31.0850414945296,"2022-04-12"
"浦东新区","上海市浦东新区胜利路169弄",121.69449403264322,31.251585837948543,"2022-04-12"
"浦东新区","上海市浦东新区盛苑路800弄",121.53976396278826,31.162400837526043,"2022-04-12"
"浦东新区","上海市浦东新区盛朱村",121.70474253071492,31.27496750639308,"2022-04-12"
"浦东新区","上海市浦东新区施湾二路1026弄",121.75563252599123,31.14722547604309,"2022-04-12"
"浦东新区","上海市浦东新区施湾三路1106弄",121.75867957828106,31.14561635323,"2022-04-12"
"浦东新区","上海市浦东新区世博家园大道站路94弄",121.5456103147083,31.165459346349106,"2022-04-12"
"浦东新区","上海市浦东新区世纪大道1952号工地生活区",121.50876029197642,31.242508543199285,"2022-04-12"
"浦东新区","上海市浦东新区世纪大道杨高南路交界口工地生活区",121.54183716207474,31.22390950343021,"2022-04-12"
"浦东新区","上海市浦东新区寿光路161弄",121.59052532071554,31.280396185422553,"2022-04-12"
"浦东新区","上海市浦东新区寿光路31弄",121.58946046936401,31.278797451050615,"2022-04-12"
"浦东新区","上海市浦东新区寿光路75弄",121.58957799109862,31.279647069122593,"2022-04-12"
"浦东新区","上海市浦东新区寿光路78弄",121.59210202654666,31.279390855434528,"2022-04-12"
"浦东新区","上海市浦东新区寿光路81弄",121.59106026164673,31.279541462734393,"2022-04-12"
"浦东新区","上海市浦东新区曙光村小秦家宅",121.6968420235852,31.284485676008405,"2022-04-12"
"浦东新区","上海市浦东新区双桥路218弄",121.58962611690005,31.28158489894264,"2022-04-12"
"浦东新区","上海市浦东新区双桥路220弄",121.58962611690005,31.28158489894264,"2022-04-12"
"浦东新区","上海市浦东新区水洞港路69弄",121.67247000696344,31.301676859126427,"2022-04-12"
"浦东新区","上海市浦东新区顺和路126弄",121.63371207675215,31.191615827234507,"2022-04-12"
"浦东新区","上海市浦东新区思浦路11弄",121.50041692382352,31.164431614459954,"2022-04-12"
"浦东新区","上海市浦东新区思浦路13弄",121.50015946946435,31.164910255877725,"2022-04-12"
"浦东新区","上海市浦东新区思浦路17弄",121.49938162672326,31.16382581592963,"2022-04-12"
"浦东新区","上海市浦东新区思学路165弄",121.58962611690005,31.28158489894264,"2022-04-12"
"浦东新区","上海市浦东新区思学路55弄",121.58523762499216,31.30471207446924,"2022-04-12"
"浦东新区","上海市浦东新区四墩村",121.78368220537084,31.02076685120018,"2022-04-12"
"浦东新区","上海市浦东新区松林路95弄",121.53663049350834,31.23924489131142,"2022-04-12"
"浦东新区","上海市浦东新区孙环路366弄",121.64524955340009,31.18623227225343,"2022-04-12"
"浦东新区","上海市浦东新区孙桥路306号",121.63724852588382,31.18570832682328,"2022-04-12"
"浦东新区","上海市浦东新区孙耀路111弄",121.64271166067331,31.192538000690874,"2022-04-12"
"浦东新区","上海市浦东新区台儿庄路363弄",121.60033796095378,31.264978881782035,"2022-04-12"
"浦东新区","上海市浦东新区谈弄村",121.56382300977033,31.06163647708877,"2022-04-12"
"浦东新区","上海市浦东新区檀香村",121.60726299813021,31.011024437799293,"2022-04-12"
"浦东新区","上海市浦东新区坦北村",121.65121555961406,31.0897996061926,"2022-04-12"
"浦东新区","上海市浦东新区坦南村",121.65884962932951,31.072493887859476,"2022-04-12"
"浦东新区","上海市浦东新区汤店村",121.7272301718684,31.134640033962977,"2022-04-12"
"浦东新区","上海市浦东新区汤巷村",121.61059382513065,31.144564683154275,"2022-04-12"
"浦东新区","上海市浦东新区唐家新村",121.64685378924084,31.206056995294254,"2022-04-12"
"浦东新区","上海市浦东新区唐龙路115号",121.64713797124317,31.22214682804232,"2022-04-12"
"浦东新区","上海市浦东新区唐龙路73号",121.64630299627164,31.222147831677383,"2022-04-12"
"浦东新区","上海市浦东新区唐四村费家宅",121.66677699579395,31.218435852424488,"2022-04-12"
"浦东新区","上海市浦东新区唐四村龚家宅",121.66768949453099,31.221019816280922,"2022-04-12"
"浦东新区","上海市浦东新区唐四村孙家老宅",121.59418097498839,31.149032828193267,"2022-04-12"
"浦东新区","上海市浦东新区唐兴路373弄",121.65996757053668,31.211657095851816,"2022-04-12"
"浦东新区","上海市浦东新区唐镇包家宅",121.65488720372498,31.245149014624616,"2022-04-12"
"浦东新区","上海市浦东新区唐镇路127弄",121.65660494352117,31.21335549848134,"2022-04-12"
"浦东新区","上海市浦东新区塘路村",121.79720161346546,31.067992563751055,"2022-04-12"
"浦东新区","上海市浦东新区塘桥路551号",121.52765300790274,31.21690585341106,"2022-04-12"
"浦东新区","上海市浦东新区桃林路299号",121.54468775494955,31.245876236786383,"2022-04-12"
"浦东新区","上海市浦东新区桃园村",121.87326958506708,30.988719936704676,"2022-04-12"
"浦东新区","上海市浦东新区天花庵村北陈队大陈家宅",121.58259139662086,31.161181021514196,"2022-04-12"
"浦东新区","上海市浦东新区天花庵村东瞿队大瞿家宅",121.53261120516505,31.1270776188598,"2022-04-12"
"浦东新区","上海市浦东新区天花庵村芦家队芦家油车",121.53315971050945,31.130072519334625,"2022-04-12"
"浦东新区","上海市浦东新区天花庵村闵北队闵家宅",121.53989017471241,31.12623849791897,"2022-04-12"
"浦东新区","上海市浦东新区天花庵村闵西队闵家宅",121.53989017471241,31.12623849791897,"2022-04-12"
"浦东新区","上海市浦东新区天花庵村南陈队大陈家宅",121.58259139662086,31.161181021514196,"2022-04-12"
"浦东新区","上海市浦东新区天花庵村南王家队南王家宅",121.55380142367048,31.162845112362536,"2022-04-12"
"浦东新区","上海市浦东新区天花庵村南周家队大周家宅",121.53193954213525,31.128535900177152,"2022-04-12"
"浦东新区","上海市浦东新区天花庵村西瞿队大瞿家宅",121.53261120516505,31.1270776188598,"2022-04-12"
"浦东新区","上海市浦东新区听谐路86弄",121.75728900135162,31.062571836742553,"2022-04-12"
"浦东新区","上海市浦东新区听悦路1101弄",121.74342913546873,31.068606713207608,"2022-04-12"
"浦东新区","上海市浦东新区听悦路1353弄",121.74496407009362,31.07176918696991,"2022-04-12"
"浦东新区","上海市浦东新区听云路233弄",121.77485958763513,31.060910455271795,"2022-04-12"
"浦东新区","上海市浦东新区通济路328弄",121.7525324736763,31.05774885424886,"2022-04-12"
"浦东新区","上海市浦东新区瓦南村",121.65954446864147,31.10478087123219,"2022-04-12"
"浦东新区","上海市浦东新区晚霞路715弄",121.76062899106826,31.184636677841034,"2022-04-12"
"浦东新区","上海市浦东新区万德路52弄",121.56530314775914,31.255246569531966,"2022-04-12"
"浦东新区","上海市浦东新区万六村",121.82519047756205,30.97449923435299,"2022-04-12"
"浦东新区","上海市浦东新区万一村",121.83031881388794,30.960326945814295,"2022-04-12"
"浦东新区","上海市浦东新区王楼村",121.62415069256504,31.074255122839745,"2022-04-12"
"浦东新区","上海市浦东新区王桥村",121.70182842764055,31.21255135341995,"2022-04-12"
"浦东新区","上海市浦东新区望楼三村包家宅",121.76994298191792,31.15929433121406,"2022-04-12"
"浦东新区","上海市浦东新区微山二村",121.51989685846848,31.214418673428547,"2022-04-12"
"浦东新区","上海市浦东新区潍坊路126弄",121.53066547543045,31.229645611618768,"2022-04-12"
"浦东新区","上海市浦东新区潍坊路154弄",121.53230434400284,31.231346466894244,"2022-04-12"
"浦东新区","上海市浦东新区潍坊路606号",121.52801879790638,31.229204895697556,"2022-04-12"
"浦东新区","上海市浦东新区潍坊路716号",121.52839779300106,31.229747279368976,"2022-04-12"
"浦东新区","上海市浦东新区潍坊西路1弄",121.55045460683195,31.227348292436346,"2022-04-12"
"浦东新区","上海市浦东新区卫民村",121.74780819516877,31.10401135310868,"2022-04-12"
"浦东新区","上海市浦东新区卫行村王家宅",121.5950273584399,31.16387255262983,"2022-04-12"
"浦东新区","上海市浦东新区卫行村张浜队曹家宅",121.58720141066752,31.166665202015878,"2022-04-12"
"浦东新区","上海市浦东新区卫行村张浜队王家宅",121.5950273584399,31.16387255262983,"2022-04-12"
"浦东新区","上海市浦东新区卫行村张浜队杨家宅",121.58720141066752,31.166665202015878,"2022-04-12"
"浦东新区","上海市浦东新区卫行村朱家队朱家宅",121.58720141066752,31.166665202015878,"2022-04-12"
"浦东新区","上海市浦东新区文化路26弄",121.77485958763513,31.060910455271795,"2022-04-12"
"浦东新区","上海市浦东新区吴店村北朱家宅",121.80564397847878,30.942819291075963,"2022-04-12"
"浦东新区","上海市浦东新区五莲路100弄",121.58579735915542,31.281678100479343,"2022-04-12"
"浦东新区","上海市浦东新区五莲路1047弄",121.60139041568928,31.277745809783077,"2022-04-12"
"浦东新区","上海市浦东新区五莲路108弄",121.58877362497108,31.277157873113886,"2022-04-12"
"浦东新区","上海市浦东新区五莲路1168号",121.60292939268898,31.278456344054472,"2022-04-12"
"浦东新区","上海市浦东新区五莲路1728弄",121.6057738770863,31.287944455956875,"2022-04-12"
"浦东新区","上海市浦东新区五莲路1769弄",121.60380012021979,31.290088693222955,"2022-04-12"
"浦东新区","上海市浦东新区五莲路30弄",121.58450074498232,31.281555271944608,"2022-04-12"
"浦东新区","上海市浦东新区五莲路400弄",121.5879970398577,31.278002278635245,"2022-04-12"
"浦东新区","上海市浦东新区五莲路593弄",121.59341696615215,31.275602909383682,"2022-04-12"
"浦东新区","上海市浦东新区五莲路758弄",121.59711537976729,31.275933456115435,"2022-04-12"
"浦东新区","上海市浦东新区五莲路759弄",121.59770287157082,31.276387222961237,"2022-04-12"
"浦东新区","上海市浦东新区五莲路959弄",121.59865768049737,31.27732391544589,"2022-04-12"
"浦东新区","上海市浦东新区五四村沈家宅",121.6580400764039,31.26039873322475,"2022-04-12"
"浦东新区","上海市浦东新区五四村沈孙家宅",121.6580400764039,31.26039873322475,"2022-04-12"
"浦东新区","上海市浦东新区五四村唐朱家宅",121.6683389694147,31.258308838536237,"2022-04-12"
"浦东新区","上海市浦东新区五星村陈家队陈家宅",121.57857947438275,31.194413133383005,"2022-04-12"
"浦东新区","上海市浦东新区五星村家务队顾家宅",121.57836549801027,31.179988450201478,"2022-04-12"
"浦东新区","上海市浦东新区五星村三联队黄家宅",121.57836549801027,31.179988450201478,"2022-04-12"
"浦东新区","上海市浦东新区五星村吴家队吴家宅",121.5221809798887,31.125604863131734,"2022-04-12"
"浦东新区","上海市浦东新区西柴场",121.6774631483101,31.303329042391074,"2022-04-12"
"浦东新区","上海市浦东新区西林村洪家队洪家新宅",121.5046341987012,31.13952467804987,"2022-04-12"
"浦东新区","上海市浦东新区西林村圈门队王家沙",121.50505047347453,31.142465402882358,"2022-04-12"
"浦东新区","上海市浦东新区西林村圈门队西林街",121.50505047347453,31.142465402882358,"2022-04-12"
"浦东新区","上海市浦东新区西林村圈门队叶家宅",121.50505047347453,31.142465402882358,"2022-04-12"
"浦东新区","上海市浦东新区西林村西林队金家宅",121.50671332680406,31.140756597820538,"2022-04-12"
"浦东新区","上海市浦东新区西林街241弄",121.50305893015891,31.139497169652486,"2022-04-12"
"浦东新区","上海市浦东新区西门村",121.74801911730252,31.060393930804395,"2022-04-12"
"浦东新区","上海市浦东新区西门路113弄",121.75391424721174,31.05023957820921,"2022-04-12"
"浦东新区","上海市浦东新区西门路369号",121.75405860490719,31.05568375279359,"2022-04-12"
"浦东新区","上海市浦东新区西泥路153弄",121.70925570742759,31.203637195728223,"2022-04-12"
"浦东新区","上海市浦东新区西泰林路750弄",121.54451285486675,31.14902332485086,"2022-04-12"
"浦东新区","上海市浦东新区西泰林路850弄",121.5468220390107,31.14873915128947,"2022-04-12"
"浦东新区","上海市浦东新区西泰林路901弄",121.54507097208011,31.149459936767588,"2022-04-12"
"浦东新区","上海市浦东新区西新村草镇",121.53625922384107,31.363549527918256,"2022-04-12"
"浦东新区","上海市浦东新区西新村尖角圩",121.5232757448137,31.361953760539233,"2022-04-12"
"浦东新区","上海市浦东新区西营路170弄",121.48978601709622,31.172160880211475,"2022-04-12"
"浦东新区","上海市浦东新区西营路33弄",121.49042273604171,31.176566691455395,"2022-04-12"
"浦东新区","上海市浦东新区西营路44弄",121.4880839078159,31.17449006381075,"2022-04-12"
"浦东新区","上海市浦东新区西营南路11弄",121.49253501161785,31.167063880290602,"2022-04-12"
"浦东新区","上海市浦东新区西营南路18弄",121.4931336424097,31.165473482991562,"2022-04-12"
"浦东新区","上海市浦东新区西营南路518弄",121.49584302165835,31.158902881872834,"2022-04-12"
"浦东新区","上海市浦东新区西营南路68弄",121.52553031198265,31.139159418419815,"2022-04-12"
"浦东新区","上海市浦东新区溪平路425弄",121.69284698949069,31.26775586179088,"2022-04-12"
"浦东新区","上海市浦东新区霞光路368弄",121.8098417601269,30.90696240787527,"2022-04-12"
"浦东新区","上海市浦东新区霞玉路436弄",121.69608699780407,31.26229102730043,"2022-04-12"
"浦东新区","上海市浦东新区下南路1071弄",121.54152697718213,31.191389935442906,"2022-04-12"
"浦东新区","上海市浦东新区下南路115弄",121.55020362027247,31.172402344328333,"2022-04-12"
"浦东新区","上海市浦东新区下南路161弄",121.54990421504598,31.172731479156155,"2022-04-12"
"浦东新区","上海市浦东新区下南路225弄",121.55278588929146,31.17539958371751,"2022-04-12"
"浦东新区","上海市浦东新区下南路276弄",121.53688426481492,31.18970225553777,"2022-04-12"
"浦东新区","上海市浦东新区下南路320弄",121.547891741212,31.175548813657176,"2022-04-12"
"浦东新区","上海市浦东新区下南路370弄",121.53688426481492,31.18970225553777,"2022-04-12"
"浦东新区","上海市浦东新区下南路526弄",121.54440200396682,31.17804189176027,"2022-04-12"
"浦东新区","上海市浦东新区夏碧路79弄",121.59620584543843,31.34493691349129,"2022-04-12"
"浦东新区","上海市浦东新区先锋村卢家宅",121.70936539053037,31.11527776809923,"2022-04-12"
"浦东新区","上海市浦东新区先锋村西周家宅",121.63873441302788,31.11750912452037,"2022-04-12"
"浦东新区","上海市浦东新区先锋村杨树园",121.63965598465056,31.31208422282443,"2022-04-12"
"浦东新区","上海市浦东新区祥安路228弄",121.81714929578948,30.968807691229745,"2022-04-12"
"浦东新区","上海市浦东新区祥安路36弄",121.82119445533147,30.966646353950573,"2022-04-12"
"浦东新区","上海市浦东新区向东村顾家宅",121.7500085046849,31.241907087914267,"2022-04-12"
"浦东新区","上海市浦东新区小包新村包家宅",121.65488720372498,31.245149014624616,"2022-04-12"
"浦东新区","上海市浦东新区小湾村第二新村",121.69524232113304,31.238558759412708,"2022-04-12"
"浦东新区","上海市浦东新区小湾村东张家宅",121.69194760601408,31.236233793114234,"2022-04-12"
"浦东新区","上海市浦东新区小湾村顾家宅",121.69607693678236,31.23979022711445,"2022-04-12"
"浦东新区","上海市浦东新区小湾村奚家宅",121.71033261330244,31.235344555116807,"2022-04-12"
"浦东新区","上海市浦东新区新浜村鲍家宅",121.75805777120706,31.12765645183239,"2022-04-12"
"浦东新区","上海市浦东新区新浜村陈家宅",121.73824429572623,31.134541740382254,"2022-04-12"
"浦东新区","上海市浦东新区新浜村储家宅",121.74667525225958,31.13027212960437,"2022-04-12"
"浦东新区","上海市浦东新区新浜村乔家宅",121.073664584523,30.931023389117083,"2022-04-12"
"浦东新区","上海市浦东新区新北村",121.86627412073868,30.945495077166925,"2022-04-12"
"浦东新区","上海市浦东新区新场镇果园村",121.64244189952865,31.025361102765,"2022-04-12"
"浦东新区","上海市浦东新区新陈路150弄",121.53688426481492,31.18970225553777,"2022-04-12"
"浦东新区","上海市浦东新区新陈路428弄",121.57183733220816,31.186165620749417,"2022-04-12"
"浦东新区","上海市浦东新区新川路190弄",121.71252194626187,31.201261091713153,"2022-04-12"
"浦东新区","上海市浦东新区新川路742弄",121.6983041954638,31.197288197034478,"2022-04-12"
"浦东新区","上海市浦东新区新川路922弄",121.69452547333607,31.19679906404236,"2022-04-12"
"浦东新区","上海市浦东新区新春村陈桥队陈家桥",121.48244489558725,31.134022953659134,"2022-04-12"
"浦东新区","上海市浦东新区新春村汤顾家宅",121.6962565080538,31.16513428023422,"2022-04-12"
"浦东新区","上海市浦东新区新春村张陈家宅",121.57943277478668,31.27242515675476,"2022-04-12"
"浦东新区","上海市浦东新区新村路59弄",121.50318639971077,31.170014556678424,"2022-04-12"
"浦东新区","上海市浦东新区新德路341弄",121.7051139800433,31.203572332618545,"2022-04-12"
"浦东新区","上海市浦东新区新德路361号",121.70435051019037,31.203638740087428,"2022-04-12"
"浦东新区","上海市浦东新区新德路365弄",121.704561252663,31.203165624453405,"2022-04-12"
"浦东新区","上海市浦东新区新德路506弄",121.6995379282512,31.20325612431559,"2022-04-12"
"浦东新区","上海市浦东新区新德西路207弄",121.68014000889929,31.197583884180386,"2022-04-12"
"浦东新区","上海市浦东新区新德西路508弄",121.67638760712302,31.198096102613977,"2022-04-12"
"浦东新区","上海市浦东新区新光村姜薛家宅",121.66888954086177,31.26777484439184,"2022-04-12"
"浦东新区","上海市浦东新区新光村陆家宅",121.66633332270258,31.266371356162526,"2022-04-12"
"浦东新区","上海市浦东新区新光村沈家旗杆",121.66543331041213,31.261424331890485,"2022-04-12"
"浦东新区","上海市浦东新区新光村杨家圈",121.66633332270258,31.266371356162526,"2022-04-12"
"浦东新区","上海市浦东新区新虹村东包家宅",121.65488720372498,31.245149014624616,"2022-04-12"
"浦东新区","上海市浦东新区新虹村刘家宅",121.65503362752312,31.248713367963926,"2022-04-12"
"浦东新区","上海市浦东新区新虹村陆家宅",121.65503362752312,31.248713367963926,"2022-04-12"
"浦东新区","上海市浦东新区新虹村瞿家宅",121.65503362752312,31.248713367963926,"2022-04-12"
"浦东新区","上海市浦东新区新虹村张家宅",121.64193938742638,31.3298699592958,"2022-04-12"
"浦东新区","上海市浦东新区新华村强顾家宅",121.66710927900209,31.27121495272235,"2022-04-12"
"浦东新区","上海市浦东新区新华路25号",121.42859057117889,31.21102110381421,"2022-04-12"
"浦东新区","上海市浦东新区新环西路1000弄",121.6451056448574,31.034752228613804,"2022-04-12"
"浦东新区","上海市浦东新区新环西路58弄",121.65000958446691,31.021482350787366,"2022-04-12"
"浦东新区","上海市浦东新区新吉村",121.72502842506343,31.11674713037451,"2022-04-12"
"浦东新区","上海市浦东新区新龙路203弄",121.63662186796006,31.32035094299062,"2022-04-12"
"浦东新区","上海市浦东新区新龙路389弄",121.65277879086253,31.290487771739045,"2022-04-12"
"浦东新区","上海市浦东新区新龙路489弄",121.65277879086253,31.290487771739045,"2022-04-12"
"浦东新区","上海市浦东新区新龙路69弄",121.63439002792052,31.32351248858295,"2022-04-12"
"浦东新区","上海市浦东新区新苗村",121.64390317310173,31.127716189665108,"2022-04-12"
"浦东新区","上海市浦东新区新庙村",121.74625313850044,31.174551702890753,"2022-04-12"
"浦东新区","上海市浦东新区新民村",121.81351232627124,31.033313534820696,"2022-04-12"
"浦东新区","上海市浦东新区新农村沈家宅",121.55850126826813,31.362552263234768,"2022-04-12"
"浦东新区","上海市浦东新区新浦路199弄",121.54524578233234,31.1712264561122,"2022-04-12"
"浦东新区","上海市浦东新区新浦路346弄",121.54187632819497,31.17754663363552,"2022-04-12"
"浦东新区","上海市浦东新区新浦路543弄",121.536926664835,31.1758010055361,"2022-04-12"
"浦东新区","上海市浦东新区新浦路673弄",121.53688426481492,31.18970225553777,"2022-04-12"
"浦东新区","上海市浦东新区新浦路91弄",121.54575575037036,31.170038039358143,"2022-04-12"
"浦东新区","上海市浦东新区新生村金家宅",121.59324952200511,31.131094754366096,"2022-04-12"
"浦东新区","上海市浦东新区新生村陆家宅",121.74852180906589,31.182988845435954,"2022-04-12"
"浦东新区","上海市浦东新区新生村徐唐家宅",121.74623768764567,31.18727065485914,"2022-04-12"
"浦东新区","上海市浦东新区新生村叶家宅",121.74852180906589,31.182988845435954,"2022-04-12"
"浦东新区","上海市浦东新区新西村",121.64034040361861,31.024261127032798,"2022-04-12"
"浦东新区","上海市浦东新区新星村胡家宅",121.70827942899935,31.261838735382085,"2022-04-12"
"浦东新区","上海市浦东新区新星村黄家圈",121.71142565421749,31.262994116567363,"2022-04-12"
"浦东新区","上海市浦东新区新兴村",121.73220956914075,31.099081417842648,"2022-04-12"
"浦东新区","上海市浦东新区新雅东路51弄",121.6935185721458,31.24386901952387,"2022-04-12"
"浦东新区","上海市浦东新区新一村",121.79851107340734,31.17424258017939,"2022-04-12"
"浦东新区","上海市浦东新区新营村张刘家宅",121.75788215247987,31.202247879870665,"2022-04-12"
"浦东新区","上海市浦东新区新园路251弄",121.65277879086253,31.290487771739045,"2022-04-12"
"浦东新区","上海市浦东新区新园路288弄",121.65277879086253,31.290487771739045,"2022-04-12"
"浦东新区","上海市浦东新区新园路32弄",121.63550275895574,31.324576801348986,"2022-04-12"
"浦东新区","上海市浦东新区新园路436弄",121.65277879086253,31.290487771739045,"2022-04-12"
"浦东新区","上海市浦东新区新园路439弄",121.64171508054052,31.319689700213736,"2022-04-12"
"浦东新区","上海市浦东新区新园路50弄",121.63636360512595,31.324441536129832,"2022-04-12"
"浦东新区","上海市浦东新区新镇村陈家宅",121.74039403064216,31.255172867012874,"2022-04-12"
"浦东新区","上海市浦东新区新镇村石家观音堂",121.48808202137435,31.13219386872014,"2022-04-12"
"浦东新区","上海市浦东新区星光村",121.75520080036313,31.125544273851506,"2022-04-12"
"浦东新区","上海市浦东新区星火村陆家村宅",121.71170161367016,31.25916707390334,"2022-04-12"
"浦东新区","上海市浦东新区行南路1150弄",121.5914713262481,31.33675164077381,"2022-04-12"
"浦东新区","上海市浦东新区行南路349弄",121.59335677968299,31.33125575940075,"2022-04-12"
"浦东新区","上海市浦东新区行南路900弄",121.59295703373105,31.335887101737764,"2022-04-12"
"浦东新区","上海市浦东新区兴城路18弄",121.60237127547562,31.035538248356318,"2022-04-12"
"浦东新区","上海市浦东新区秀龙村",121.5691399004228,31.132605675883436,"2022-04-12"
"浦东新区","上海市浦东新区秀浦路788弄",121.58085533139229,31.13305774209223,"2022-04-12"
"浦东新区","上海市浦东新区秀浦路800弄",121.58485970786411,31.120077939878794,"2022-04-12"
"浦东新区","上海市浦东新区秀浦路886弄",121.5745632402782,31.13210646861891,"2022-04-12"
"浦东新区","上海市浦东新区秀浦路99号工地生活区",121.55231903991792,31.1299128617249,"2022-04-12"
"浦东新区","上海市浦东新区秀沿路2501弄",121.60721008793567,31.144675483422116,"2022-04-12"
"浦东新区","上海市浦东新区秀沿路2547弄",121.58485970786411,31.120077939878794,"2022-04-12"
"浦东新区","上海市浦东新区秀沿路2585弄",121.58485970786411,31.120077939878794,"2022-04-12"
"浦东新区","上海市浦东新区秀沿路2875弄",121.61606648195854,31.14493023082232,"2022-04-12"
"浦东新区","上海市浦东新区秀沿路3668号",121.62337150236567,31.143296806623685,"2022-04-12"
"浦东新区","上海市浦东新区秀沿路505弄",121.56827887459148,31.141943685548398,"2022-04-12"
"浦东新区","上海市浦东新区秀沿西路218弄",121.54052186314703,31.13576460720778,"2022-04-12"
"浦东新区","上海市浦东新区秀沿西路258弄",121.5383462570324,31.135478848031838,"2022-04-12"
"浦东新区","上海市浦东新区徐路村",121.65523709372113,31.318812046271606,"2022-04-12"
"浦东新区","上海市浦东新区徐庙村",121.72120272155755,31.036218516427077,"2022-04-12"
"浦东新区","上海市浦东新区宣镇东路625弄",121.70641328913291,31.02702001644291,"2022-04-12"
"浦东新区","上海市浦东新区宣镇东路628弄",121.7078742033838,31.02632142416332,"2022-04-12"
"浦东新区","上海市浦东新区宣治村",121.6928753759448,31.02321599120978,"2022-04-12"
"浦东新区","上海市浦东新区薛洪村",121.82175832170007,31.10051539665925,"2022-04-12"
"浦东新区","上海市浦东新区学前二村",121.59049253256443,31.352587432129926,"2022-04-12"
"浦东新区","上海市浦东新区雪野二路296号工地生活区",121.48186305578379,31.183182003977617,"2022-04-12"
"浦东新区","上海市浦东新区雪野路34弄",121.50382231018129,31.186552940240503,"2022-04-12"
"浦东新区","上海市浦东新区迅建村蔡家宅",121.69714879491686,31.289202814595352,"2022-04-12"
"浦东新区","上海市浦东新区迅建村撑圩村",121.69948528754833,31.28675034579566,"2022-04-12"
"浦东新区","上海市浦东新区迅建村黄家宅",121.69922513827262,31.284090892321522,"2022-04-12"
"浦东新区","上海市浦东新区迅建村季家厅",121.69319059134826,31.28573482324362,"2022-04-12"
"浦东新区","上海市浦东新区迅建村南黄家宅",121.72399950593231,31.068894608885635,"2022-04-12"
"浦东新区","上海市浦东新区严民路40弄",121.53536082850054,31.198209156327895,"2022-04-12"
"浦东新区","上海市浦东新区严木桥路198弄",121.81422459271009,30.96331081503018,"2022-04-12"
"浦东新区","上海市浦东新区严杨路166弄",121.53619499499712,31.20036688077375,"2022-04-12"
"浦东新区","上海市浦东新区严镇路96弄",121.53555845571275,31.19681134259362,"2022-04-12"
"浦东新区","上海市浦东新区严中路140弄",121.53610588309053,31.199272348787943,"2022-04-12"
"浦东新区","上海市浦东新区严中路300弄",121.5388766166055,31.196156020936083,"2022-04-12"
"浦东新区","上海市浦东新区沿北村",121.60867899710559,31.145196644713096,"2022-04-12"
"浦东新区","上海市浦东新区沿南村",121.60561972786081,31.138641778105654,"2022-04-12"
"浦东新区","上海市浦东新区盐大路2585弄",121.80704847914363,31.064548086968227,"2022-04-12"
"浦东新区","上海市浦东新区杨高北路3839弄",121.61451331173178,31.29155986731881,"2022-04-12"
"浦东新区","上海市浦东新区杨高北路3885弄",121.614215972608,31.28989914383082,"2022-04-12"
"浦东新区","上海市浦东新区杨高北路5291弄",121.61256156335027,31.27061038496563,"2022-04-12"
"浦东新区","上海市浦东新区杨高南路1126号",121.53661198841485,31.212488890014733,"2022-04-12"
"浦东新区","上海市浦东新区杨高南路1号工地生活区",121.53554237604412,31.201715452619347,"2022-04-12"
"浦东新区","上海市浦东新区杨高南路2030弄",121.5289322847795,31.19671087465208,"2022-04-12"
"浦东新区","上海市浦东新区杨高南路3225号工地生活区",121.52878352538704,31.174982248417354,"2022-04-12"
"浦东新区","上海市浦东新区杨高南路3340弄",121.52561843575319,31.17425926448967,"2022-04-12"
"浦东新区","上海市浦东新区杨高南路5055弄",121.5375261041018,31.15615318813709,"2022-04-12"
"浦东新区","上海市浦东新区杨高南路5135弄",121.53854361475295,31.154549626464817,"2022-04-12"
"浦东新区","上海市浦东新区杨高中路10弄",121.60637358584478,31.263420011224802,"2022-04-12"
"浦东新区","上海市浦东新区杨高中路266弄",121.60275036040082,31.25833114148833,"2022-04-12"
"浦东新区","上海市浦东新区杨莲路160弄",121.53688426481492,31.18970225553777,"2022-04-12"
"浦东新区","上海市浦东新区杨莲路310弄",121.53688426481492,31.18970225553777,"2022-04-12"
"浦东新区","上海市浦东新区杨莲路鹏岳路交界口工地生活区",121.56046433529909,31.178550046121984,"2022-04-12"
"浦东新区","上海市浦东新区杨南路689弄",121.50710462868419,31.15691772109531,"2022-04-12"
