"district","address","lng","lat","date"
"浦东新区","上海市浦东新区博兴路799弄",121.59697731021,31.27188533547,2022-05-21
"浦东新区","上海市浦东新区草高支路168弄",121.589932708571,31.3581616893912,2022-05-21
"浦东新区","上海市浦东新区成山路24弄",121.492308997952,31.1741468770644,2022-05-21
"浦东新区","上海市浦东新区德州路421弄",121.489477988137,31.1738128809246,2022-05-21
"浦东新区","上海市浦东新区繁荣东路159弄",121.591870173895,31.1128143261855,2022-05-21
"浦东新区","上海市浦东新区芳华路268弄",121.56231331753,31.2011148370709,2022-05-21
"浦东新区","上海市浦东新区芳华路411弄",121.565570303818,31.2023994608537,2022-05-21
"浦东新区","上海市浦东新区高桥镇南塘村顾家宅",121.5746809183,31.345394276907,2022-05-21
"浦东新区","上海市浦东新区高桥镇西新村尖角圩",121.523275744814,31.3619537605392,2022-05-21
"浦东新区","上海市浦东新区海鹏路380弄",121.676483635982,31.2939871381692,2022-05-21
"浦东新区","上海市浦东新区航昌路489弄",121.616375094816,31.0804408738662,2022-05-21
"浦东新区","上海市浦东新区航头路988弄",121.606904664062,31.0406249008946,2022-05-21
"浦东新区","上海市浦东新区航头镇果园村",121.642441899529,31.025361102765,2022-05-21
"浦东新区","上海市浦东新区和炯路77弄",121.525530311983,31.1391594184198,2022-05-21
"浦东新区","上海市浦东新区沪南路2688弄",121.570334646751,31.1439723553759,2022-05-21
"浦东新区","上海市浦东新区荟萃新村",121.338402135266,31.8355999753659,2022-05-21
"浦东新区","上海市浦东新区金桥路2552弄",121.609184383785,31.2399130333655,2022-05-21
"浦东新区","上海市浦东新区金钻路669弄",121.681134073777,31.2897694600404,2022-05-21
"浦东新区","上海市浦东新区靖海路525弄",121.775238133577,31.0618324432455,2022-05-21
"浦东新区","上海市浦东新区柳埠路142弄",121.588915647072,31.2693304014172,2022-05-21
"浦东新区","上海市浦东新区南港大道与环湖南三路交界口工地生活区",121.894828827476,30.9001927274634,2022-05-21
"浦东新区","上海市浦东新区乳山路200弄",121.535521715017,31.2435075340906,2022-05-21
"浦东新区","上海市浦东新区瑞浦路77弄",121.592640920022,31.1039600259099,2022-05-21
"浦东新区","上海市浦东新区沈家弄路900弄",121.551370339469,31.2449460212264,2022-05-21
"浦东新区","上海市浦东新区世博家园大道站路94弄",121.545610314708,31.1654593463491,2022-05-21
"浦东新区","上海市浦东新区万安街333弄",121.620487043373,31.3020433364024,2022-05-21
"浦东新区","上海市浦东新区耀华路220弄",121.497392239341,31.1792613340205,2022-05-21
"浦东新区","上海市浦东新区永泰路133弄",121.509215736463,31.1415938891426,2022-05-21
"浦东新区","上海市浦东新区张杨北路588弄",121.595215283953,31.275260170384,2022-05-21
"浦东新区","上海市浦东新区招远路19弄",121.521229943845,31.2416451169276,2022-05-21
"浦东新区","上海市浦东新区竹柏路333弄",121.917056768507,30.9044334108221,2022-05-21
"黄浦区","上海市黄浦区打浦路398弄",121.478787972907,31.2038108587615,2022-05-21
"黄浦区","上海市黄浦区复兴中路455弄",121.479210535819,31.2207000383118,2022-05-21
"黄浦区","上海市黄浦区淮海中路927弄",121.467196957251,31.2226196933692,2022-05-21
"黄浦区","上海市黄浦区黄河路288号",121.47590926307,31.2434954160334,2022-05-21
"黄浦区","上海市黄浦区黄家路88弄",121.50359063719,31.2212345193213,2022-05-21
"黄浦区","上海市黄浦区江阴街8号",121.50173366004,31.2197505028435,2022-05-21
"黄浦区","上海市黄浦区聚奎新村",121.502708501179,31.2294960046602,2022-05-21
"黄浦区","上海市黄浦区丽园路333弄",121.490709205669,31.215059429318,2022-05-21
"黄浦区","上海市黄浦区丽园路448弄",121.489317910095,31.2139192066145,2022-05-21
"黄浦区","上海市黄浦区灵济街61号",121.502149306,31.226673498731,2022-05-21
"黄浦区","上海市黄浦区龙华东路39号",121.492922091462,31.2027595322718,2022-05-21
"黄浦区","上海市黄浦区陆家浜路1300号",121.49057401069,31.2171658862935,2022-05-21
"黄浦区","上海市黄浦区陆家浜路976号",121.496603796595,31.2177531966214,2022-05-21
"黄浦区","上海市黄浦区蒙自路440弄",121.485670969386,31.2082518590436,2022-05-21
"黄浦区","上海市黄浦区普育东路200弄",121.502308755228,31.2136236482467,2022-05-21
"黄浦区","上海市黄浦区瞿溪路117号",121.501438117527,31.2125793808676,2022-05-21
"黄浦区","上海市黄浦区瞿溪路120弄",121.50172216173,31.2120859266995,2022-05-21
"黄浦区","上海市黄浦区瞿溪路129号",121.500388267878,31.2118219419358,2022-05-21
"黄浦区","上海市黄浦区瞿溪路937弄",121.484684090952,31.2063509816511,2022-05-21
"黄浦区","上海市黄浦区尚文路133弄",121.497992576913,31.2215084367606,2022-05-21
"黄浦区","上海市黄浦区五里桥路210弄",121.487184254848,31.2096193117683,2022-05-21
"黄浦区","上海市黄浦区斜土东路68弄",121.497270968097,31.2140800338297,2022-05-21
"黄浦区","上海市黄浦区巡道街37弄",121.504213881553,31.2259766210944,2022-05-21
"静安区","上海市静安区宝昌路731弄",121.477102302618,31.270603131672,2022-05-21
"静安区","上海市静安区常德路633弄",121.450978230929,31.2376848196961,2022-05-21
"静安区","上海市静安区长安路550弄",121.460865430525,31.2481368257918,2022-05-21
"静安区","上海市静安区长临路380弄",121.443140605185,31.3245933817358,2022-05-21
"静安区","上海市静安区柳营路1025弄",121.456559762385,31.2682738693517,2022-05-21
"静安区","上海市静安区柳营路319弄",121.469876782248,31.273721070047,2022-05-21
"静安区","上海市静安区洛川中路1100弄",121.456053477399,31.2707076099104,2022-05-21
"静安区","上海市静安区梅园路37号",121.46701909276,31.2475239274638,2022-05-21
"静安区","上海市静安区彭浦新村272号",121.459823306303,31.312285759162,2022-05-21
"静安区","上海市静安区平型关路188弄",121.473003244745,31.2746712149962,2022-05-21
"静安区","上海市静安区青云路449号",121.477170573836,31.2686674081081,2022-05-21
"静安区","上海市静安区曲沃路255弄",121.451389834514,31.3165638879911,2022-05-21
"静安区","上海市静安区三泉路821弄",121.444705363553,31.3222946950465,2022-05-21
"静安区","上海市静安区陕西北路175弄",121.462000709028,31.2329079565099,2022-05-21
"静安区","上海市静安区谈家桥路163弄",121.456271855469,31.2669146046022,2022-05-21
"静安区","上海市静安区通阁路200弄",121.47688104997,31.266835432512,2022-05-21
"静安区","上海市静安区万荣路970弄",121.446858961183,31.2944005486238,2022-05-21
"静安区","上海市静安区西藏北路1009号",121.473537556862,31.2660322872826,2022-05-21
"静安区","上海市静安区西藏北路693号",121.474947986344,31.2604408686512,2022-05-21
"静安区","上海市静安区延安中路504弄",121.471168994724,31.230550890728,2022-05-21
"静安区","上海市静安区阳泉路345弄",121.469696492332,31.3191404348035,2022-05-21
"静安区","上海市静安区永兴路888弄",121.466957648663,31.2575171188755,2022-05-21
"静安区","上海市静安区芷江西路123弄",121.47196390527,31.2651924035841,2022-05-21
"静安区","上海市静安区芷江西路165弄",121.470599019878,31.2649569662532,2022-05-21
"静安区","上海市静安区芷江西路218号",121.469186883616,31.2637930436534,2022-05-21
"静安区","上海市静安区芷江西路285弄",121.46675184687,31.2636787572939,2022-05-21
"静安区","上海市静安区芷江西路453弄",121.463827503113,31.2631902799212,2022-05-21
"静安区","上海市静安区中华新路455弄",121.4744274183,31.2614964089054,2022-05-21
"静安区","上海市静安区中华新路730弄",121.466466634871,31.2596556494775,2022-05-21
"静安区","上海市静安区中山北路197弄",121.476573919317,31.2714033054513,2022-05-21
"静安区","上海市静安区中兴路1340弄",121.46757667099,31.2582863812331,2022-05-21
"静安区","上海市静安区中兴路1385弄",121.467360628515,31.2589000578996,2022-05-21
"静安区","上海市静安区中兴路700号",121.478311421834,31.2603330605716,2022-05-21
"徐汇区","上海市徐汇区漕溪一村",121.443510976547,31.1794268550151,2022-05-21
"徐汇区","上海市徐汇区东安路346号",121.461514007103,31.1964012072213,2022-05-21
"徐汇区","上海市徐汇区东安四村",121.456663067518,31.1926611778501,2022-05-21
"徐汇区","上海市徐汇区丰谷路180弄",121.459914933465,31.1745419704071,2022-05-21
"徐汇区","上海市徐汇区机场新村",121.458088049549,31.1737422039756,2022-05-21
"徐汇区","上海市徐汇区南昌路615弄",121.46382867091,31.2203047535566,2022-05-21
"徐汇区","上海市徐汇区徐虹中路17号",121.432176157622,31.1944219370969,2022-05-21
"徐汇区","上海市徐汇区永川路65号",121.446079232,31.1584996108614,2022-05-21
"徐汇区","上海市徐汇区云锦路183弄",121.466453968763,31.1788608538771,2022-05-21
"长宁区","上海市长宁区江苏路256弄",121.436576866485,31.227403103289,2022-05-21
"长宁区","上海市长宁区天山西路1070号",121.361359178363,31.2260515794406,2022-05-21
"长宁区","上海市长宁区迎宾二路123号",121.357935878411,31.1932445488552,2022-05-21
"普陀区","上海市普陀区曹杨二村",121.411745007272,31.2501018398094,2022-05-21
"普陀区","上海市普陀区曹杨六村",121.420601580956,31.2447849383188,2022-05-21
"普陀区","上海市普陀区长寿路28弄",121.451453165052,31.2513741373454,2022-05-21
"普陀区","上海市普陀区昌化路994弄",121.451138488632,31.2523540686302,2022-05-21
"普陀区","上海市普陀区泰山一村",121.453747616986,31.2664736784822,2022-05-21
"普陀区","上海市普陀区新村路50弄",121.438774750576,31.2718808600946,2022-05-21
"普陀区","上海市普陀区宜川三村",121.447419503821,31.263551892326,2022-05-21
"普陀区","上海市普陀区真光路1433弄",121.389015452445,31.2522717970909,2022-05-21
"普陀区","上海市普陀区中山北路1885号",121.438557360643,31.2568350569271,2022-05-21
"虹口区","上海市虹口区宝安路192号",121.494078030992,31.2710236674443,2022-05-21
"虹口区","上海市虹口区宝安路279弄",121.493807191881,31.2722240744624,2022-05-21
"虹口区","上海市虹口区场中路4弄",121.511586454535,31.2697466989314,2022-05-21
"虹口区","上海市虹口区车站北路567弄",121.478357145584,31.3028918364631,2022-05-21
"虹口区","上海市虹口区车站北路716弄",121.472636017452,31.3044003733795,2022-05-21
"虹口区","上海市虹口区池沟路60弄",121.486056611941,31.3078208521029,2022-05-21
"虹口区","上海市虹口区大连路975弄",121.512150500564,31.2731188333283,2022-05-21
"虹口区","上海市虹口区大连西路201弄",121.500654974784,31.2818138906312,2022-05-21
"虹口区","上海市虹口区大连西路215弄",121.498152026141,31.281729870498,2022-05-21
"虹口区","上海市虹口区大连西路252弄",121.494563325572,31.2825141326205,2022-05-21
"虹口区","上海市虹口区东体育会路1051号",121.495739357203,31.2922464587251,2022-05-21
"虹口区","上海市虹口区多伦路201弄",121.488095316296,31.269706651114,2022-05-21
"虹口区","上海市虹口区多伦路208号",121.488294470627,31.2695818005827,2022-05-21
"虹口区","上海市虹口区飞虹路168弄",121.512193619229,31.269749090997,2022-05-21
"虹口区","上海市虹口区飞虹路187弄",121.508557009033,31.2674458892612,2022-05-21
"虹口区","上海市虹口区飞虹路237弄",121.508857492226,31.2682412287098,2022-05-21
"虹口区","上海市虹口区飞虹支路83弄",121.509606912581,31.2681014679884,2022-05-21
"虹口区","上海市虹口区高阳路394弄",121.507353099988,31.2602100496259,2022-05-21
"虹口区","上海市虹口区广中路45弄",121.485983400042,31.2814291256368,2022-05-21
"虹口区","上海市虹口区海宁路5号",121.498231975332,31.2588018945989,2022-05-21
"虹口区","上海市虹口区恒业路388弄",121.479535363091,31.2713869470974,2022-05-21
"虹口区","上海市虹口区花园路168弄",121.480377793999,31.2775736728029,2022-05-21
"虹口区","上海市虹口区华昌路183弄",121.480952260372,31.2702048941249,2022-05-21
"虹口区","上海市虹口区吉祥路84弄",121.494832248299,31.2709887128917,2022-05-21
"虹口区","上海市虹口区纪念路335弄",121.492257255554,31.3041783021089,2022-05-21
"虹口区","上海市虹口区金山路43号",121.49778003783,31.2504138765309,2022-05-21
"虹口区","上海市虹口区奎照路11弄",121.490410069934,31.306438097511,2022-05-21
"虹口区","上海市虹口区奎照路3号",121.487534324505,31.3057970422272,2022-05-21
"虹口区","上海市虹口区昆明路360号",121.517370733544,31.264214381759,2022-05-21
"虹口区","上海市虹口区凉城路585弄",121.477458840074,31.2990889532587,2022-05-21
"虹口区","上海市虹口区凉城路589弄",121.476085241119,31.3004005412168,2022-05-21
"虹口区","上海市虹口区临平北路60弄",121.498409211009,31.2687444180473,2022-05-21
"虹口区","上海市虹口区临平北路89弄",121.499160194415,31.270888247416,2022-05-21
"虹口区","上海市虹口区临平路133弄",121.505062241277,31.2678719951226,2022-05-21
"虹口区","上海市虹口区临平路250弄",121.502244795875,31.2678327953164,2022-05-21
"虹口区","上海市虹口区临平路333弄",121.50240532307,31.2698250197577,2022-05-21
"虹口区","上海市虹口区临平路80弄",121.498296024514,31.2685518930803,2022-05-21
"虹口区","上海市虹口区柳营路45弄",121.476111920793,31.2777241287197,2022-05-21
"虹口区","上海市虹口区青云路265号",121.480324344821,31.2701865293221,2022-05-21
"虹口区","上海市虹口区曲阳路779号",121.496904369618,31.2944236915322,2022-05-21
"虹口区","上海市虹口区曲阳南路18号",121.502225392476,31.271268194622,2022-05-21
"虹口区","上海市虹口区仁德路400弄",121.489898574777,31.3089944843658,2022-05-21
"虹口区","上海市虹口区瑞虹路10号",121.505071224332,31.2678859619786,2022-05-21
"虹口区","上海市虹口区瑞虹路25弄",121.511586454535,31.2697466989314,2022-05-21
"虹口区","上海市虹口区山阴路57弄",121.492247733516,31.2703181693838,2022-05-21
"虹口区","上海市虹口区水电路191弄",121.480956392578,31.2803403254677,2022-05-21
"虹口区","上海市虹口区四川北路1515弄",121.488911786174,31.261482363924,2022-05-21
"虹口区","上海市虹口区四川北路1999弄",121.490374317375,31.2694836485029,2022-05-21
"虹口区","上海市虹口区四川北路2023弄",121.48945076948,31.2695980820892,2022-05-21
"虹口区","上海市虹口区四平路186号",121.497340946096,31.2675833205744,2022-05-21
"虹口区","上海市虹口区天宝路388弄",121.505105898924,31.2722707570746,2022-05-21
"虹口区","上海市虹口区天宝路558弄",121.50477577165,31.2721861882261,2022-05-21
"虹口区","上海市虹口区天宝路59弄",121.502790696134,31.2667802589397,2022-05-21
"虹口区","上海市虹口区天宝路945弄",121.509041734686,31.2786382782283,2022-05-21
"虹口区","上海市虹口区天宝西路248弄",121.500003254136,31.279784424511,2022-05-21
"虹口区","上海市虹口区天宝西路4弄",121.511586454535,31.2697466989314,2022-05-21
"虹口区","上海市虹口区天通庵路666弄",121.483187873295,31.2699080474783,2022-05-21
"虹口区","上海市虹口区通州路188号",121.502826987676,31.2638528490862,2022-05-21
"虹口区","上海市虹口区通州路392弄",121.501437398883,31.2642075909767,2022-05-21
"虹口区","上海市虹口区通州路415弄",121.500348113621,31.2643689490895,2022-05-21
"虹口区","上海市虹口区同心路589号",121.479864681891,31.2747360288196,2022-05-21
"虹口区","上海市虹口区同心路765弄",121.478328040486,31.2773921994977,2022-05-21
"虹口区","上海市虹口区同心路803弄",121.477894518247,31.2774575515322,2022-05-21
"虹口区","上海市虹口区同心路990弄",121.475843507106,31.2799001571134,2022-05-21
"虹口区","上海市虹口区汶水东路181弄",121.491917965563,31.2973938819121,2022-05-21
"虹口区","上海市虹口区西宝兴路949弄",121.475029552484,31.2755931874033,2022-05-21
"虹口区","上海市虹口区新嘉路1弄",121.511586454535,31.2697466989314,2022-05-21
"虹口区","上海市虹口区榆兰新村",121.512035068306,31.2746007684919,2022-05-21
"虹口区","上海市虹口区玉田新村",121.502226200951,31.2828208918908,2022-05-21
"虹口区","上海市虹口区远洋新村",121.511162723826,31.2745868797992,2022-05-21
"虹口区","上海市虹口区岳州路50号",121.504737593665,31.2623609429007,2022-05-21
"虹口区","上海市虹口区乍浦路324号",121.493588364659,31.2556306706202,2022-05-21
"虹口区","上海市虹口区中山北一路244号",121.485344255672,31.2820617843026,2022-05-21
"虹口区","上海市虹口区中山北一路775号",121.489791137438,31.2912920181559,2022-05-21
"虹口区","上海市虹口区株洲路1号",121.473123977005,31.2837388490994,2022-05-21
"虹口区","上海市虹口区株洲路307弄",121.473123977005,31.2837388490994,2022-05-21
"杨浦区","上海市杨浦区波阳路301号",121.559337141545,31.2798919015258,2022-05-21
"杨浦区","上海市杨浦区凤城六村",121.523683845007,31.2896434019775,2022-05-21
"杨浦区","上海市杨浦区凤城三村",121.528297991259,31.2878228700411,2022-05-21
"杨浦区","上海市杨浦区国顺东路179弄",121.544615441356,31.3064829118234,2022-05-21
"杨浦区","上海市杨浦区国伟路100弄",121.542639977709,31.3404388729251,2022-05-21
"杨浦区","上海市杨浦区国伟路300号",121.540327649496,31.3380855227175,2022-05-21
"杨浦区","上海市杨浦区黄兴路1039弄",121.530002525964,31.2861163302003,2022-05-21
"杨浦区","上海市杨浦区黄兴路1778号",121.526561746369,31.2966512467528,2022-05-21
"杨浦区","上海市杨浦区佳木斯路185弄",121.547929290382,31.3045659044516,2022-05-21
"杨浦区","上海市杨浦区锦西路100弄",121.516099990569,31.2802103969353,2022-05-21
"杨浦区","上海市杨浦区控江路1211号",121.533013196881,31.2835470494064,2022-05-21
"杨浦区","上海市杨浦区控江路650弄",121.547080750998,31.2925779494198,2022-05-21
"杨浦区","上海市杨浦区控江路888弄",121.540224254532,31.2898464525802,2022-05-21
"杨浦区","上海市杨浦区控江七村",121.538589967317,31.289141868182,2022-05-21
"杨浦区","上海市杨浦区隆昌路8号",121.557826551,31.274426310929,2022-05-21
"杨浦区","上海市杨浦区眉州路420弄",121.541199724485,31.2683775785495,2022-05-21
"杨浦区","上海市杨浦区内江二村",121.550363518653,31.2907381882008,2022-05-21
"杨浦区","上海市杨浦区宁武路622号",121.54679580849,31.2790104783345,2022-05-21
"杨浦区","上海市杨浦区平凉路1759弄",121.549109035009,31.2747038533915,2022-05-21
"杨浦区","上海市杨浦区平凉路2545弄",121.545825458878,31.2725263921886,2022-05-21
"杨浦区","上海市杨浦区三门路358弄",121.499199540196,31.3169780467797,2022-05-21
"杨浦区","上海市杨浦区市光路390弄",121.525426108543,31.3236588602644,2022-05-21
"杨浦区","上海市杨浦区水丰路43号",121.549301002896,31.2868450080127,2022-05-21
"杨浦区","上海市杨浦区图们路10弄",121.554476859583,31.2981416795382,2022-05-21
"杨浦区","上海市杨浦区延吉五村",121.544066127537,31.2968505793421,2022-05-21
"杨浦区","上海市杨浦区延吉中路117弄",121.541784611202,31.2898969837216,2022-05-21
"杨浦区","上海市杨浦区延吉中路77号",121.539199377775,31.2903486769077,2022-05-21
"杨浦区","上海市杨浦区殷行一村",121.549065107869,31.3321741654561,2022-05-21
"宝山区","上海市宝山区宝安公路2145号",121.355202873727,31.3553998117508,2022-05-21
"宝山区","上海市宝山区宝荻路500弄",121.399915311842,31.3673450795525,2022-05-21
"宝山区","上海市宝山区宝荻路535弄",121.401101344607,31.3663057679309,2022-05-21
"宝山区","上海市宝山区长江路780弄",121.493205057698,31.3529252613858,2022-05-21
"宝山区","上海市宝山区佳龙路388号",121.390327212049,31.3451565746568,2022-05-21
"宝山区","上海市宝山区联长路221号",121.46935540573,31.3440797750947,2022-05-21
"宝山区","上海市宝山区罗芬路1288弄",121.354169013916,31.4109937744028,2022-05-21
"宝山区","上海市宝山区盘古路1848号",121.454297020636,31.4019519267094,2022-05-21
"宝山区","上海市宝山区沙浦路518弄",121.388102684216,31.3637188853256,2022-05-21
"宝山区","上海市宝山区市台路388弄",121.35909648913,31.3207953164791,2022-05-21
"宝山区","上海市宝山区淞发路26号",121.504981034459,31.3499043366335,2022-05-21
"宝山区","上海市宝山区铁城路1555号",121.459905950409,31.3631079021689,2022-05-21
"宝山区","上海市宝山区通南路167弄",121.479752573364,31.3462436160922,2022-05-21
"宝山区","上海市宝山区新二路183弄",121.481739175999,31.3316998495714,2022-05-21
"宝山区","上海市宝山区逸仙路1321弄",121.495561582542,31.321586268285,2022-05-21
"宝山区","上海市宝山区友谊路1528号",121.464080600691,31.3986804642638,2022-05-21
"宝山区","上海市宝山区真金路1039弄",121.412904809516,31.2911819313099,2022-05-21
"宝山区","上海市宝山区沈杨村",121.379187271522,31.3364164516448,2022-05-21
"宝山区","上海市宝山区泗塘一村",121.460399838779,31.3447274291945,2022-05-21
"宝山区","上海市宝山区泗塘三村",121.462006727675,31.3406413503301,2022-05-21
"宝山区","上海市宝山区淞南五村",121.491637424752,31.3448847930404,2022-05-21
"宝山区","上海市宝山区谭杨村",121.401169256504,31.3806532239243,2022-05-21
"宝山区","上海市宝山区永清二村",121.500347664469,31.3957558846403,2022-05-21
"闵行区","上海市闵行区宝铭路88弄",121.373712728252,31.1450163827288,2022-05-21
"闵行区","上海市闵行区春申路1888弄",121.429395722407,31.1186410906231,2022-05-21
"闵行区","上海市闵行区昆阳北路3251弄",121.368809294225,31.045572559536,2022-05-21
"闵行区","上海市闵行区闵驰一路29弄",121.552784452003,31.0459394548891,2022-05-21
"闵行区","上海市闵行区双柏路1688弄",121.430714255235,31.0915660836777,2022-05-21
"闵行区","上海市闵行区永联村",121.44892748928,31.112081897332,2022-05-21
"松江区","上海市松江区沪亭南路501弄",121.339041728789,31.1255065600961,2022-05-21
"松江区","上海市松江区沪亭南路503弄",121.338963037226,31.1254027699084,2022-05-21
"松江区","上海市松江区沪亭南路700弄",121.340810312677,31.1214847803534,2022-05-21
"松江区","上海市松江区明华路366弄",121.33823001993,31.0928468731448,2022-05-21
"松江区","上海市松江区佘北路1815号",121.204835783904,31.1288560698809,2022-05-21
"青浦区","上海市青浦区城东新村",121.127401759113,31.1543017811868,2022-05-21
"青浦区","上海市青浦区华南路577号",121.20920109953,31.2348344628328,2022-05-21
"青浦区","上海市青浦区崧泽大道333号",121.308617558455,31.1962050582445,2022-05-21
"青浦区","上海市青浦区龙联路58弄",121.303675620522,31.2042845888757,2022-05-21
