"district","address","lng","lat","date"
"浦东新区","上海市浦东新区白萱路99弄",121.59770960886215,31.336693424206917,"2022-04-25"
"浦东新区","上海市浦东新区白杨路1065弄",121.56564998351654,31.199409880283916,"2022-04-25"
"浦东新区","上海市浦东新区白杨路1155弄",121.56579802426458,31.197739179406092,"2022-04-25"
"浦东新区","上海市浦东新区板泉路2101弄",121.53960469322134,31.168815850763366,"2022-04-25"
"浦东新区","上海市浦东新区板泉路50号",121.50119826995608,31.163464745166774,"2022-04-25"
"浦东新区","上海市浦东新区北艾路1660弄",121.53028818711626,31.187040813780268,"2022-04-25"
"浦东新区","上海市浦东新区北艾路1765弄",121.52839860147601,31.184265453706548,"2022-04-25"
"浦东新区","上海市浦东新区北蔡大街31弄",121.56054356584508,31.19367809757782,"2022-04-25"
"浦东新区","上海市浦东新区北蔡镇北蔡村丁家宅",121.56985791601693,31.192184222632797,"2022-04-25"
"浦东新区","上海市浦东新区北蔡镇联勤村冯桥队张家宅",121.55744791522713,31.171212397581485,"2022-04-25"
"浦东新区","上海市浦东新区北蔡镇联勤村麦家宅",121.55391344236757,31.16926349405447,"2022-04-25"
"浦东新区","上海市浦东新区北蔡镇联勤村张家宅",121.55718596934042,31.173231011079945,"2022-04-25"
"浦东新区","上海市浦东新区北蔡镇联勤村赵家宅",121.55718596934042,31.173231011079945,"2022-04-25"
"浦东新区","上海市浦东新区北蔡镇南新村东钟家宅",121.54865494157326,31.173251634963325,"2022-04-25"
"浦东新区","上海市浦东新区北蔡镇南新村西钟家宅",121.54865494157326,31.173251634963325,"2022-04-25"
"浦东新区","上海市浦东新区北蔡镇卫行村张浜队南顾家宅",121.58814382297803,31.171721593130023,"2022-04-25"
"浦东新区","上海市浦东新区北蔡镇卫行村张浜队杨家宅",121.58720141066752,31.166665202015878,"2022-04-25"
"浦东新区","上海市浦东新区北蔡镇卫行村朱家队朱家宅",121.58720141066752,31.166665202015878,"2022-04-25"
"浦东新区","上海市浦东新区北蔡镇五星村陈家队奚家宅",121.57857947438275,31.194413133383005,"2022-04-25"
"浦东新区","上海市浦东新区北蔡镇五星村家务队顾家宅",121.57836549801027,31.179988450201478,"2022-04-25"
"浦东新区","上海市浦东新区北蔡镇五星村三联队黄家宅",121.57836549801027,31.179988450201478,"2022-04-25"
"浦东新区","上海市浦东新区北蔡镇五星村吴家队吴家宅",121.57836549801027,31.179988450201478,"2022-04-25"
"浦东新区","上海市浦东新区北蔡镇杨桥村西计队西计家宅",121.57064465198256,31.190980934765687,"2022-04-25"
"浦东新区","上海市浦东新区北蔡镇中界村复兴队陈家宅",121.57857947438275,31.194413133383005,"2022-04-25"
"浦东新区","上海市浦东新区北蔡镇中界村复兴队顾家宅",121.57806672159766,31.193715783941315,"2022-04-25"
"浦东新区","上海市浦东新区北蔡镇中界村复兴队苏家宅",121.57702962788638,31.19161049851133,"2022-04-25"
"浦东新区","上海市浦东新区北蔡镇中界村黄家队黄家宅",121.57417373500905,31.19544617406339,"2022-04-25"
"浦东新区","上海市浦东新区北蔡镇中界村季家队季家宅",121.57876102192631,31.19930987845819,"2022-04-25"
"浦东新区","上海市浦东新区北蔡镇中界村陆家队陆家宅",121.50741975425709,31.19056320545643,"2022-04-25"
"浦东新区","上海市浦东新区北蔡镇中界村沈家队姚家宅",121.57417373500905,31.19544617406339,"2022-04-25"
"浦东新区","上海市浦东新区北蔡镇中界村苏家队苏家宅",121.57702962788638,31.19161049851133,"2022-04-25"
"浦东新区","上海市浦东新区北蔡镇中界村庄家队蔡家宅",121.57857947438275,31.194413133383005,"2022-04-25"
"浦东新区","上海市浦东新区北新园路460弄",121.6347431518165,31.326191717177842,"2022-04-25"
"浦东新区","上海市浦东新区北园路258弄",121.53086597722027,31.20965266779081,"2022-04-25"
"浦东新区","上海市浦东新区北张家浜路172号",121.53232518469068,31.222430470322667,"2022-04-25"
"浦东新区","上海市浦东新区北张家浜路58号",121.52762345365146,31.222173076955738,"2022-04-25"
"浦东新区","上海市浦东新区北中路10弄",121.55985744009655,31.18877642435583,"2022-04-25"
"浦东新区","上海市浦东新区北中路354弄",121.56641390252221,31.1901497991136,"2022-04-25"
"浦东新区","上海市浦东新区碧云路199弄",121.57966310031944,31.242832393822923,"2022-04-25"
"浦东新区","上海市浦东新区博华路1018弄",121.55750199321884,31.176850857976813,"2022-04-25"
"浦东新区","上海市浦东新区博华路380弄",121.55452464943656,31.187116964146387,"2022-04-25"
"浦东新区","上海市浦东新区博华路980弄",121.55642681135393,31.17727104282873,"2022-04-25"
"浦东新区","上海市浦东新区博山东路112弄",121.56942681920269,31.255445681806076,"2022-04-25"
"浦东新区","上海市浦东新区博山东路459弄",121.57368038562298,31.25988214826509,"2022-04-25"
"浦东新区","上海市浦东新区博山东路811弄",121.57981814785047,31.265442810713736,"2022-04-25"
"浦东新区","上海市浦东新区博山路11弄",121.56421898283914,31.25189215853407,"2022-04-25"
"浦东新区","上海市浦东新区博山路12弄",121.56321782134827,31.253252567913812,"2022-04-25"
"浦东新区","上海市浦东新区博山路78弄",121.56207131402589,31.25146659723759,"2022-04-25"
"浦东新区","上海市浦东新区博兴路916弄",121.59799500052266,31.270420178729555,"2022-04-25"
"浦东新区","上海市浦东新区博兴路986弄",121.59726297136258,31.27067103482398,"2022-04-25"
"浦东新区","上海市浦东新区彩云路567弄",121.81425863848891,30.90479082708333,"2022-04-25"
"浦东新区","上海市浦东新区曹路镇顾东村苍龙桥",121.66803731842445,31.305629893530618,"2022-04-25"
"浦东新区","上海市浦东新区曹路镇顾东村船板桥",121.67028056694399,31.30311645627832,"2022-04-25"
"浦东新区","上海市浦东新区曹路镇顾东村水洞港",121.66964303952355,31.29976692689286,"2022-04-25"
"浦东新区","上海市浦东新区曹路镇顾东村吴家宅",121.66813478457229,31.299381001669992,"2022-04-25"
"浦东新区","上海市浦东新区曹路镇光明村沙桥宅",121.65818551206597,31.29296768284297,"2022-04-25"
"浦东新区","上海市浦东新区曹路镇黎明村张唐村",121.70091278483423,31.27455570739232,"2022-04-25"
"浦东新区","上海市浦东新区曹路镇联合村路南宅",121.34867488758638,31.408630188595996,"2022-04-25"
"浦东新区","上海市浦东新区曹路镇联合村西浜宅",121.68165491131131,31.303733155222663,"2022-04-25"
"浦东新区","上海市浦东新区曹路镇联合村西柴场",121.6774631483101,31.303329042391074,"2022-04-25"
"浦东新区","上海市浦东新区曹路镇民建村南邵家宅",121.65451647304103,31.28037867132429,"2022-04-25"
"浦东新区","上海市浦东新区曹路镇民建村徐家宅",121.65358097768292,31.273397305600508,"2022-04-25"
"浦东新区","上海市浦东新区曹路镇启明村龙王庙",121.70285995185766,31.281426348101498,"2022-04-25"
"浦东新区","上海市浦东新区曹路镇日新村北万家宅",121.67504212513016,31.269511195913047,"2022-04-25"
"浦东新区","上海市浦东新区曹路镇日新村南房宅",121.67561021353467,31.271915582828562,"2022-04-25"
"浦东新区","上海市浦东新区曹路镇日新村杨薛家宅",121.67495543864845,31.26547221132191,"2022-04-25"
"浦东新区","上海市浦东新区曹路镇五四村沈孙家宅",121.6580400764039,31.26039873322475,"2022-04-25"
"浦东新区","上海市浦东新区曹路镇五四村唐朱家宅",121.6683389694147,31.258308838536237,"2022-04-25"
"浦东新区","上海市浦东新区曹路镇新光村沈家旗杆",121.66543331041213,31.261424331890485,"2022-04-25"
"浦东新区","上海市浦东新区曹路镇新华村强顾家宅",121.66710927900209,31.27121495272235,"2022-04-25"
"浦东新区","上海市浦东新区曹路镇新华村新宅",121.66875344757702,31.27036315536467,"2022-04-25"
"浦东新区","上海市浦东新区曹路镇新华村薛家行",121.67158697264713,31.26939923145857,"2022-04-25"
"浦东新区","上海市浦东新区曹路镇新星村胡家宅",121.70827942899935,31.261838735382085,"2022-04-25"
"浦东新区","上海市浦东新区曹路镇星火村",121.70831760698351,31.261823069883153,"2022-04-25"
"浦东新区","上海市浦东新区曹路镇迅建村蔡家宅",121.69714879491686,31.289202814595352,"2022-04-25"
"浦东新区","上海市浦东新区曹路镇迅建村撑圩村",121.69948528754833,31.28675034579566,"2022-04-25"
"浦东新区","上海市浦东新区曹路镇迅建村葛家宅",121.69714879491686,31.289202814595352,"2022-04-25"
"浦东新区","上海市浦东新区曹路镇永丰村大徐家宅",121.70295589088612,31.26148004881695,"2022-04-25"
"浦东新区","上海市浦东新区曹路镇永利村冯家宅",121.70205902266495,31.270195403071813,"2022-04-25"
"浦东新区","上海市浦东新区曹路镇众三村顾家宅",121.6735742040963,31.287578000463697,"2022-04-25"
"浦东新区","上海市浦东新区曹路镇众三村南俞家圈",121.67245428661701,31.28855006872415,"2022-04-25"
"浦东新区","上海市浦东新区草高支路170弄",121.58842607056927,31.35798885280393,"2022-04-25"
"浦东新区","上海市浦东新区长岛路1201弄",121.59672973721186,31.2693476089323,"2022-04-25"
"浦东新区","上海市浦东新区长岛路1398弄",121.60597842125094,31.269798784217294,"2022-04-25"
"浦东新区","上海市浦东新区长岛路1560弄",121.60831428506853,31.270698813371908,"2022-04-25"
"浦东新区","上海市浦东新区长岛路588弄",121.58873194359542,31.266885513110953,"2022-04-25"
"浦东新区","上海市浦东新区长岛路800弄",121.59383476804486,31.265307536930138,"2022-04-25"
"浦东新区","上海市浦东新区长清路177弄",121.53688426481492,31.18970225553777,"2022-04-25"
"浦东新区","上海市浦东新区长清路643弄",121.49877580948733,31.164183177280332,"2022-04-25"
"浦东新区","上海市浦东新区长清路693弄",121.53688426481492,31.18970225553777,"2022-04-25"
"浦东新区","上海市浦东新区长清路807弄",121.4992229859702,31.16205328041866,"2022-04-25"
"浦东新区","上海市浦东新区长清路937弄",121.53688426481492,31.18970225553777,"2022-04-25"
"浦东新区","上海市浦东新区昌里东路395弄",121.5189664834518,31.18330234169044,"2022-04-25"
"浦东新区","上海市浦东新区昌里东路411弄",121.51930155140703,31.185511228668684,"2022-04-25"
"浦东新区","上海市浦东新区昌里东路500弄",121.52065736391323,31.18351774907825,"2022-04-25"
"浦东新区","上海市浦东新区昌里东路550弄",121.52139900494227,31.18353589919409,"2022-04-25"
"浦东新区","上海市浦东新区昌里东路650弄",121.52139900494227,31.18353589919409,"2022-04-25"
"浦东新区","上海市浦东新区昌里东路675弄",121.52415096387209,31.186762393304466,"2022-04-25"
"浦东新区","上海市浦东新区昌里东路71弄",121.51070692360975,31.18266438072873,"2022-04-25"
"浦东新区","上海市浦东新区昌里路167弄",121.50454544611682,31.181091626219736,"2022-04-25"
"浦东新区","上海市浦东新区昌里路340弄",121.50096839357609,31.178239082858738,"2022-04-25"
"浦东新区","上海市浦东新区昌邑路55弄",121.51912198013558,31.24605885186431,"2022-04-25"
"浦东新区","上海市浦东新区陈春东路88弄",121.56599583113788,31.181447145347832,"2022-04-25"
"浦东新区","上海市浦东新区陈春路620弄",121.55290760968805,31.178078194108803,"2022-04-25"
"浦东新区","上海市浦东新区陈邵路103号工地生活区",121.63919118651121,31.293293005844543,"2022-04-25"
"浦东新区","上海市浦东新区成山路1066弄",121.52722271956345,31.179217231083737,"2022-04-25"
"浦东新区","上海市浦东新区成山路143号",121.49798512097745,31.176820579877997,"2022-04-25"
"浦东新区","上海市浦东新区成山路1488弄",121.53343153775677,31.18197984224341,"2022-04-25"
"浦东新区","上海市浦东新区成山路1728弄",121.53553420146397,31.181824984316307,"2022-04-25"
"浦东新区","上海市浦东新区成山路226弄",121.50372008301424,31.176390428994402,"2022-04-25"
"浦东新区","上海市浦东新区成山路24弄",121.49230899795155,31.17414687706441,"2022-04-25"
"浦东新区","上海市浦东新区成山路345号",121.50887545833602,31.177826240072424,"2022-04-25"
"浦东新区","上海市浦东新区成山路475弄",121.51349724018485,31.178313077688014,"2022-04-25"
"浦东新区","上海市浦东新区成山路608弄",121.51511598671382,31.177611823719104,"2022-04-25"
"浦东新区","上海市浦东新区城南路747弄",121.69923609759985,31.19466326665228,"2022-04-25"
"浦东新区","上海市浦东新区川北公路3046号",121.619600775157,31.21102828451811,"2022-04-25"
"浦东新区","上海市浦东新区川环南路130弄",121.71721298746553,31.1961566387291,"2022-04-25"
"浦东新区","上海市浦东新区川环南路918弄",121.70236759060764,31.192514446419413,"2022-04-25"
"浦东新区","上海市浦东新区川环南路921弄",121.70144377322117,31.191838474918793,"2022-04-25"
"浦东新区","上海市浦东新区川沙路1666弄",121.67243200864038,31.28581336211361,"2022-04-25"
"浦东新区","上海市浦东新区川沙路389弄",121.67545489651201,31.28529236580147,"2022-04-25"
"浦东新区","上海市浦东新区川沙路4850弄",121.65277879086253,31.290487771739045,"2022-04-25"
"浦东新区","上海市浦东新区川沙路5122弄",121.70266385176483,31.196532410579437,"2022-04-25"
"浦东新区","上海市浦东新区川沙新镇陈桥村",121.70777440164164,31.20232857380201,"2022-04-25"
"浦东新区","上海市浦东新区川沙新镇城南村朱家宅",121.70598264147144,31.19406291479385,"2022-04-25"
"浦东新区","上海市浦东新区川沙新镇高桥村项家宅",121.73274127617212,31.16572377073479,"2022-04-25"
"浦东新区","上海市浦东新区川沙新镇果园村",121.70777440164164,31.20232857380201,"2022-04-25"
"浦东新区","上海市浦东新区川沙新镇和平村",121.73625113546069,31.20555766394675,"2022-04-25"
"浦东新区","上海市浦东新区川沙新镇华路村李家宅",121.74277930126281,31.20013653127087,"2022-04-25"
"浦东新区","上海市浦东新区川沙新镇黄楼村姚家宅",121.67026745168353,31.168147433085426,"2022-04-25"
"浦东新区","上海市浦东新区川沙新镇黄楼村张家宅",121.65798824417598,31.17533578243895,"2022-04-25"
"浦东新区","上海市浦东新区川沙新镇会龙村朱店",121.70777440164164,31.20232857380201,"2022-04-25"
"浦东新区","上海市浦东新区川沙新镇其成村",121.69209061625129,31.120092933510254,"2022-04-25"
"浦东新区","上海市浦东新区川沙新镇吴店村东乔家宅",121.72684686490729,31.157559333731182,"2022-04-25"
"浦东新区","上海市浦东新区川沙新镇吴店村西乔家宅",121.73538103674373,31.14259088659535,"2022-04-25"
"浦东新区","上海市浦东新区川沙新镇新春村徐家宅",121.70681617915415,31.170979272847344,"2022-04-25"
"浦东新区","上海市浦东新区川沙新镇新吉村新华",121.71895920354638,31.115371521688367,"2022-04-25"
"浦东新区","上海市浦东新区川沙新镇药师村曹家宅",121.68830201276296,31.209451836559015,"2022-04-25"
"浦东新区","上海市浦东新区川沙新镇长丰村杨家宅",121.67899889140996,31.190286185566155,"2022-04-25"
"浦东新区","上海市浦东新区川周公路2828弄",121.62452196223231,31.14912484831265,"2022-04-25"
"浦东新区","上海市浦东新区川周公路2880号",121.62225841200826,31.14881888686171,"2022-04-25"
"浦东新区","上海市浦东新区川周公路2928弄",121.62099799954723,31.147934683568153,"2022-04-25"
"浦东新区","上海市浦东新区川周公路4011弄",121.59395999183295,31.131479828376055,"2022-04-25"
"浦东新区","上海市浦东新区川周公路4058弄",121.59137826179726,31.132164580808443,"2022-04-25"
"浦东新区","上海市浦东新区川周路8828弄",121.71626186159158,31.193206090036565,"2022-04-25"
"浦东新区","上海市浦东新区创新西路199弄",121.66081045059668,31.207582255485885,"2022-04-25"
"浦东新区","上海市浦东新区创新西路28弄",121.6642993793669,31.210286275536046,"2022-04-25"
"浦东新区","上海市浦东新区创新西路75弄",121.66373147062347,31.209726792242737,"2022-04-25"
"浦东新区","上海市浦东新区创新中路199弄",121.66869568653271,31.214145121289572,"2022-04-25"
"浦东新区","上海市浦东新区创新中路399弄",121.67324470563524,31.215325489578447,"2022-04-25"
"浦东新区","上海市浦东新区创新中路593弄",121.67577702886787,31.216838837693654,"2022-04-25"
"浦东新区","上海市浦东新区创业路66弄",121.58485970786411,31.120077939878794,"2022-04-25"
"浦东新区","上海市浦东新区创业路798号",121.70320642829286,31.22134908917077,"2022-04-25"
"浦东新区","上海市浦东新区春晖路276弄",121.59182516878847,31.3464065285783,"2022-04-25"
"浦东新区","上海市浦东新区春源路58弄",121.6548831613502,31.21664481611231,"2022-04-25"
"浦东新区","上海市浦东新区达秀路151号",121.66013375705602,31.243292573416156,"2022-04-25"
"浦东新区","上海市浦东新区大同路1010弄",121.57860112354555,31.341412626376524,"2022-04-25"
"浦东新区","上海市浦东新区大同路688弄",121.50574171956445,30.834282337208627,"2022-04-25"
"浦东新区","上海市浦东新区大团镇赵桥村",121.74557222292388,30.994066049458617,"2022-04-25"
"浦东新区","上海市浦东新区德平路100弄",121.56868266291822,31.253939981179144,"2022-04-25"
"浦东新区","上海市浦东新区德平路1065弄",121.57423419096989,31.249263047832805,"2022-04-25"
"浦东新区","上海市浦东新区德平路143弄",121.56754846238132,31.257090271230506,"2022-04-25"
"浦东新区","上海市浦东新区德州路150弄",121.49257031502441,31.17204431909572,"2022-04-25"
"浦东新区","上海市浦东新区德州路220弄",121.53688426481492,31.18970225553777,"2022-04-25"
"浦东新区","上海市浦东新区德州路223弄",121.53688426481492,31.18970225553777,"2022-04-25"
"浦东新区","上海市浦东新区德州路246号",121.49969738111001,31.173831110161775,"2022-04-25"
"浦东新区","上海市浦东新区德州路255弄",121.49763226657313,31.176228764666757,"2022-04-25"
"浦东新区","上海市浦东新区德州路300弄",121.53688426481492,31.18970225553777,"2022-04-25"
"浦东新区","上海市浦东新区德州路421弄",121.48947798813685,31.173812880924558,"2022-04-25"
"浦东新区","上海市浦东新区德州路465弄",121.53688426481492,31.18970225553777,"2022-04-25"
"浦东新区","上海市浦东新区丁香路1299弄",121.56935998527274,31.236016885940792,"2022-04-25"
"浦东新区","上海市浦东新区丁香路999弄",121.5605138319327,31.233326037303364,"2022-04-25"
"浦东新区","上海市浦东新区东波路49弄",121.58337804275595,31.290723839031642,"2022-04-25"
"浦东新区","上海市浦东新区东波路585弄",121.59286001673597,31.289979530718124,"2022-04-25"
"浦东新区","上海市浦东新区东昌路490弄",121.5197235753356,31.23752233486166,"2022-04-25"
"浦东新区","上海市浦东新区东昌路498弄",121.52002666361467,31.237869843650785,"2022-04-25"
"浦东新区","上海市浦东新区东方路1800弄",121.5284736099861,31.209089242825165,"2022-04-25"
"浦东新区","上海市浦东新区东方路2851弄",121.52612004954996,31.201634526500968,"2022-04-25"
"浦东新区","上海市浦东新区东方路2993弄",121.52526540168776,31.2000803916984,"2022-04-25"
"浦东新区","上海市浦东新区东沟二村",121.58379027515448,31.29950604377688,"2022-04-25"
"浦东新区","上海市浦东新区东建新村",121.52686142108733,31.222713416923376,"2022-04-25"
"浦东新区","上海市浦东新区东靖路人民塘路交界口工地生活区",121.7502880573596,31.249162790540804,"2022-04-25"
"浦东新区","上海市浦东新区东陆路1182弄",121.60235600428196,31.275368269875603,"2022-04-25"
"浦东新区","上海市浦东新区东陆路1268弄",121.60156055475287,31.272878863483545,"2022-04-25"
"浦东新区","上海市浦东新区东陆路2000弄",121.61592365138246,31.267711183214853,"2022-04-25"
"浦东新区","上海市浦东新区东明路355弄",121.51669511796983,31.18945566158956,"2022-04-25"
"浦东新区","上海市浦东新区东三街102弄",121.51710618257118,31.20763978042601,"2022-04-25"
"浦东新区","上海市浦东新区东三里桥路160弄",121.5161398753341,31.20602821937022,"2022-04-25"
"浦东新区","上海市浦东新区东三里桥路170弄",121.51756719295891,31.206359166517448,"2022-04-25"
"浦东新区","上海市浦东新区东三里桥路79弄",121.51530166646273,31.20609578333686,"2022-04-25"
"浦东新区","上海市浦东新区东书房路390弄",121.5416177958692,31.16966648705868,"2022-04-25"
"浦东新区","上海市浦东新区东书房路560弄",121.54307367960921,31.167733309908424,"2022-04-25"
"浦东新区","上海市浦东新区东绣路1155弄",121.54128120079461,31.204941938527192,"2022-04-25"
"浦东新区","上海市浦东新区东绣路266弄",121.5446610752759,31.217988212368144,"2022-04-25"
"浦东新区","上海市浦东新区东绣路66弄",121.544462190436,31.2219475676683,"2022-04-25"
"浦东新区","上海市浦东新区杜鹃路58弄",121.52969618510942,31.207201251711854,"2022-04-25"
"浦东新区","上海市浦东新区渡桥路288弄",121.58485970786411,31.120077939878794,"2022-04-25"
"浦东新区","上海市浦东新区峨山路605弄",121.5284466608208,31.22089304783959,"2022-04-25"
"浦东新区","上海市浦东新区峨山路679弄",121.52701134827696,31.22020075941883,"2022-04-25"
"浦东新区","上海市浦东新区繁荣东路150弄",121.59321448809021,31.11201697090244,"2022-04-25"
"浦东新区","上海市浦东新区繁荣东路159弄",121.59187017389452,31.112814326185486,"2022-04-25"
"浦东新区","上海市浦东新区芳草路253弄",121.56208676488066,31.202336604581813,"2022-04-25"
"浦东新区","上海市浦东新区芳草路258号",121.56304902974296,31.19953351173709,"2022-04-25"
"浦东新区","上海市浦东新区芳草路352弄",121.5616260239846,31.199214895930286,"2022-04-25"
"浦东新区","上海市浦东新区芳华路310弄",121.56401821155765,31.201334527828102,"2022-04-25"
"浦东新区","上海市浦东新区芳华路329弄",121.56365017579023,31.20224664436495,"2022-04-25"
"浦东新区","上海市浦东新区芳华路455弄",121.56615060917726,31.20261752700328,"2022-04-25"
"浦东新区","上海市浦东新区芳华路478弄",121.53688426481492,31.18970225553777,"2022-04-25"
"浦东新区","上海市浦东新区芳华路573弄",121.56906579021823,31.202881074402363,"2022-04-25"
"浦东新区","上海市浦东新区芳华路580弄",121.5690579749603,31.202517837477373,"2022-04-25"
"浦东新区","上海市浦东新区芳华路630弄",121.55655904192501,31.200205103357757,"2022-04-25"
"浦东新区","上海市浦东新区芳华路63号",121.55817159014597,31.20073105268403,"2022-04-25"
"浦东新区","上海市浦东新区芳华路713弄",121.53688426481492,31.18970225553777,"2022-04-25"
"浦东新区","上海市浦东新区芳华路788弄",121.53688426481492,31.18970225553777,"2022-04-25"
"浦东新区","上海市浦东新区芳华路916弄",121.57459800470143,31.202853893456744,"2022-04-25"
"浦东新区","上海市浦东新区芳华路933弄",121.53688426481492,31.18970225553777,"2022-04-25"
"浦东新区","上海市浦东新区芳芯路312弄",121.56407749972132,31.19718263286784,"2022-04-25"
"浦东新区","上海市浦东新区芳芯路363弄",121.53688426481492,31.18970225553777,"2022-04-25"
"浦东新区","上海市浦东新区芙蓉路42弄",121.67471056056642,31.170931612749175,"2022-04-25"
"浦东新区","上海市浦东新区福山路40弄",121.53090649079877,31.242456421863974,"2022-04-25"
"浦东新区","上海市浦东新区港辉路308弄",121.86591084599044,30.873694367599928,"2022-04-25"
"浦东新区","上海市浦东新区高宝路68弄",121.62729152795012,31.29737066259963,"2022-04-25"
"浦东新区","上海市浦东新区高东二路118弄",121.63203026917635,31.32990867036808,"2022-04-25"
"浦东新区","上海市浦东新区高东新路500弄",121.62788908077536,31.342361696575296,"2022-04-25"
"浦东新区","上海市浦东新区高东镇革新村西钟文宅",121.64781466478384,31.324078462952006,"2022-04-25"
"浦东新区","上海市浦东新区高东镇竞赛村龙稍宅",121.65845033253032,31.307521425419296,"2022-04-25"
"浦东新区","上海市浦东新区高东镇沙港村西沙港东",121.63069871091892,31.344156414398093,"2022-04-25"
"浦东新区","上海市浦东新区高东镇珊黄村苍头宅",121.6465324234989,31.336547689860097,"2022-04-25"
"浦东新区","上海市浦东新区高东镇先锋村卢家宅",121.59152154152609,31.290378301115442,"2022-04-25"
"浦东新区","上海市浦东新区高东镇先锋村王朱家宅",121.63711090547969,31.31057125951238,"2022-04-25"
"浦东新区","上海市浦东新区高东镇踊跃村东孙家沟",121.66411432843182,31.31208005788978,"2022-04-25"
"浦东新区","上海市浦东新区高科东路500弄",121.66018424182568,31.216640029263594,"2022-04-25"
"浦东新区","上海市浦东新区高科西路2757弄",121.56065091335351,31.19588148875918,"2022-04-25"
"浦东新区","上海市浦东新区高桥镇陆凌村西凌家宅",121.58173863520024,31.35356684063773,"2022-04-25"
"浦东新区","上海市浦东新区高桥镇南塘村龚家宅",121.5746809183,31.34539427690696,"2022-04-25"
"浦东新区","上海市浦东新区高桥镇南塘村顾家宅",121.5746809183,31.34539427690696,"2022-04-25"
"浦东新区","上海市浦东新区高桥镇南塘村姚家宅",121.5746809183,31.34539427690696,"2022-04-25"
"浦东新区","上海市浦东新区高桥镇三岔港村三岔港",121.51447127284932,31.371531268842322,"2022-04-25"
"浦东新区","上海市浦东新区高桥镇屯粮巷村潘家桥",121.57063216553597,31.36369044070298,"2022-04-25"
"浦东新区","上海市浦东新区高桥镇西浜头",121.61563583429707,31.292504199206448,"2022-04-25"
"浦东新区","上海市浦东新区高桥镇新农村北项湾",121.5601669961753,31.367679309466983,"2022-04-25"
"浦东新区","上海市浦东新区高桥镇新农村沈家宅",121.55850126826813,31.362552263234768,"2022-04-25"
"浦东新区","上海市浦东新区高青路2861弄",121.53503303681995,31.16808069147707,"2022-04-25"
"浦东新区","上海市浦东新区高青路2878弄",121.53438374159735,31.16614786788632,"2022-04-25"
"浦东新区","上海市浦东新区高青路4567弄",121.53688426481492,31.18970225553777,"2022-04-25"
"浦东新区","上海市浦东新区龚华路425弄",121.65277879086253,31.290487771739045,"2022-04-25"
"浦东新区","上海市浦东新区拱为路2600弄",121.74541825335946,31.063557763042446,"2022-04-25"
"浦东新区","上海市浦东新区顾唐路138弄",121.65277879086253,31.290487771739045,"2022-04-25"
"浦东新区","上海市浦东新区崮山路157号",121.55848599707447,31.253071819138345,"2022-04-25"
"浦东新区","上海市浦东新区崮山路322弄",121.5592861177922,31.251792753021967,"2022-04-25"
"浦东新区","上海市浦东新区崮山路626弄",121.56538866644368,31.247338382334547,"2022-04-25"
"浦东新区","上海市浦东新区崮山路717号",121.56675642641318,31.2457458744099,"2022-04-25"
"浦东新区","上海市浦东新区崮山路95号",121.55737820671956,31.253687382281104,"2022-04-25"
"浦东新区","上海市浦东新区崮山路968号",121.56813927791524,31.241428762610123,"2022-04-25"
"浦东新区","上海市浦东新区光明路222弄",121.62230296796156,31.337702069276634,"2022-04-25"
"浦东新区","上海市浦东新区光泽路429弄",121.62474869454303,31.336184046972157,"2022-04-25"
"浦东新区","上海市浦东新区国展路1792号工地生活区",121.49616611809134,31.188828002839443,"2022-04-25"
"浦东新区","上海市浦东新区海鸣路1号工地生活区",121.6783329775354,31.289785892321273,"2022-04-25"
"浦东新区","上海市浦东新区海鸣路98弄",121.6775482178419,31.28862783374773,"2022-04-25"
"浦东新区","上海市浦东新区海鹏路301弄",121.68073091426376,31.295363983048894,"2022-04-25"
"浦东新区","上海市浦东新区海徐路505号工地生活区",121.61501537468132,31.348834762074787,"2022-04-25"
"浦东新区","上海市浦东新区海阳路1000弄",121.51172146985273,31.163812760549717,"2022-04-25"
"浦东新区","上海市浦东新区海阳路1080弄",121.51343947914056,31.16413535922777,"2022-04-25"
"浦东新区","上海市浦东新区海阳路215弄",121.49560461137601,31.159262270593285,"2022-04-25"
"浦东新区","上海市浦东新区航昌路199弄",121.61501636281737,31.08492173263943,"2022-04-25"
"浦东新区","上海市浦东新区航昌路489弄",121.61637509481649,31.080440873866234,"2022-04-25"
"浦东新区","上海市浦东新区航城七路450弄",121.76550050184888,31.148175591932038,"2022-04-25"
"浦东新区","上海市浦东新区航城三路675弄",121.7606991487286,31.159526557937753,"2022-04-25"
"浦东新区","上海市浦东新区航城五路401弄",121.75935483453291,31.15224536636404,"2022-04-25"
"浦东新区","上海市浦东新区航三路航吉路交界口工地生活区",121.61429035230421,31.04579326766702,"2022-04-25"
"浦东新区","上海市浦东新区航头路1688弄",121.59236999108029,31.037555831479665,"2022-04-25"
"浦东新区","上海市浦东新区航头镇果园村航西",121.64244189952865,31.025361102765,"2022-04-25"
"浦东新区","上海市浦东新区航头镇鹤东村沿江",121.60803796629367,31.060273364197414,"2022-04-25"
"浦东新区","上海市浦东新区航头镇梅园村沙北",121.59123174816858,31.06555502677004,"2022-04-25"
"浦东新区","上海市浦东新区航头镇沈庄村大桥",121.57493271782597,31.081014986360636,"2022-04-25"
"浦东新区","上海市浦东新区合庆镇蔡路村包家宅",121.76420748089782,31.205888844405063,"2022-04-25"
"浦东新区","上海市浦东新区合庆镇蔡路村西蔡家宅",121.73746429705191,31.219746024972316,"2022-04-25"
"浦东新区","上海市浦东新区合庆镇蔡路村杨家宅",121.74440496474422,31.209984837533348,"2022-04-25"
"浦东新区","上海市浦东新区合庆镇大星村尹家宅",121.72831855882428,31.227287614469063,"2022-04-25"
"浦东新区","上海市浦东新区合庆镇东风村曹家宅",121.705700034558,31.232450813592735,"2022-04-25"
"浦东新区","上海市浦东新区合庆镇共一村包家宅",121.76420748089782,31.205888844405063,"2022-04-25"
"浦东新区","上海市浦东新区合庆镇海塘村小蔡家宅",121.76125475068652,31.217792185805436,"2022-04-25"
"浦东新区","上海市浦东新区合庆镇红星村姚家宅",121.70447896787827,31.240961009503128,"2022-04-25"
"浦东新区","上海市浦东新区合庆镇华星村东宋家宅",121.70947085159723,31.208492303617756,"2022-04-25"
"浦东新区","上海市浦东新区合庆镇勤奋村陈家宅",121.73213698605554,31.263033858586162,"2022-04-25"
"浦东新区","上海市浦东新区合庆镇勤奋村徐家宅",121.74039403064216,31.255172867012874,"2022-04-25"
"浦东新区","上海市浦东新区合庆镇勤奋村张家宅",121.732101682649,31.261476576156298,"2022-04-25"
"浦东新区","上海市浦东新区合庆镇勤俭村中陆家宅",121.71848633300168,31.21033118952236,"2022-04-25"
"浦东新区","上海市浦东新区合庆镇庆丰村东新宅",121.72371950410485,31.24705219137166,"2022-04-25"
"浦东新区","上海市浦东新区合庆镇庆星村凤家码头",121.72570709487623,31.240436443995055,"2022-04-25"
"浦东新区","上海市浦东新区合庆镇庆星村顾家宅",121.72570709487623,31.240436443995055,"2022-04-25"
"浦东新区","上海市浦东新区合庆镇奚家村卫家宅",121.71794366916734,31.25361962114071,"2022-04-25"
"浦东新区","上海市浦东新区合庆镇营房村高路二宅",121.74208131788156,31.216227432867615,"2022-04-25"
"浦东新区","上海市浦东新区合庆镇永丰村陈家宅",121.68324625952225,31.257492423349778,"2022-04-25"
"浦东新区","上海市浦东新区合庆镇永红村秦家宅",121.71609181235851,31.24084075180815,"2022-04-25"
"浦东新区","上海市浦东新区合庆镇永红村薛家宅",121.71609181235851,31.24084075180815,"2022-04-25"
"浦东新区","上海市浦东新区和佳路105弄",121.52030208408404,31.133297374938646,"2022-04-25"
"浦东新区","上海市浦东新区和炯路77弄",121.52553031198265,31.139159418419815,"2022-04-25"
"浦东新区","上海市浦东新区和融路55弄",121.50636765884381,31.130799475794813,"2022-04-25"
"浦东新区","上海市浦东新区菏泽路25弄",121.59678004232042,31.279692532722535,"2022-04-25"
"浦东新区","上海市浦东新区菏泽路567弄",121.60177210044444,31.270406002106668,"2022-04-25"
"浦东新区","上海市浦东新区菏泽路58弄",121.59668500159746,31.278713042423398,"2022-04-25"
"浦东新区","上海市浦东新区鹤驰路99弄",121.59974166575626,31.084967271555595,"2022-04-25"
"浦东新区","上海市浦东新区鹤沙路226弄",121.60552127357691,31.08790607001567,"2022-04-25"
"浦东新区","上海市浦东新区鹤沙路588弄",121.60146802928533,31.08802188513857,"2022-04-25"
"浦东新区","上海市浦东新区鹤永路750弄",121.6099678858513,31.07777749395087,"2022-04-25"
"浦东新区","上海市浦东新区横桥路69弄",121.58617042543372,31.11424083016227,"2022-04-25"
"浦东新区","上海市浦东新区虹盛路250弄",121.68737783605428,31.247623183151326,"2022-04-25"
"浦东新区","上海市浦东新区后长街91弄",121.50316834377003,31.169034458539137,"2022-04-25"
"浦东新区","上海市浦东新区沪二小区",121.58904347594628,31.274819978085866,"2022-04-25"
"浦东新区","上海市浦东新区沪南公路3150弄",121.57177489997522,31.127929792678614,"2022-04-25"
"浦东新区","上海市浦东新区沪南公路8595弄",121.65935456685666,31.03568321378543,"2022-04-25"
"浦东新区","上海市浦东新区沪南路1351弄",121.53688426481492,31.18970225553777,"2022-04-25"
"浦东新区","上海市浦东新区沪南路2727弄",121.58292197304854,31.14810481840371,"2022-04-25"
"浦东新区","上海市浦东新区沪南路3150弄",121.572258906984,31.128503519931538,"2022-04-25"
"浦东新区","上海市浦东新区沪南路3158弄",121.57200872889946,31.12772554060315,"2022-04-25"
"浦东新区","上海市浦东新区沪南路3468弄",121.57159649650094,31.122291020369307,"2022-04-25"
"浦东新区","上海市浦东新区花木街道龙王庙村南杨家堂",121.55896380577522,31.20272323948302,"2022-04-25"
"浦东新区","上海市浦东新区花山路1001弄",121.588490748566,31.3561458336138,"2022-04-25"
"浦东新区","上海市浦东新区花山路609弄",121.581581431736,31.354342018515883,"2022-04-25"
"浦东新区","上海市浦东新区花山路796弄",121.5849213316221,31.35474267231962,"2022-04-25"
"浦东新区","上海市浦东新区华东路998号",121.66432336412402,31.292191377308672,"2022-04-25"
"浦东新区","上海市浦东新区华丰路50弄",121.51450495930594,31.197495463859788,"2022-04-25"
"浦东新区","上海市浦东新区华鹏路300弄",121.53191420991986,31.178718348958242,"2022-04-25"
"浦东新区","上海市浦东新区华夏东路2110弄",121.69923501963324,31.205382845904523,"2022-04-25"
"浦东新区","上海市浦东新区华夏东路2345弄",121.70462197811548,31.206484796404514,"2022-04-25"
"浦东新区","上海市浦东新区华夏东路3038弄",121.71933658169111,31.208275177715905,"2022-04-25"
"浦东新区","上海市浦东新区华夏二路1255弄",121.69800191565969,31.18281197716778,"2022-04-25"
"浦东新区","上海市浦东新区华夏二路1278弄",121.69602645201269,31.181511714829725,"2022-04-25"
"浦东新区","上海市浦东新区华夏二路1455弄",121.69950702654167,31.17862187802573,"2022-04-25"
"浦东新区","上海市浦东新区华夏二路1500弄",121.6970799847148,31.178171884998676,"2022-04-25"
"浦东新区","上海市浦东新区华绣路179弄",121.53195032180136,31.190764154415543,"2022-04-25"
"浦东新区","上海市浦东新区环林东路270弄",121.53278134422864,31.15489288491308,"2022-04-25"
"浦东新区","上海市浦东新区环林东路271弄",121.53316411220645,31.155298952705344,"2022-04-25"
"浦东新区","上海市浦东新区环林东路906弄",121.53547140990882,31.14792834793253,"2022-04-25"
"浦东新区","上海市浦东新区环桥路1136弄",121.58485970786411,31.120077939878794,"2022-04-25"
"浦东新区","上海市浦东新区环桥路1481弄",121.58485970786411,31.120077939878794,"2022-04-25"
"浦东新区","上海市浦东新区环庆南路508弄",121.73790500573512,31.23380795492502,"2022-04-25"
"浦东新区","上海市浦东新区惠南镇城南村",121.74758820014938,31.029326185227227,"2022-04-25"
"浦东新区","上海市浦东新区惠南镇黄路村富强",121.77243425258874,31.03565606179299,"2022-04-25"
"浦东新区","上海市浦东新区惠南镇惠东村",121.7830716271157,31.046320700815905,"2022-04-25"
"浦东新区","上海市浦东新区惠南镇勤丰村",121.77460662480352,31.05337598586837,"2022-04-25"
"浦东新区","上海市浦东新区惠南镇团结村",121.78377401219396,31.02723694260512,"2022-04-25"
"浦东新区","上海市浦东新区惠南镇徐庙村",121.72120272155755,31.036218516427077,"2022-04-25"
"浦东新区","上海市浦东新区惠南镇英雄村",121.75968460248563,31.034120375692826,"2022-04-25"
"浦东新区","上海市浦东新区季景北路180弄",121.5909265039563,31.347849135892478,"2022-04-25"
"浦东新区","上海市浦东新区季景北路286弄",121.5893250048931,31.348648570193177,"2022-04-25"
"浦东新区","上海市浦东新区济阳路65弄",121.48830893334616,31.173016198002603,"2022-04-25"
"浦东新区","上海市浦东新区佳林路959号",121.61950546494239,31.270787858994865,"2022-04-25"
"浦东新区","上海市浦东新区建中路171弄",121.52553031198265,31.139159418419815,"2022-04-25"
"浦东新区","上海市浦东新区江东路25号",121.55593013823747,31.368827676072844,"2022-04-25"
"浦东新区","上海市浦东新区江高路39弄",121.4856155439356,31.155665231145377,"2022-04-25"
"浦东新区","上海市浦东新区江晖路296弄",121.74378702038389,31.179845869758992,"2022-04-25"
"浦东新区","上海市浦东新区胶东路855弄",121.6082263409591,31.267230134809726,"2022-04-25"
"浦东新区","上海市浦东新区胶南路160弄",121.51656252807655,31.205113823156182,"2022-04-25"
"浦东新区","上海市浦东新区金丰路6号生活区",121.66178196800573,31.245642834747485,"2022-04-25"
"浦东新区","上海市浦东新区金港路333号",121.61945030898407,31.260379286098438,"2022-04-25"
"浦东新区","上海市浦东新区金高路2131弄",121.61704653326993,31.267471971131776,"2022-04-25"
"浦东新区","上海市浦东新区金高路58弄",121.612339142906,31.303177856380948,"2022-04-25"
"浦东新区","上海市浦东新区金工路172弄",121.59656480832024,31.262466587897183,"2022-04-25"
"浦东新区","上海市浦东新区金沪路1218弄",121.61069129127848,31.246915347325004,"2022-04-25"
"浦东新区","上海市浦东新区金葵路945弄",121.60213861434853,31.244250205910852,"2022-04-25"
"浦东新区","上海市浦东新区金桥路1498弄",121.59570477062498,31.256519645967902,"2022-04-25"
"浦东新区","上海市浦东新区金桥路226弄",121.62178482534341,31.26066381567406,"2022-04-25"
"浦东新区","上海市浦东新区金桥路989弄",121.62178482534341,31.26066381567406,"2022-04-25"
"浦东新区","上海市浦东新区金湘路201弄",121.61976462608202,31.261871069580963,"2022-04-25"
"浦东新区","上海市浦东新区金晓路289弄",121.68460809067537,31.28122952865363,"2022-04-25"
"浦东新区","上海市浦东新区金晓路95号",121.6833235137961,31.284639669739754,"2022-04-25"
"浦东新区","上海市浦东新区锦安东路270弄",121.55041903393376,31.208037898371934,"2022-04-25"
"浦东新区","上海市浦东新区锦安东路280弄",121.55033746779345,31.20801179992383,"2022-04-25"
"浦东新区","上海市浦东新区锦安东路289弄",121.55079650190905,31.207765563024314,"2022-04-25"
"浦东新区","上海市浦东新区锦安东路567弄",121.54661142049524,31.205028233406754,"2022-04-25"
"浦东新区","上海市浦东新区锦和路99弄",121.53812401624923,31.212289840714956,"2022-04-25"
"浦东新区","上海市浦东新区锦绣路2885弄",121.55044795937117,31.193323783238935,"2022-04-25"
"浦东新区","上海市浦东新区锦绣路3841弄",121.55337814211418,31.174276257765616,"2022-04-25"
"浦东新区","上海市浦东新区锦绣路4899弄",121.55466451560447,31.156063492623275,"2022-04-25"
"浦东新区","上海市浦东新区京浦路160弄",121.57469457254375,31.15991251964416,"2022-04-25"
"浦东新区","上海市浦东新区京浦路82弄",121.57334019732636,31.15969157298491,"2022-04-25"
"浦东新区","上海市浦东新区泾东一村",121.56393242338147,31.250398131937715,"2022-04-25"
"浦东新区","上海市浦东新区居家桥路151弄",121.56804217108962,31.266784117232525,"2022-04-25"
"浦东新区","上海市浦东新区巨峰路997弄",121.6237273211782,31.2870005408357,"2022-04-25"
"浦东新区","上海市浦东新区巨野路197弄",121.55197768382412,31.248084805613694,"2022-04-25"
"浦东新区","上海市浦东新区巨野路61弄",121.55233260433111,31.250494065864,"2022-04-25"
"浦东新区","上海市浦东新区康达路118弄",121.58485970786411,31.120077939878794,"2022-04-25"
"浦东新区","上海市浦东新区康弘路508弄",121.60698461325266,31.12693472616589,"2022-04-25"
"浦东新区","上海市浦东新区康桥东路1365弄",121.64205032815686,31.166539441495498,"2022-04-25"
"浦东新区","上海市浦东新区康桥路90弄",121.58485970786411,31.120077939878794,"2022-04-25"
"浦东新区","上海市浦东新区康桥镇百龙新村",121.62288596823754,31.147202837562336,"2022-04-25"
"浦东新区","上海市浦东新区康桥镇叠桥村",121.62282874617655,31.13384997321586,"2022-04-25"
"浦东新区","上海市浦东新区康桥镇花墙村",121.55274169266035,31.156328175262196,"2022-04-25"
"浦东新区","上海市浦东新区康桥镇火箭村",121.61498941365208,31.14512934591589,"2022-04-25"
"浦东新区","上海市浦东新区康桥镇人南村",121.63357553431462,31.14529322728839,"2022-04-25"
"浦东新区","上海市浦东新区康桥镇太平村",121.56002174017434,31.12938396497478,"2022-04-25"
"浦东新区","上海市浦东新区康桥镇新苗村",121.64390317310173,31.127716189665108,"2022-04-25"
"浦东新区","上海市浦东新区康桥镇秀龙村",121.5691399004228,31.132605675883436,"2022-04-25"
"浦东新区","上海市浦东新区康杉路151弄",121.56730133853553,31.15772404321492,"2022-04-25"
"浦东新区","上海市浦东新区康杉路608弄",121.53688426481492,31.18970225553777,"2022-04-25"
"浦东新区","上海市浦东新区康沈公路1300弄",121.57853779300709,31.143909537196446,"2022-04-25"
"浦东新区","上海市浦东新区康沈路1238弄",121.58184628735142,31.1254125343694,"2022-04-25"
"浦东新区","上海市浦东新区康沈路1491号",121.58264170172941,31.128423380707627,"2022-04-25"
"浦东新区","上海市浦东新区康沈路2262弄",121.58731262088966,31.107124171661162,"2022-04-25"
"浦东新区","上海市浦东新区康沈路2588弄",121.58793155338603,31.10274548016268,"2022-04-25"
"浦东新区","上海市浦东新区康士路15弄",121.56951673958423,31.15566839870212,"2022-04-25"
"浦东新区","上海市浦东新区康梧路189号工地生活区",121.55714895915341,31.14227717699841,"2022-04-25"
"浦东新区","上海市浦东新区康悦路325弄",121.53853463169786,31.365243165209964,"2022-04-25"
"浦东新区","上海市浦东新区康泽路秀海路交界口工地生活区",121.56779935911025,31.126095062976034,"2022-04-25"
"浦东新区","上海市浦东新区科农路100弄",121.63626380338377,31.194416454082223,"2022-04-25"
"浦东新区","上海市浦东新区莱阳路1443弄",121.59004535608157,31.301096015536285,"2022-04-25"
"浦东新区","上海市浦东新区莱阳路301弄",121.5859471965145,31.280357685263912,"2022-04-25"
"浦东新区","上海市浦东新区莱阳路451弄",121.5892918574198,31.282158997327386,"2022-04-25"
"浦东新区","上海市浦东新区莱阳路880弄",121.59082230051713,31.28833690890775,"2022-04-25"
"浦东新区","上海市浦东新区兰城路108弄",121.58683130879741,31.271581472431155,"2022-04-25"
"浦东新区","上海市浦东新区兰城路115弄",121.58550415223696,31.27245247181405,"2022-04-25"
"浦东新区","上海市浦东新区兰谷路2955弄",121.6006222746477,31.294698165988713,"2022-04-25"
"浦东新区","上海市浦东新区兰陵路23弄",121.52327224142223,31.20101506872557,"2022-04-25"
"浦东新区","上海市浦东新区兰陵路24弄",121.52266157333655,31.20071560861141,"2022-04-25"
"浦东新区","上海市浦东新区兰嵩路360弄",121.59949355377441,31.329141154812422,"2022-04-25"
"浦东新区","上海市浦东新区蓝村路471弄",121.5336015869898,31.217902204702717,"2022-04-25"
"浦东新区","上海市浦东新区蓝村路501弄",121.53196923411473,31.21884539582701,"2022-04-25"
"浦东新区","上海市浦东新区崂山路551弄",121.52875567791624,31.232572857538436,"2022-04-25"
"浦东新区","上海市浦东新区崂山路644弄",121.53173832170101,31.22877274659365,"2022-04-25"
"浦东新区","上海市浦东新区崂山路645弄",121.53134881643189,31.227805460283697,"2022-04-25"
"浦东新区","上海市浦东新区崂山路80弄",121.52311467863576,31.244151178196617,"2022-04-25"
"浦东新区","上海市浦东新区崂山三村",121.52639681747759,31.238932508563483,"2022-04-25"
"浦东新区","上海市浦东新区崂山四村",121.52454199626058,31.24117281086977,"2022-04-25"
"浦东新区","上海市浦东新区崂山一村",121.52441353857265,31.245661435923402,"2022-04-25"
"浦东新区","上海市浦东新区老港镇牛肚村",121.83549413159204,31.058898708361337,"2022-04-25"
"浦东新区","上海市浦东新区历城路100弄",121.49791550230043,31.179897773390458,"2022-04-25"
"浦东新区","上海市浦东新区历城路22弄",121.53688426481492,31.18970225553777,"2022-04-25"
"浦东新区","上海市浦东新区历城路81弄",121.49929664702202,31.181099581583208,"2022-04-25"
"浦东新区","上海市浦东新区利津路158弄",121.5873028293596,31.28462670835332,"2022-04-25"
"浦东新区","上海市浦东新区利津路185弄",121.58734837344896,31.284879686517,"2022-04-25"
"浦东新区","上海市浦东新区利津路51弄",121.58499023165471,31.28841490555284,"2022-04-25"
"浦东新区","上海市浦东新区利津路53弄",121.58491028246432,31.28569254492477,"2022-04-25"
"浦东新区","上海市浦东新区连波路26弄",121.55848438012455,31.200897848506106,"2022-04-25"
"浦东新区","上海市浦东新区莲溪路477弄",121.56893382913881,31.188689385868962,"2022-04-25"
"浦东新区","上海市浦东新区莲溪路780弄",121.5687171578498,31.18347820498392,"2022-04-25"
"浦东新区","上海市浦东新区莲园路18弄",121.55038328137447,31.19091583120769,"2022-04-25"
"浦东新区","上海市浦东新区莲园路8弄",121.55045460683195,31.227348292436346,"2022-04-25"
"浦东新区","上海市浦东新区莲振路269号",121.57436094187736,31.173909356804987,"2022-04-25"
"浦东新区","上海市浦东新区莲中路337弄",121.56475176783711,31.187770109319516,"2022-04-25"
"浦东新区","上海市浦东新区林鸣路326弄",121.5321656456321,31.13857122920478,"2022-04-25"
"浦东新区","上海市浦东新区林浦路1240弄",121.52553031198265,31.139159418419815,"2022-04-25"
"浦东新区","上海市浦东新区林展路267弄",121.5139930149958,31.13367888524202,"2022-04-25"
"浦东新区","上海市浦东新区临沂北路210弄",121.52554279842924,31.21062431115841,"2022-04-25"
"浦东新区","上海市浦东新区临沂路101弄",121.52104049121323,31.201323022068365,"2022-04-25"
"浦东新区","上海市浦东新区临沂路181弄",121.52066814357934,31.19757925080322,"2022-04-25"
"浦东新区","上海市浦东新区临沂路280弄",121.51602965324803,31.198943924920997,"2022-04-25"
"浦东新区","上海市浦东新区临沂路301弄",121.51651446873176,31.19676037501184,"2022-04-25"
"浦东新区","上海市浦东新区临沂路81弄",121.52588604096461,31.20134163205489,"2022-04-25"
"浦东新区","上海市浦东新区临沂路98号",121.52073398937323,31.201799081349517,"2022-04-25"
"浦东新区","上海市浦东新区灵山路785弄",121.55683212680005,31.238343247038493,"2022-04-25"
"浦东新区","上海市浦东新区灵岩路56弄",121.50007296264374,31.17253829314167,"2022-04-25"
"浦东新区","上海市浦东新区灵岩路79弄",121.5005567899914,31.17241933794078,"2022-04-25"
"浦东新区","上海市浦东新区灵岩南路1180弄",121.5070109354195,31.14603227386536,"2022-04-25"
"浦东新区","上海市浦东新区灵岩南路156弄",121.50071075955583,31.164839185970084,"2022-04-25"
"浦东新区","上海市浦东新区灵岩南路380弄",121.50329428620252,31.159025485187325,"2022-04-25"
"浦东新区","上海市浦东新区凌河路188弄",121.60216197029179,31.281903851498075,"2022-04-25"
"浦东新区","上海市浦东新区凌河路38弄",121.60075360691324,31.282569682663706,"2022-04-25"
"浦东新区","上海市浦东新区凌河路420弄",121.60593224834773,31.279917054061343,"2022-04-25"
"浦东新区","上海市浦东新区凌河路618弄",121.60815285956838,31.276965751274,"2022-04-25"
"浦东新区","上海市浦东新区凌环路51弄",121.54737476639099,31.374080628980966,"2022-04-25"
"浦东新区","上海市浦东新区凌兆路127弄",121.5000277778766,31.1477960721254,"2022-04-25"
"浦东新区","上海市浦东新区凌兆路285弄",121.52553031198265,31.139159418419815,"2022-04-25"
"浦东新区","上海市浦东新区凌兆路379弄",121.52553031198265,31.139159418419815,"2022-04-25"
"浦东新区","上海市浦东新区凌兆路396弄",121.52553031198265,31.139159418419815,"2022-04-25"
"浦东新区","上海市浦东新区凌兆路405弄",121.50361749652501,31.150184425286565,"2022-04-25"
"浦东新区","上海市浦东新区凌兆路500弄",121.50674692343011,31.149108468583478,"2022-04-25"
"浦东新区","上海市浦东新区凌兆路555弄",121.50815052578945,31.150254347365593,"2022-04-25"
"浦东新区","上海市浦东新区凌兆路88弄",121.49795107519863,31.146617712068256,"2022-04-25"
"浦东新区","上海市浦东新区柳埠路135弄",121.58893424199627,31.268891029980523,"2022-04-25"
"浦东新区","上海市浦东新区龙居路147号",121.56925317674761,31.258774961411095,"2022-04-25"
"浦东新区","上海市浦东新区龙居路180弄",121.56897173763133,31.258551238155807,"2022-04-25"
"浦东新区","上海市浦东新区龙居路191弄",121.56989717196772,31.257917648521467,"2022-04-25"
"浦东新区","上海市浦东新区龙阳路1188号",121.53717495647795,31.204222274391203,"2022-04-25"
"浦东新区","上海市浦东新区龙阳路158号工地生活区",121.51824640175501,31.208450144787154,"2022-04-25"
"浦东新区","上海市浦东新区龙阳路1880弄",121.55929249576131,31.206698915055398,"2022-04-25"
"浦东新区","上海市浦东新区罗山路108弄",121.55887945488784,31.254641589752865,"2022-04-25"
"浦东新区","上海市浦东新区罗山路1502弄",121.575171482939,31.234888265801676,"2022-04-25"
"浦东新区","上海市浦东新区罗山路4088弄",121.5847599959525,31.18633584071891,"2022-04-25"
"浦东新区","上海市浦东新区苗圃路218弄",121.55407971871747,31.248664744062587,"2022-04-25"
"浦东新区","上海市浦东新区苗桥路455号生活区",121.63561837087487,31.13291794954313,"2022-04-25"
"浦东新区","上海市浦东新区妙川路1111弄",121.7206909569085,31.18840857614465,"2022-04-25"
"浦东新区","上海市浦东新区民春路501弄",121.65277879086253,31.290487771739045,"2022-04-25"
"浦东新区","上海市浦东新区民春路516弄",121.65277879086253,31.290487771739045,"2022-04-25"
"浦东新区","上海市浦东新区民生路369弄",121.54866670937545,31.246602604284895,"2022-04-25"
"浦东新区","上海市浦东新区民生路423号",121.54954965386119,31.246153400950913,"2022-04-25"
"浦东新区","上海市浦东新区民雪路918弄",121.66510605771485,31.276406126650397,"2022-04-25"
"浦东新区","上海市浦东新区民耀路227弄",121.66051742333934,31.27989336747134,"2022-04-25"
"浦东新区","上海市浦东新区民耀路391弄",121.65277879086253,31.290487771739045,"2022-04-25"
"浦东新区","上海市浦东新区民雨路336弄",121.65277879086253,31.290487771739045,"2022-04-25"
"浦东新区","上海市浦东新区牟平路56弄",121.60313474532855,31.271459942371283,"2022-04-25"
"浦东新区","上海市浦东新区牡丹路165弄",121.55224448056057,31.2137752108178,"2022-04-25"
"浦东新区","上海市浦东新区南曹路901弄",121.67039869411853,31.20845261563489,"2022-04-25"
"浦东新区","上海市浦东新区南码头路1136弄",121.51972788720205,31.18987494042182,"2022-04-25"
"浦东新区","上海市浦东新区南码头路144弄",121.51408347436066,31.20463778072207,"2022-04-25"
"浦东新区","上海市浦东新区南码头路1453弄",121.52288102937263,31.184649305537228,"2022-04-25"
"浦东新区","上海市浦东新区南码头路1675弄",121.52084888264797,31.18090401847181,"2022-04-25"
"浦东新区","上海市浦东新区南码头路450弄",121.5163195364361,31.200368116304254,"2022-04-25"
"浦东新区","上海市浦东新区南码头路56号",121.51297388739474,31.206073081849507,"2022-04-25"
"浦东新区","上海市浦东新区南桥路459弄",121.70791184238466,31.195454514332024,"2022-04-25"
"浦东新区","上海市浦东新区南泉北路101弄",121.52204021541529,31.24412385486496,"2022-04-25"
"浦东新区","上海市浦东新区南泉路1111弄",121.52953361048787,31.219331589345497,"2022-04-25"
"浦东新区","上海市浦东新区南泉路1211弄",121.52972225464497,31.219263571698672,"2022-04-25"
"浦东新区","上海市浦东新区南泉路1250弄",121.52793112328862,31.217747714972386,"2022-04-25"
"浦东新区","上海市浦东新区南泉路1300弄",121.52893030850737,31.217418043380952,"2022-04-25"
"浦东新区","上海市浦东新区南泉路1320弄",121.52656039891095,31.215734152342247,"2022-04-25"
"浦东新区","上海市浦东新区南团公路3301弄",121.75379576071497,30.9700143647737,"2022-04-25"
"浦东新区","上海市浦东新区泥城路180弄",121.82848968420853,30.902822309694685,"2022-04-25"
"浦东新区","上海市浦东新区年家浜东路129弄",121.59892537553935,31.120365137063242,"2022-04-25"
"浦东新区","上海市浦东新区宁阳路14弄",121.52273343777735,31.217447767916333,"2022-04-25"
"浦东新区","上海市浦东新区宁阳路3弄",121.55045460683195,31.227348292436346,"2022-04-25"
"浦东新区","上海市浦东新区农科路21弄",121.55045460683195,31.227348292436346,"2022-04-25"
"浦东新区","上海市浦东新区鹏飞路333弄",121.53688426481492,31.18970225553777,"2022-04-25"
"浦东新区","上海市浦东新区鹏岳路152弄",121.56093334060584,31.177214966797443,"2022-04-25"
"浦东新区","上海市浦东新区鹏岳路70弄",121.55880363790278,31.180936844062057,"2022-04-25"
"浦东新区","上海市浦东新区平度路388弄",121.59895412131566,31.259062505588115,"2022-04-25"
"浦东新区","上海市浦东新区浦城路580弄",121.52108055563897,31.230158967011022,"2022-04-25"
"浦东新区","上海市浦东新区浦电路138弄",121.52846471676155,31.22488215684141,"2022-04-25"
"浦东新区","上海市浦东新区浦电路149弄",121.52770699606388,31.22447785725831,"2022-04-25"
"浦东新区","上海市浦东新区浦电路218号",121.53050378043865,31.22540742716823,"2022-04-25"
"浦东新区","上海市浦东新区浦电路221号",121.53004456666196,31.22498830738765,"2022-04-25"
"浦东新区","上海市浦东新区浦电路29弄",121.52179830174146,31.22198277216662,"2022-04-25"
"浦东新区","上海市浦东新区浦电路300号",121.5316105826575,31.225676082809564,"2022-04-25"
"浦东新区","上海市浦东新区浦电路305弄",121.53191394042821,31.225381642362095,"2022-04-25"
"浦东新区","上海市浦东新区浦电路311号",121.53317174780328,31.22577026650125,"2022-04-25"
"浦东新区","上海市浦东新区浦电路330弄",121.53452881793721,31.22662717934152,"2022-04-25"
"浦东新区","上海市浦东新区浦电路331弄",121.53518233519571,31.225922581402024,"2022-04-25"
"浦东新区","上海市浦东新区浦电路48弄",121.52301829045456,31.224774384963634,"2022-04-25"
"浦东新区","上海市浦东新区浦东大道136弄",121.52017353656555,31.24402420953977,"2022-04-25"
"浦东新区","上海市浦东新区浦东大道140弄",121.52166903557857,31.244048831438676,"2022-04-25"
"浦东新区","上海市浦东新区浦东大道1558号工地生活区",121.54571360187585,31.249014789279563,"2022-04-25"
"浦东新区","上海市浦东新区浦东大道1615弄",121.54779571235296,31.25197620550338,"2022-04-25"
"浦东新区","上海市浦东新区浦东大道1623弄",121.54904390785909,31.25176759291442,"2022-04-25"
"浦东新区","上海市浦东新区浦东大道1695弄",121.5507839256319,31.253683600624225,"2022-04-25"
"浦东新区","上海市浦东新区浦东大道1851弄",121.5524974433922,31.253101686701353,"2022-04-25"
"浦东新区","上海市浦东新区浦东大道2250弄",121.55930570085232,31.257870032659223,"2022-04-25"
"浦东新区","上海市浦东新区浦东大道2388弄",121.5642109879201,31.261270454222945,"2022-04-25"
"浦东新区","上海市浦东新区浦东大道2516号",121.56510902393842,31.263773365728365,"2022-04-25"
"浦东新区","上海市浦东新区浦东大道2567弄",121.56941370394225,31.267025105886827,"2022-04-25"
"浦东新区","上海市浦东新区浦东大道2639弄",121.57382941450709,31.27009640284229,"2022-04-25"
"浦东新区","上海市浦东新区浦东大道2742弄",121.57797931647153,31.272927088984172,"2022-04-25"
"浦东新区","上海市浦东新区浦东大道2894号",121.5828239679174,31.278944432984467,"2022-04-25"
"浦东新区","上海市浦东新区浦东大道290弄",121.52343779912772,31.24488774737473,"2022-04-25"
"浦东新区","上海市浦东新区浦东大道2970弄",121.58527436568751,31.2829352319847,"2022-04-25"
"浦东新区","上海市浦东新区浦东大道3036弄",121.58404099222233,31.28568683580724,"2022-04-25"
"浦东新区","上海市浦东新区浦东大道709号",121.53187225905255,31.246929008584004,"2022-04-25"
"浦东新区","上海市浦东新区浦东南路1288号",121.52355987884653,31.230896186745355,"2022-04-25"
"浦东新区","上海市浦东新区浦东南路1533号",121.5276446536615,31.227372301137734,"2022-04-25"
"浦东新区","上海市浦东新区浦东南路1650弄",121.52428831478456,31.224547337929618,"2022-04-25"
"浦东新区","上海市浦东新区浦东南路1700弄",121.5250607676926,31.22378497774176,"2022-04-25"
"浦东新区","上海市浦东新区浦东南路2108号",121.52288614971404,31.215786267718542,"2022-04-25"
"浦东新区","上海市浦东新区浦东南路2192弄",121.5198796110027,31.212275556710914,"2022-04-25"
"浦东新区","上海市浦东新区浦东南路2351弄",121.51946171927945,31.20559866583432,"2022-04-25"
"浦东新区","上海市浦东新区浦东南路2362号",121.51810914067308,31.205290958198496,"2022-04-25"
"浦东新区","上海市浦东新区浦东南路2366号",121.51781314900754,31.204944486684365,"2022-04-25"
"浦东新区","上海市浦东新区浦东南路3405弄",121.51540326481592,31.20034881113828,"2022-04-25"
"浦东新区","上海市浦东新区浦东南路3666弄",121.51043608449851,31.194622028301904,"2022-04-25"
"浦东新区","上海市浦东新区浦东南路3905弄",121.50819768682872,31.188934282771708,"2022-04-25"
"浦东新区","上海市浦东新区浦东南路4250弄",121.51377553523184,31.20145892893878,"2022-04-25"
"浦东新区","上海市浦东新区浦建路207弄",121.53078000938297,31.21458559929172,"2022-04-25"
"浦东新区","上海市浦东新区浦建路47号",121.52587867485943,31.21615601582928,"2022-04-25"
"浦东新区","上海市浦东新区浦建路83弄",121.5253901763231,31.215623976480853,"2022-04-25"
"浦东新区","上海市浦东新区浦明路233弄",121.5171928690529,31.23258212082952,"2022-04-25"
"浦东新区","上海市浦东新区浦三路12弄",121.51782779138736,31.202722003983574,"2022-04-25"
"浦东新区","上海市浦东新区浦三路277弄",121.52168933728309,31.199345245911452,"2022-04-25"
"浦东新区","上海市浦东新区浦三路2801弄",121.53688426481492,31.18970225553777,"2022-04-25"
"浦东新区","上海市浦东新区浦三路603号",121.52291076328501,31.194727827029542,"2022-04-25"
"浦东新区","上海市浦东新区浦三路775弄",121.52672901085516,31.1896008532192,"2022-04-25"
"浦东新区","上海市浦东新区浦三路821弄",121.52623350553587,31.188026670480095,"2022-04-25"
"浦东新区","上海市浦东新区浦三路秀浦路交界口工地生活区",121.61602489041343,31.135717238318502,"2022-04-25"
"浦东新区","上海市浦东新区栖山路1636弄",121.57377461787098,31.2647932169634,"2022-04-25"
"浦东新区","上海市浦东新区栖山路1861弄",121.57710095334389,31.267784875846075,"2022-04-25"
"浦东新区","上海市浦东新区栖山路400弄",121.55757897800103,31.25201788165849,"2022-04-25"
"浦东新区","上海市浦东新区栖山路401弄",121.55603344337112,31.253987830572694,"2022-04-25"
"浦东新区","上海市浦东新区栖霞路190弄",121.52608115292138,31.244186142787363,"2022-04-25"
"浦东新区","上海市浦东新区齐河路259弄",121.51082792536195,31.18675451565345,"2022-04-25"
"浦东新区","上海市浦东新区千汇路581弄",121.77147603010125,31.117495908121153,"2022-04-25"
"浦东新区","上海市浦东新区勤奋路川南奉公路交界口工地生活区",121.78192224521568,31.042451242169253,"2022-04-25"
"浦东新区","上海市浦东新区青桐路18弄",121.62753874162647,31.223778492828462,"2022-04-25"
"浦东新区","上海市浦东新区青桐路199弄",121.62902965928139,31.224549499549692,"2022-04-25"
"浦东新区","上海市浦东新区清溪路260弄",121.58022328363546,31.348955343285247,"2022-04-25"
"浦东新区","上海市浦东新区清溪路400弄",121.57747563657209,31.347650837499692,"2022-04-25"
"浦东新区","上海市浦东新区庆利路185弄",121.73121218053302,31.241479088382583,"2022-04-25"
"浦东新区","上海市浦东新区庆利路425弄",121.73224478271673,31.237548888222076,"2022-04-25"
"浦东新区","上海市浦东新区秋霞路300弄",121.59359420182928,31.34069964153498,"2022-04-25"
"浦东新区","上海市浦东新区乳山路161弄",121.52801807926198,31.24159718403063,"2022-04-25"
"浦东新区","上海市浦东新区瑞安路211弄",121.59732225952624,31.09677571959406,"2022-04-25"
"浦东新区","上海市浦东新区瑞浦路8弄",121.55045460683195,31.227348292436346,"2022-04-25"
"浦东新区","上海市浦东新区瑞阳路693弄",121.59767502410001,31.09454387106959,"2022-04-25"
"浦东新区","上海市浦东新区三彩路166弄",121.52553031198265,31.139159418419815,"2022-04-25"
"浦东新区","上海市浦东新区三彩路52弄",121.52553031198265,31.139159418419815,"2022-04-25"
"浦东新区","上海市浦东新区三林路1300弄",121.52563020355537,31.14908675771163,"2022-04-25"
"浦东新区","上海市浦东新区三林路1466弄",121.52779952153142,31.151570340712677,"2022-04-25"
"浦东新区","上海市浦东新区三林路168号",121.50263852318024,31.141592189223104,"2022-04-25"
"浦东新区","上海市浦东新区三林路184号",121.5025309960107,31.14241486936929,"2022-04-25"
"浦东新区","上海市浦东新区三林路235号",121.50273652831137,31.143691257217654,"2022-04-25"
"浦东新区","上海市浦东新区三林路359弄",121.53688426481492,31.18970225553777,"2022-04-25"
"浦东新区","上海市浦东新区三林路788弄",121.51430643378824,31.147340445444716,"2022-04-25"
"浦东新区","上海市浦东新区三林路88弄",121.53688426481492,31.18970225553777,"2022-04-25"
"浦东新区","上海市浦东新区三林镇红旗村东桥队毛家塘",121.50789055617487,31.133660107274697,"2022-04-25"
"浦东新区","上海市浦东新区三林镇胡巷村陈家宅",121.52500489308987,31.158715770519464,"2022-04-25"
"浦东新区","上海市浦东新区三林镇胡巷村金家宅",121.52500489308987,31.158715770519464,"2022-04-25"
"浦东新区","上海市浦东新区三林镇联丰村顾家队顾家宅",121.5202445925314,31.157059254807656,"2022-04-25"
"浦东新区","上海市浦东新区三林镇临江村临江队王家渡",121.48103454515693,31.130823354677393,"2022-04-25"
"浦东新区","上海市浦东新区三林镇临江村王家渡队王家渡",121.48103454515693,31.130823354677393,"2022-04-25"
"浦东新区","上海市浦东新区三林镇临江村王家宅队王家宅",121.48402985504939,31.126877924520862,"2022-04-25"
"浦东新区","上海市浦东新区三林镇临江村益民队小陈家宅",121.52472668787344,31.1243504097577,"2022-04-25"
"浦东新区","上海市浦东新区三林镇临江村筠西队庞家宅",121.482806722267,31.124007039641032,"2022-04-25"
"浦东新区","上海市浦东新区三林镇临江村张塘队塘湾宅",121.49501181956997,31.131568697329346,"2022-04-25"
"浦东新区","上海市浦东新区三林镇临江村张塘队张家宅",121.48517950644107,31.129345634527656,"2022-04-25"
"浦东新区","上海市浦东新区三林镇临江村周南队庞信隆",121.47992289208833,31.12193527708931,"2022-04-25"
"浦东新区","上海市浦东新区三林镇临江村周南队周家宅",121.47873641017075,31.124012372204763,"2022-04-25"
"浦东新区","上海市浦东新区三林镇南阜村曹家队蚌壳滩",121.52616765974199,31.136051601892248,"2022-04-25"
"浦东新区","上海市浦东新区三林镇南阜村东汤家宅",121.52616765974199,31.136051601892248,"2022-04-25"
"浦东新区","上海市浦东新区三林镇南阜村红光队顾家宅",121.52616765974199,31.136051601892248,"2022-04-25"
"浦东新区","上海市浦东新区三林镇南阜村红光队南孙家宅",121.52678497528844,31.139491065259833,"2022-04-25"
"浦东新区","上海市浦东新区三林镇三林村镇前队金家宅",121.59324952200511,31.131094754366096,"2022-04-25"
"浦东新区","上海市浦东新区三林镇天花庵村北陈队大陈家宅",121.53193954213525,31.128535900177152,"2022-04-25"
"浦东新区","上海市浦东新区三林镇天花庵村东瞿队大瞿家宅",121.53261120516505,31.1270776188598,"2022-04-25"
"浦东新区","上海市浦东新区三林镇天花庵村乐耕队",121.52853496425243,31.13252183088585,"2022-04-25"
"浦东新区","上海市浦东新区三林镇天花庵村芦家队芦家油车",121.53315971050945,31.130072519334625,"2022-04-25"
"浦东新区","上海市浦东新区三林镇天花庵村闵北队闵家宅",121.53989017471241,31.12623849791897,"2022-04-25"
"浦东新区","上海市浦东新区三林镇天花庵村闵西队闵家宅",121.53989017471241,31.12623849791897,"2022-04-25"
"浦东新区","上海市浦东新区三林镇天花庵村南陈队大陈家宅",121.53193954213525,31.128535900177152,"2022-04-25"
"浦东新区","上海市浦东新区三林镇天花庵村南王家队南王家宅",121.55380142367048,31.162845112362536,"2022-04-25"
"浦东新区","上海市浦东新区三林镇天花庵村卫家队",121.53126967571646,31.13278372068077,"2022-04-25"
"浦东新区","上海市浦东新区三林镇天花庵村西瞿队大瞿家宅",121.53261120516505,31.1270776188598,"2022-04-25"
"浦东新区","上海市浦东新区三林镇西林村洪家队洪家新宅",121.5046341987012,31.13952467804987,"2022-04-25"
"浦东新区","上海市浦东新区三林镇西林村圈门队西林街",121.50505047347453,31.142465402882358,"2022-04-25"
"浦东新区","上海市浦东新区三林镇西林村任桥队西林街",121.50505047347453,31.142465402882358,"2022-04-25"
"浦东新区","上海市浦东新区三林镇西林村万家队西林街",121.50505047347453,31.142465402882358,"2022-04-25"
"浦东新区","上海市浦东新区三林镇新春村陈桥队陈家桥",121.48244489558725,31.134022953659134,"2022-04-25"
"浦东新区","上海市浦东新区三林镇新任村",121.50281306394082,31.161867720395563,"2022-04-25"
"浦东新区","上海市浦东新区三林镇懿德村康家队康家宅",121.52282254968392,31.124973851684217,"2022-04-25"
"浦东新区","上海市浦东新区三林镇懿德村钱家队钱家宅",121.52337096519778,31.128135358072374,"2022-04-25"
"浦东新区","上海市浦东新区三林镇懿德村吴家队吴家宅",121.5221809798887,31.125604863131734,"2022-04-25"
"浦东新区","上海市浦东新区三林镇中林村三林桥队三林桥",121.50504616160806,31.14249746924122,"2022-04-25"
"浦东新区","上海市浦东新区三舒路181弄",121.52553031198265,31.139159418419815,"2022-04-25"
"浦东新区","上海市浦东新区三舒路192弄",121.51063065747196,31.127855294432397,"2022-04-25"
"浦东新区","上海市浦东新区三舒路288弄",121.52553031198265,31.139159418419815,"2022-04-25"
"浦东新区","上海市浦东新区三舒路33弄",121.51124950013778,31.131499302275618,"2022-04-25"
"浦东新区","上海市浦东新区三舒路62弄",121.50989269949552,31.130409298630166,"2022-04-25"
"浦东新区","上海市浦东新区三旋路506弄",121.52553031198265,31.139159418419815,"2022-04-25"
"浦东新区","上海市浦东新区上川路620号",121.6544609577605,31.279709584018402,"2022-04-25"
"浦东新区","上海市浦东新区上南路1000弄",121.50066746123024,31.180593835385782,"2022-04-25"
"浦东新区","上海市浦东新区上南路1251弄",121.50260627401242,31.178521236106434,"2022-04-25"
"浦东新区","上海市浦东新区上南路1500弄",121.50233130269582,31.17495691317739,"2022-04-25"
"浦东新区","上海市浦东新区上南路1551弄",121.50452460542898,31.17454150695551,"2022-04-25"
"浦东新区","上海市浦东新区上南路3333弄",121.51000049615672,31.165019950629485,"2022-04-25"
"浦东新区","上海市浦东新区上南路3500弄",121.52553031198265,31.139159418419815,"2022-04-25"
"浦东新区","上海市浦东新区上南路3521号",121.51158546639851,31.161595328123152,"2022-04-25"
"浦东新区","上海市浦东新区上南路3651弄",121.51345942152287,31.160585322193327,"2022-04-25"
"浦东新区","上海市浦东新区上南路3848弄",121.51183600380526,31.156075235710073,"2022-04-25"
"浦东新区","上海市浦东新区上南路3880弄",121.5122859650352,31.155066947292617,"2022-04-25"
"浦东新区","上海市浦东新区上南路4071弄",121.51537568683676,31.15270251443411,"2022-04-25"
"浦东新区","上海市浦东新区上南路4185弄",121.51939174128022,31.151945982231677,"2022-04-25"
"浦东新区","上海市浦东新区上南路4265弄",121.51980478215371,31.151809926314225,"2022-04-25"
"浦东新区","上海市浦东新区上南路5588号",121.53410068553116,31.12914416758575,"2022-04-25"
"浦东新区","上海市浦东新区上南路6555弄",121.58485970786411,31.120077939878794,"2022-04-25"
"浦东新区","上海市浦东新区上南路6733弄",121.58485970786411,31.120077939878794,"2022-04-25"
"浦东新区","上海市浦东新区上南路6852号",121.58485970786411,31.120077939878794,"2022-04-25"
"浦东新区","上海市浦东新区上南路7718弄",121.58485970786411,31.120077939878794,"2022-04-25"
"浦东新区","上海市浦东新区上南路929弄",121.50767882556616,31.18609371739358,"2022-04-25"
"浦东新区","上海市浦东新区上浦路165弄",121.49894576888981,31.151980517688706,"2022-04-25"
"浦东新区","上海市浦东新区上浦路36弄",121.49631840493424,31.15038414733,"2022-04-25"
"浦东新区","上海市浦东新区申江路轲桥路交界口工地生活区",121.63667774256278,31.29081163122542,"2022-04-25"
"浦东新区","上海市浦东新区沈家弄路877弄",121.55290653172145,31.244431203293697,"2022-04-25"
"浦东新区","上海市浦东新区沈家弄路901弄",121.55289826731075,31.244971955008257,"2022-04-25"
"浦东新区","上海市浦东新区盛夏路1107弄",121.6408936699822,31.203976413616545,"2022-04-25"
"浦东新区","上海市浦东新区施湾二路1026弄",121.75563252599123,31.14722547604309,"2022-04-25"
"浦东新区","上海市浦东新区施湾二路766弄",121.75309490275609,31.152146859432357,"2022-04-25"
"浦东新区","上海市浦东新区世博家园大道站路94弄",121.5456103147083,31.165459346349106,"2022-04-25"
"浦东新区","上海市浦东新区世纪大道杨高南路交界口工地生活区",121.54183716207474,31.22390950343021,"2022-04-25"
"浦东新区","上海市浦东新区书院镇四灶村",121.88812863616873,30.974874963532184,"2022-04-25"
"浦东新区","上海市浦东新区书院镇洼港村",121.88360737470646,30.991383898603306,"2022-04-25"
"浦东新区","上海市浦东新区曙光路25弄",121.71551393242396,31.198898364030264,"2022-04-25"
"浦东新区","上海市浦东新区双桥路1108弄",121.58962611690005,31.28158489894264,"2022-04-25"
"浦东新区","上海市浦东新区水洞港路69弄",121.67247000696344,31.301676859126427,"2022-04-25"
"浦东新区","上海市浦东新区思浦路16弄",121.50043740518915,31.16360024342939,"2022-04-25"
"浦东新区","上海市浦东新区孙环路177弄",121.64480626750937,31.19025041789597,"2022-04-25"
"浦东新区","上海市浦东新区孙建路111弄",121.63269609322035,31.18757656813581,"2022-04-25"
"浦东新区","上海市浦东新区孙建路665弄",121.64188773485955,31.18897289780361,"2022-04-25"
"浦东新区","上海市浦东新区孙桥路238弄",121.63643915261933,31.187480878631966,"2022-04-25"
"浦东新区","上海市浦东新区台儿庄路363弄",121.60033796095378,31.264978881782035,"2022-04-25"
"浦东新区","上海市浦东新区台儿庄路663弄",121.60033796095378,31.264978881782035,"2022-04-25"
"浦东新区","上海市浦东新区唐兴路191弄",121.63626380338377,31.194416454082223,"2022-04-25"
"浦东新区","上海市浦东新区唐镇大众村包家宅",121.65488720372498,31.245149014624616,"2022-04-25"
"浦东新区","上海市浦东新区唐镇大众村中心新村",121.65463612733495,31.23453194599384,"2022-04-25"
"浦东新区","上海市浦东新区唐镇虹二村盛家宅",121.66420900983259,31.253451761612126,"2022-04-25"
"浦东新区","上海市浦东新区唐镇虹二村朱家宅",121.6683389694147,31.258308838536237,"2022-04-25"
"浦东新区","上海市浦东新区唐镇虹三村顾家宅",121.67957668151398,31.259966342393376,"2022-04-25"
"浦东新区","上海市浦东新区唐镇虹四村卫家宅",121.66270452776448,31.24662382947495,"2022-04-25"
"浦东新区","上海市浦东新区唐镇虹四村吴张家宅",121.65836822740671,31.246790543527457,"2022-04-25"
"浦东新区","上海市浦东新区唐镇路127弄",121.65660494352117,31.21335549848134,"2022-04-25"
"浦东新区","上海市浦东新区唐镇路366弄",121.66105398122043,31.215445625652567,"2022-04-25"
"浦东新区","上海市浦东新区唐镇吕三村百胜新村",121.64555866032607,31.222123744432952,"2022-04-25"
"浦东新区","上海市浦东新区唐镇吕三村三林新村",121.64844419728523,31.222081282929306,"2022-04-25"
"浦东新区","上海市浦东新区唐镇民丰村龚家宅",121.64474219044806,31.207675762451128,"2022-04-25"
"浦东新区","上海市浦东新区唐镇民丰村顾家宅",121.64861595329873,31.214212833818383,"2022-04-25"
"浦东新区","上海市浦东新区唐镇民丰村江北宅",121.64861595329873,31.214212833818383,"2022-04-25"
"浦东新区","上海市浦东新区唐镇暮二村曹家宅",121.68257405750913,31.224491521794413,"2022-04-25"
"浦东新区","上海市浦东新区唐镇暮二村费家宅",121.68257405750913,31.224491521794413,"2022-04-25"
"浦东新区","上海市浦东新区唐镇前进村东窑新村",121.64855217360753,31.2141666626809,"2022-04-25"
"浦东新区","上海市浦东新区唐镇前进村顾家宅",121.64855217360753,31.2141666626809,"2022-04-25"
"浦东新区","上海市浦东新区唐镇前进村西李家宅",121.64855217360753,31.2141666626809,"2022-04-25"
"浦东新区","上海市浦东新区唐镇唐四村费家宅",121.66677699579395,31.218435852424488,"2022-04-25"
"浦东新区","上海市浦东新区唐镇唐四村龚家宅",121.66768949453099,31.221019816280922,"2022-04-25"
"浦东新区","上海市浦东新区唐镇唐四村黄家东宅",121.6737448821432,31.224156161077826,"2022-04-25"
"浦东新区","上海市浦东新区唐镇唐镇村赵家宅",121.65724525568868,31.20515884050688,"2022-04-25"
"浦东新区","上海市浦东新区唐镇小湾村北街",121.69783994129489,31.23973798369629,"2022-04-25"
"浦东新区","上海市浦东新区唐镇小湾村北张家宅",121.69194760601408,31.236233793114234,"2022-04-25"
"浦东新区","上海市浦东新区唐镇小湾村东张家宅",121.69194760601408,31.236233793114234,"2022-04-25"
"浦东新区","上海市浦东新区唐镇小湾村南街",121.66154355772338,31.2142274263638,"2022-04-25"
"浦东新区","上海市浦东新区唐镇小湾村唐家宅",121.69607693678236,31.23979022711445,"2022-04-25"
"浦东新区","上海市浦东新区唐镇小湾村张家宅",121.69194760601408,31.236233793114234,"2022-04-25"
"浦东新区","上海市浦东新区唐镇新虹村东包家宅",121.65488720372498,31.245149014624616,"2022-04-25"
"浦东新区","上海市浦东新区唐镇新虹村陆家宅",121.65503362752312,31.248713367963926,"2022-04-25"
"浦东新区","上海市浦东新区唐镇新虹村缪家宅",121.65503362752312,31.248713367963926,"2022-04-25"
"浦东新区","上海市浦东新区唐镇新虹村瞿家宅",121.65503362752312,31.248713367963926,"2022-04-25"
"浦东新区","上海市浦东新区唐镇新虹村赵家宅",121.65503362752312,31.248713367963926,"2022-04-25"
"浦东新区","上海市浦东新区唐镇新镇村谢家宅",121.64851480409831,31.22184743550307,"2022-04-25"
"浦东新区","上海市浦东新区塘南路159弄",121.51640083308476,31.208002070914677,"2022-04-25"
"浦东新区","上海市浦东新区塘桥路551号",121.52765300790274,31.21690585341106,"2022-04-25"
"浦东新区","上海市浦东新区听达路185弄",121.77485958763513,31.060910455271795,"2022-04-25"
"浦东新区","上海市浦东新区听谐路73弄",121.75897404282725,31.063625816245775,"2022-04-25"
"浦东新区","上海市浦东新区万德路67弄",121.56710955030915,31.254592197175523,"2022-04-25"
"浦东新区","上海市浦东新区万祥镇新路村果园",121.8394069707324,30.979778270401592,"2022-04-25"
"浦东新区","上海市浦东新区王桥街41弄",121.70667209095035,31.208840615134932,"2022-04-25"
"浦东新区","上海市浦东新区微山二村",121.51989685846848,31.214418673428547,"2022-04-25"
"浦东新区","上海市浦东新区潍坊路154弄",121.53230434400284,31.231346466894244,"2022-04-25"
"浦东新区","上海市浦东新区潍坊路168弄",121.53400923803024,31.231918712480383,"2022-04-25"
"浦东新区","上海市浦东新区潍坊路208弄",121.5368199461404,31.23191076143255,"2022-04-25"
"浦东新区","上海市浦东新区潍坊路328号工地生活区",121.54157988737668,31.234246410575576,"2022-04-25"
"浦东新区","上海市浦东新区潍坊路333弄",121.52609220207916,31.229300465379932,"2022-04-25"
"浦东新区","上海市浦东新区潍坊路335弄",121.53827061970847,31.233788347881376,"2022-04-25"
"浦东新区","上海市浦东新区潍坊路355弄",121.53821797900558,31.23514539261892,"2022-04-25"
"浦东新区","上海市浦东新区潍坊路375弄",121.54147209071549,31.234748161879693,"2022-04-25"
"浦东新区","上海市浦东新区潍坊路606号",121.52801879790638,31.229204895697556,"2022-04-25"
"浦东新区","上海市浦东新区潍坊路89弄",121.52638702594753,31.229708372361436,"2022-04-25"
"浦东新区","上海市浦东新区潍坊西路1弄",121.55045460683195,31.227348292436346,"2022-04-25"
"浦东新区","上海市浦东新区五莲路100弄",121.58579735915542,31.281678100479343,"2022-04-25"
"浦东新区","上海市浦东新区五莲路1047弄",121.60139041568928,31.277745809783077,"2022-04-25"
"浦东新区","上海市浦东新区五莲路108弄",121.58877362497108,31.277157873113886,"2022-04-25"
"浦东新区","上海市浦东新区五莲路1168号",121.60292939268898,31.278456344054472,"2022-04-25"
"浦东新区","上海市浦东新区五莲路1424弄",121.60692101322256,31.281810881647033,"2022-04-25"
"浦东新区","上海市浦东新区五莲路201弄",121.58708615807058,31.282666663701544,"2022-04-25"
"浦东新区","上海市浦东新区五莲路759弄",121.59770287157082,31.276387222961237,"2022-04-25"
"浦东新区","上海市浦东新区五星路151弄",121.53688426481492,31.18970225553777,"2022-04-25"
"浦东新区","上海市浦东新区五星路239弄",121.56995448385925,31.181781423237346,"2022-04-25"
"浦东新区","上海市浦东新区西三里桥路8弄",121.51322038242668,31.204939467586826,"2022-04-25"
"浦东新区","上海市浦东新区西三里桥路9弄",121.55045460683195,31.227348292436346,"2022-04-25"
"浦东新区","上海市浦东新区西泰林路750弄",121.54451285486675,31.14902332485086,"2022-04-25"
"浦东新区","上海市浦东新区西泰林路850弄",121.5468220390107,31.14873915128947,"2022-04-25"
"浦东新区","上海市浦东新区西泰林路901弄",121.54507097208011,31.149459936767588,"2022-04-25"
"浦东新区","上海市浦东新区西营南路68弄",121.52553031198265,31.139159418419815,"2022-04-25"
"浦东新区","上海市浦东新区霞玉路436弄",121.69608699780407,31.26229102730043,"2022-04-25"
"浦东新区","上海市浦东新区下南路1071弄",121.54152697718213,31.191389935442906,"2022-04-25"
"浦东新区","上海市浦东新区下南路276弄",121.53688426481492,31.18970225553777,"2022-04-25"
"浦东新区","上海市浦东新区下南路309弄",121.52969618510942,31.207201251711854,"2022-04-25"
"浦东新区","上海市浦东新区下南路320弄",121.547891741212,31.175548813657176,"2022-04-25"
"浦东新区","上海市浦东新区下南路339弄",121.55064127471694,31.17679107417024,"2022-04-25"
"浦东新区","上海市浦东新区下南路370弄",121.53688426481492,31.18970225553777,"2022-04-25"
"浦东新区","上海市浦东新区下南路500弄",121.5437208188986,31.177967587760506,"2022-04-25"
"浦东新区","上海市浦东新区下南路501弄",121.53688426481492,31.18970225553777,"2022-04-25"
"浦东新区","上海市浦东新区下南路526弄",121.54440200396682,31.17804189176027,"2022-04-25"
"浦东新区","上海市浦东新区下南路971弄",121.54322324747663,31.188707612213637,"2022-04-25"
"浦东新区","上海市浦东新区香楠路65弄",121.62168313715968,31.223422053510006,"2022-04-25"
"浦东新区","上海市浦东新区小南码头路4弄",121.55045460683195,31.227348292436346,"2022-04-25"
"浦东新区","上海市浦东新区歇浦路288号",121.55597702978508,31.256779877450242,"2022-04-25"
"浦东新区","上海市浦东新区新场镇坦西村",121.65331067755497,31.091888312065223,"2022-04-25"
"浦东新区","上海市浦东新区新陈路303弄",121.53688426481492,31.18970225553777,"2022-04-25"
"浦东新区","上海市浦东新区新川路742弄",121.6983041954638,31.197288197034478,"2022-04-25"
"浦东新区","上海市浦东新区新德路330弄",121.70575860407725,31.205259067738275,"2022-04-25"
"浦东新区","上海市浦东新区新德西路207弄",121.68014000889929,31.197583884180386,"2022-04-25"
"浦东新区","上海市浦东新区新德西路508弄",121.67638760712302,31.198096102613977,"2022-04-25"
"浦东新区","上海市浦东新区新金桥路230号",121.60603779924514,31.255251663107057,"2022-04-25"
"浦东新区","上海市浦东新区新龙路203弄",121.63662186796006,31.32035094299062,"2022-04-25"
"浦东新区","上海市浦东新区新浦路199弄",121.54524578233234,31.1712264561122,"2022-04-25"
"浦东新区","上海市浦东新区新浦路251弄",121.54134201607764,31.17422589586613,"2022-04-25"
"浦东新区","上海市浦东新区新浦路346弄",121.54187632819497,31.17754663363552,"2022-04-25"
"浦东新区","上海市浦东新区新浦路380弄",121.53688426481492,31.18970225553777,"2022-04-25"
"浦东新区","上海市浦东新区新浦路543弄",121.536926664835,31.1758010055361,"2022-04-25"
"浦东新区","上海市浦东新区新浦路587弄",121.532965137536,31.19272295943645,"2022-04-25"
"浦东新区","上海市浦东新区新浦路629弄",121.54201269097139,31.17757706597876,"2022-04-25"
"浦东新区","上海市浦东新区新雅路90弄",121.69056385620652,31.242822128133582,"2022-04-25"
"浦东新区","上海市浦东新区新元南路正茂路交界口工地生活区",121.82788341781985,30.883671131631182,"2022-04-25"
"浦东新区","上海市浦东新区新园路32弄",121.63550275895574,31.324576801348986,"2022-04-25"
"浦东新区","上海市浦东新区行南路561号",121.5888146775329,31.333284877194632,"2022-04-25"
"浦东新区","上海市浦东新区行南路585号",121.58781899570562,31.33229900937556,"2022-04-25"
"浦东新区","上海市浦东新区秀康路958弄",121.58485970786411,31.120077939878794,"2022-04-25"
"浦东新区","上海市浦东新区秀浦路886弄",121.5745632402782,31.13210646861891,"2022-04-25"
"浦东新区","上海市浦东新区秀沿路2501弄",121.60721008793567,31.144675483422116,"2022-04-25"
"浦东新区","上海市浦东新区秀沿路2875弄",121.61606648195854,31.14493023082232,"2022-04-25"
"浦东新区","上海市浦东新区秀沿路867弄",121.58485970786411,31.120077939878794,"2022-04-25"
"浦东新区","上海市浦东新区秀沿西路68弄",121.5437560324746,31.137587866279553,"2022-04-25"
"浦东新区","上海市浦东新区雪野二路246号工地生活区",121.48105017567279,31.183008076943693,"2022-04-25"
"浦东新区","上海市浦东新区雪野路34弄",121.50382231018129,31.186552940240503,"2022-04-25"
"浦东新区","上海市浦东新区雪野路洪山路交界口工地生活区",121.50614865196047,31.18065647453292,"2022-04-25"
"浦东新区","上海市浦东新区严民路280弄",121.53597113726404,31.19393302081896,"2022-04-25"
"浦东新区","上海市浦东新区严民路40弄",121.53536082850054,31.198209156327895,"2022-04-25"
"浦东新区","上海市浦东新区严桥路240弄",121.53492065880066,31.193886685231437,"2022-04-25"
"浦东新区","上海市浦东新区严桥路58弄",121.53246496102804,31.19679983627834,"2022-04-25"
"浦东新区","上海市浦东新区严杨路165弄",121.53577251722662,31.201033280595517,"2022-04-25"
"浦东新区","上海市浦东新区严杨路166弄",121.53619499499712,31.20036688077375,"2022-04-25"
"浦东新区","上海市浦东新区严杨路30弄",121.53251293054227,31.198276108155607,"2022-04-25"
"浦东新区","上海市浦东新区严镇路75弄",121.53464398070359,31.197513842937667,"2022-04-25"
"浦东新区","上海市浦东新区盐朝公路67号",121.77001951754738,31.0943397010565,"2022-04-25"
"浦东新区","上海市浦东新区杨高南路2030弄",121.5289322847795,31.19671087465208,"2022-04-25"
"浦东新区","上海市浦东新区杨高南路3288弄",121.52558241370224,31.17462515993693,"2022-04-25"
"浦东新区","上海市浦东新区杨高南路5055弄",121.5375261041018,31.15615318813709,"2022-04-25"
"浦东新区","上海市浦东新区杨高南路5135弄",121.53854361475295,31.154549626464817,"2022-04-25"
"浦东新区","上海市浦东新区杨高中路10弄",121.60637358584478,31.263420011224802,"2022-04-25"
"浦东新区","上海市浦东新区杨南路1899弄",121.5254800068741,31.16142174137021,"2022-04-25"
"浦东新区","上海市浦东新区杨南路694弄",121.5075548594058,31.15539096668121,"2022-04-25"
"浦东新区","上海市浦东新区杨南路826弄",121.50904299231362,31.156750615241993,"2022-04-25"
"浦东新区","上海市浦东新区杨思北街118弄",121.49914393508531,31.1698540400458,"2022-04-25"
"浦东新区","上海市浦东新区杨思路1121弄",121.51244631256873,31.17079365323609,"2022-04-25"
"浦东新区","上海市浦东新区杨思路427号",121.49900020620372,31.165790050525324,"2022-04-25"
"浦东新区","上海市浦东新区杨思路430弄",121.49945016743366,31.165366647001502,"2022-04-25"
"浦东新区","上海市浦东新区杨思路502弄",121.50139050733522,31.165181479780415,"2022-04-25"
"浦东新区","上海市浦东新区杨思路855弄",121.50659726573217,31.168965631905674,"2022-04-25"
"浦东新区","上海市浦东新区杨思路860弄",121.53688426481492,31.18970225553777,"2022-04-25"
"浦东新区","上海市浦东新区杨思新村",121.60064563059096,31.22441717742983,"2022-04-25"
"浦东新区","上海市浦东新区杨新路20弄",121.50290855381654,31.170494328286757,"2022-04-25"
"浦东新区","上海市浦东新区杨新路77弄",121.5001680033667,31.169243023786645,"2022-04-25"
"浦东新区","上海市浦东新区杨新路80弄",121.50033351024607,31.169613156321486,"2022-04-25"
"浦东新区","上海市浦东新区杨新路93弄",121.500194952532,31.169327994680454,"2022-04-25"
"浦东新区","上海市浦东新区洋泾镇路89弄",121.55569693812708,31.24732055331147,"2022-04-25"
"浦东新区","上海市浦东新区耀华路414弄",121.4922269826585,31.1790527910542,"2022-04-25"
"浦东新区","上海市浦东新区耀华路500弄",121.48875934372887,31.17679431825375,"2022-04-25"
"浦东新区","上海市浦东新区耀华路528号",121.4882265587309,31.177666972640683,"2022-04-25"
"浦东新区","上海市浦东新区耀华路550弄",121.48745123124523,31.17598769660649,"2022-04-25"
"浦东新区","上海市浦东新区耀华路579弄",121.48605966617973,31.178810494440008,"2022-04-25"
"浦东新区","上海市浦东新区耀华路87弄",121.49669183053473,31.18425850265287,"2022-04-25"
"浦东新区","上海市浦东新区耀华路8号",121.50077166466939,31.183897510556708,"2022-04-25"
"浦东新区","上海市浦东新区耀江路355号工地生活区",121.4785643846656,31.17327870311369,"2022-04-25"
"浦东新区","上海市浦东新区益丰路55弄",121.62883948800493,31.20710792433072,"2022-04-25"
"浦东新区","上海市浦东新区益江路511弄",121.63543170298989,31.202213517362043,"2022-04-25"
"浦东新区","上海市浦东新区殷北路351弄",121.6337796293265,31.184466261701356,"2022-04-25"
"浦东新区","上海市浦东新区银峰路676弄",121.65277879086253,31.290487771739045,"2022-04-25"
"浦东新区","上海市浦东新区银山路181号",121.58653495780966,31.250096900312947,"2022-04-25"
"浦东新区","上海市浦东新区银山路342弄",121.58944654562862,31.250482180250152,"2022-04-25"
"浦东新区","上海市浦东新区永春东路70号",121.74758092387474,30.978099330359562,"2022-04-25"
"浦东新区","上海市浦东新区永宁东路531弄",121.75354549279989,30.973361742698845,"2022-04-25"
"浦东新区","上海市浦东新区永泰路1299弄",121.53314551728239,31.14925557699214,"2022-04-25"
"浦东新区","上海市浦东新区永泰路133弄",121.50921573646319,31.141593889142552,"2022-04-25"
"浦东新区","上海市浦东新区永泰路136弄",121.51114125432383,31.140667892100943,"2022-04-25"
"浦东新区","上海市浦东新区永泰路1650弄",121.54342042553608,31.150399676956575,"2022-04-25"
"浦东新区","上海市浦东新区永泰路2079弄",121.52553031198265,31.139159418419815,"2022-04-25"
"浦东新区","上海市浦东新区永泰路59弄",121.50784662903543,31.140260061067913,"2022-04-25"
"浦东新区","上海市浦东新区永泰路630弄",121.52411305537956,31.145365857319558,"2022-04-25"
"浦东新区","上海市浦东新区羽山路1445弄",121.56713227743855,31.24677788561909,"2022-04-25"
"浦东新区","上海市浦东新区羽山路383弄",121.55038328137447,31.239109425236762,"2022-04-25"
"浦东新区","上海市浦东新区玉泉街77弄",121.50199264151856,31.168991123257296,"2022-04-25"
"浦东新区","上海市浦东新区御桥路1679弄",121.57801623682799,31.165627672680262,"2022-04-25"
"浦东新区","上海市浦东新区御桥路288弄",121.54286446425594,31.155924815928017,"2022-04-25"
"浦东新区","上海市浦东新区御青路56弄",121.57846907263557,31.165031924344618,"2022-04-25"
"浦东新区","上海市浦东新区御山路360弄",121.57468244541937,31.162035666910167,"2022-04-25"
"浦东新区","上海市浦东新区御山路390弄",121.57504356423436,31.160854472763383,"2022-04-25"
"浦东新区","上海市浦东新区御水路150弄",121.57886495587383,31.167441854466574,"2022-04-25"
"浦东新区","上海市浦东新区御水路199弄",121.58063821095053,31.166554813951443,"2022-04-25"
"浦东新区","上海市浦东新区源深路600弄",121.54036717493821,31.237760542935803,"2022-04-25"
"浦东新区","上海市浦东新区云汉路978弄",121.8143022961367,30.916615866358676,"2022-04-25"
"浦东新区","上海市浦东新区云山路1039弄",121.57896466778543,31.256014461431107,"2022-04-25"
"浦东新区","上海市浦东新区云山路999弄",121.57850922689187,31.258196243274657,"2022-04-25"
"浦东新区","上海市浦东新区云台路183弄",121.51061853034757,31.18339896227592,"2022-04-25"
"浦东新区","上海市浦东新区云台路529弄",121.51363063855308,31.1744192328881,"2022-04-25"
"浦东新区","上海市浦东新区云台路702号",121.51355149783765,31.17098359856008,"2022-04-25"
"浦东新区","上海市浦东新区云雅路400弄",121.6834223274022,31.249668243645118,"2022-04-25"
"浦东新区","上海市浦东新区运盐河路1255弄",121.72254712558377,31.18783652798957,"2022-04-25"
"浦东新区","上海市浦东新区韵涛路36弄",121.58485970786411,31.120077939878794,"2022-04-25"
"浦东新区","上海市浦东新区枣庄路1029弄",121.59182229421084,31.253388167854528,"2022-04-25"
"浦东新区","上海市浦东新区枣庄路118弄",121.57682670067167,31.265418040115406,"2022-04-25"
"浦东新区","上海市浦东新区枣庄路552弄",121.58557898108594,31.25736686193547,"2022-04-25"
"浦东新区","上海市浦东新区张江路1616弄",121.635852020138,31.193318840745228,"2022-04-25"
"浦东新区","上海市浦东新区张江镇新丰村龚家宅",121.65172867172136,31.16654067747195,"2022-04-25"
"浦东新区","上海市浦东新区张江镇新丰村薛家宅",121.65660287741849,31.170241426926943,"2022-04-25"
"浦东新区","上海市浦东新区张江镇中心村小桥宅",121.6647867999366,31.192715005059494,"2022-04-25"
"浦东新区","上海市浦东新区张杨路1000弄",121.5362208661958,31.235578129821725,"2022-04-25"
"浦东新区","上海市浦东新区张杨路1050弄",121.5370397614987,31.236817818967825,"2022-04-25"
"浦东新区","上海市浦东新区张杨路1318号",121.53816515864159,31.237703345264983,"2022-04-25"
"浦东新区","上海市浦东新区张杨路310弄",121.51973938551258,31.230805867990643,"2022-04-25"
"浦东新区","上海市浦东新区张杨路370弄",121.52153842195742,31.232164345489466,"2022-04-25"
"浦东新区","上海市浦东新区张杨路628弄",121.52760369093023,31.233830340914704,"2022-04-25"
"浦东新区","上海市浦东新区招远路19弄",121.5212299438453,31.241645116927586,"2022-04-25"
"浦东新区","上海市浦东新区赵高公路1606号",121.6451872109977,31.30459367291588,"2022-04-25"
"浦东新区","上海市浦东新区赵高公路610号",121.63297295097853,31.3220401216688,"2022-04-25"
"浦东新区","上海市浦东新区赵高公路950968号",121.63917054035296,31.31389726291588,"2022-04-25"
"浦东新区","上海市浦东新区赵高公路958号",121.63712932074266,31.316872849079196,"2022-04-25"
"浦东新区","上海市浦东新区浙桥路277号",121.60792001878019,31.258345881498737,"2022-04-25"
"浦东新区","上海市浦东新区振桥路申轮路交界口工地生活区",121.63826882128205,31.29100596180709,"2022-04-25"
"浦东新区","上海市浦东新区振兴东路12弄",121.50271020795994,31.16838558591424,"2022-04-25"
"浦东新区","上海市浦东新区中科路2635弄",121.64420248849765,31.19692918571442,"2022-04-25"
"浦东新区","上海市浦东新区中林街131弄",121.50772401033333,31.14362187112164,"2022-04-25"
"浦东新区","上海市浦东新区众三家园",121.67486947081115,31.28707074653899,"2022-04-25"
"浦东新区","上海市浦东新区周东路191弄",121.59391561554075,31.118618136099798,"2022-04-25"
"浦东新区","上海市浦东新区周东路782弄",121.59005002727021,31.131798210671896,"2022-04-25"
"浦东新区","上海市浦东新区周康路869弄",121.58121707902114,31.10748746882412,"2022-04-25"
"浦东新区","上海市浦东新区周浦镇果园村",121.65534489038232,31.119031239374493,"2022-04-25"
"浦东新区","上海市浦东新区周浦镇里仁村",121.57510536765346,31.11385058423264,"2022-04-25"
"浦东新区","上海市浦东新区周浦镇沈西村梅林",121.5686535578197,31.092572579867824,"2022-04-25"
"浦东新区","上海市浦东新区周浦镇瓦南村",121.65954446864147,31.10478087123219,"2022-04-25"
"浦东新区","上海市浦东新区周市路148号",121.5910256768846,31.11830457829532,"2022-04-25"
"浦东新区","上海市浦东新区周市路66号",121.58929985233884,31.11634893399854,"2022-04-25"
"浦东新区","上海市浦东新区周泰路68弄",121.60959760432009,31.105574036460933,"2022-04-25"
"浦东新区","上海市浦东新区周星路500弄",121.58569980317705,31.10805931117418,"2022-04-25"
"浦东新区","上海市浦东新区周秀路168弄",121.61309686360366,31.104055414085327,"2022-04-25"
"浦东新区","上海市浦东新区周阳路399弄",121.60931542785669,31.097763839521736,"2022-04-25"
"浦东新区","上海市浦东新区周祝公路1218号",121.64587360623788,31.11220386614623,"2022-04-25"
"浦东新区","上海市浦东新区周祝公路周泰北路交界口工地生活区",121.60866363608137,31.109520206494043,"2022-04-25"
"浦东新区","上海市浦东新区竹柏路500弄",121.91008501944361,30.908902876239964,"2022-04-25"
"浦东新区","上海市浦东新区祝家港路155弄",121.59218143675373,31.11641857211224,"2022-04-25"
"浦东新区","上海市浦东新区祝家港路255弄",121.59479110409077,31.11633571743616,"2022-04-25"
"浦东新区","上海市浦东新区祝潘公路301弄",121.76684274994189,31.114088797527916,"2022-04-25"
"浦东新区","上海市浦东新区祝桥镇邓镇二村南朱家宅",121.7679602419963,31.147181976158844,"2022-04-25"
"浦东新区","上海市浦东新区祝桥镇卫民村",121.74780819516877,31.10401135310868,"2022-04-25"
"浦东新区","上海市浦东新区祝桥镇义泓村",121.84381262027553,31.081963820725456,"2022-04-25"
"浦东新区","上海市浦东新区祝桥镇中圩村陈家宅",121.75971918724777,31.161101373697996,"2022-04-25"
"浦东新区","上海市浦东新区祝桥镇祝东村华星",121.78051091742897,31.13283727315145,"2022-04-25"
"浦东新区","上海市浦东新区祝桥镇祝桥村一灶",121.76490097275152,31.12381537627981,"2022-04-25"
"浦东新区","上海市浦东新区梓康路580弄",121.5673160707459,31.12887508064723,"2022-04-25"
"浦东新区","上海市浦东新区紫薇路750弄",121.63626380338377,31.194416454082223,"2022-04-25"
"浦东新区","上海市浦东新区紫叶路115弄",121.55858804458039,31.189245596705973,"2022-04-25"
"浦东新区","上海市浦东新区紫叶路51弄",121.55761401191593,31.190270894229712,"2022-04-25"
"浦东新区","上海市浦东新区紫叶路65弄",121.53688426481492,31.18970225553777,"2022-04-25"
"黄浦区","上海市黄浦区安澜路13弄",121.49329309163774,31.221688175343793,"2022-04-25"
"黄浦区","上海市黄浦区白渡路258弄",121.50783953242191,31.225446027164136,"2022-04-25"
"黄浦区","上海市黄浦区白河路37号",121.47832130319458,31.241274388906053,"2022-04-25"
"黄浦区","上海市黄浦区半淞园路178号",121.50494285647443,31.21057589909641,"2022-04-25"
"黄浦区","上海市黄浦区半淞园路628号",121.50154258756031,31.204294099073216,"2022-04-25"
"黄浦区","上海市黄浦区保屯路211弄",121.4983058160445,31.209535149529046,"2022-04-25"
"黄浦区","上海市黄浦区保屯路36弄",121.4960534048088,31.212482095476187,"2022-04-25"
"黄浦区","上海市黄浦区保屯路50弄",121.4963149913733,31.211889115666636,"2022-04-25"
"黄浦区","上海市黄浦区保屯路82号",121.49674833395132,31.210885288031196,"2022-04-25"
"黄浦区","上海市黄浦区保屯路99弄",121.4967787865081,31.213092289398723,"2022-04-25"
"黄浦区","上海市黄浦区北海路267弄",121.48451934172178,31.236080259939193,"2022-04-25"
"黄浦区","上海市黄浦区北京东路288弄",121.49064632428312,31.24648026991378,"2022-04-25"
"黄浦区","上海市黄浦区北京东路316弄",121.47709924837882,31.20540045126984,"2022-04-25"
"黄浦区","上海市黄浦区北京东路345号",121.48980955270059,31.24591737537902,"2022-04-25"
"黄浦区","上海市黄浦区北京东路375号",121.4893508779072,31.245847138746527,"2022-04-25"
"黄浦区","上海市黄浦区北京东路395号",121.48906279133014,31.24577149923715,"2022-04-25"
"黄浦区","上海市黄浦区北京东路431弄",121.48868846742414,31.24544624864965,"2022-04-25"
"黄浦区","上海市黄浦区北京东路432号",121.48809298070158,31.245994404064763,"2022-04-25"
"黄浦区","上海市黄浦区北京西路206号",121.47630694291901,31.242105997038976,"2022-04-25"
"黄浦区","上海市黄浦区北京西路218弄",121.47608200721932,31.242234743581015,"2022-04-25"
"黄浦区","上海市黄浦区北京西路240弄",121.47583308676249,31.24201761876455,"2022-04-25"
"黄浦区","上海市黄浦区北京西路256号",121.47543316114945,31.241795244763107,"2022-04-25"
"黄浦区","上海市黄浦区北京西路257号",121.47550215101262,31.24160250990928,"2022-04-25"
"黄浦区","上海市黄浦区北京西路260号",121.4753648899307,31.24175510778184,"2022-04-25"
"黄浦区","上海市黄浦区北京西路355弄",121.47366583488912,31.24082160936233,"2022-04-25"
"黄浦区","上海市黄浦区长乐路169弄",121.46880061224708,31.227226936462426,"2022-04-25"
"黄浦区","上海市黄浦区长乐路272弄",121.47152041183963,31.22769614781011,"2022-04-25"
"黄浦区","上海市黄浦区长乐路274号",121.47119684219494,31.227676076296834,"2022-04-25"
"黄浦区","上海市黄浦区长乐路85号",121.47471891843847,31.22793847239397,"2022-04-25"
"黄浦区","上海市黄浦区重庆北路155号",121.47654517354025,31.23221598855108,"2022-04-25"
"黄浦区","上海市黄浦区重庆北路177弄",121.4763199683489,31.2325548713123,"2022-04-25"
"黄浦区","上海市黄浦区重庆北路205号",121.4764000972004,31.232611840548902,"2022-04-25"
"黄浦区","上海市黄浦区重庆北路212号",121.4764415090844,31.233133439385597,"2022-04-25"
"黄浦区","上海市黄浦区重庆北路216弄",121.47648597520714,31.233229391023045,"2022-04-25"
"黄浦区","上海市黄浦区重庆北路235号",121.47546702726717,31.233620838718963,"2022-04-25"
"黄浦区","上海市黄浦区重庆北路318弄",121.47528332379039,31.234901311280147,"2022-04-25"
"黄浦区","上海市黄浦区重庆北路364号",121.4749516693961,31.235372568321225,"2022-04-25"
"黄浦区","上海市黄浦区重庆南路169弄",121.47815610481129,31.223155630252226,"2022-04-25"
"黄浦区","上海市黄浦区重庆南路181号",121.47770722154796,31.221911127910467,"2022-04-25"
"黄浦区","上海市黄浦区重庆南路205弄",121.47758550115135,31.220500929265803,"2022-04-25"
"黄浦区","上海市黄浦区重庆南路26弄",121.49158559252436,31.23724715206362,"2022-04-25"
"黄浦区","上海市黄浦区重庆南路283号",121.4799154361526,31.215368262979844,"2022-04-25"
"黄浦区","上海市黄浦区重庆南路30弄",121.47781816227844,31.225337947135458,"2022-04-25"
"黄浦区","上海市黄浦区曹家街38号",121.4926650862557,31.224741188729872,"2022-04-25"
"黄浦区","上海市黄浦区曹家弄3号",121.49158559252436,31.23724715206362,"2022-04-25"
"黄浦区","上海市黄浦区曹市弄15弄",121.49120255505491,31.227368364019917,"2022-04-25"
"黄浦区","上海市黄浦区曹市弄42弄",121.49565482665402,31.22491172460565,"2022-04-25"
"黄浦区","上海市黄浦区曹市弄46号",121.49565482665402,31.22491172460565,"2022-04-25"
"黄浦区","上海市黄浦区成都北路262号",121.47476077947523,31.235056158654945,"2022-04-25"
"黄浦区","上海市黄浦区成都北路262弄",121.47445122339649,31.23499100854444,"2022-04-25"
"黄浦区","上海市黄浦区成都南路108弄",121.47377165527818,31.227700316508475,"2022-04-25"
"黄浦区","上海市黄浦区成都南路132弄",121.4741907147986,31.227598106146772,"2022-04-25"
"黄浦区","上海市黄浦区成都南路89号",121.47427623348315,31.227752965608925,"2022-04-25"
"黄浦区","上海市黄浦区打浦路15号",121.47803375560083,31.21015918370958,"2022-04-25"
"黄浦区","上海市黄浦区打浦路303弄",121.47819518110099,31.205904673705177,"2022-04-25"
"黄浦区","上海市黄浦区打浦路316弄",121.4771429060266,31.205298679857936,"2022-04-25"
"黄浦区","上海市黄浦区打浦路339弄",121.4785522575412,31.20529674944314,"2022-04-25"
"黄浦区","上海市黄浦区打浦路38弄",121.47639291075632,31.210670792891353,"2022-04-25"
"黄浦区","上海市黄浦区打浦路457弄",121.48065285514573,31.20307504728536,"2022-04-25"
"黄浦区","上海市黄浦区打浦路470弄",121.4793632477556,31.203063078428812,"2022-04-25"
"黄浦区","上海市黄浦区打浦路500弄",121.47975158522758,31.202108344841587,"2022-04-25"
"黄浦区","上海市黄浦区打浦路58号",121.47644375484818,31.21029044500982,"2022-04-25"
"黄浦区","上海市黄浦区打浦路80弄",121.4768743126791,31.209469750012023,"2022-04-25"
"黄浦区","上海市黄浦区打浦路90弄",121.47722528064186,31.20856086958744,"2022-04-25"
"黄浦区","上海市黄浦区打浦路92号",121.47714245687384,31.20872726539746,"2022-04-25"
"黄浦区","上海市黄浦区打浦路93号",121.47847825962481,31.20378956594579,"2022-04-25"
"黄浦区","上海市黄浦区大夫坊36号",121.49158559252436,31.23724715206362,"2022-04-25"
"黄浦区","上海市黄浦区大沽路139弄",121.47815089463933,31.232003780930505,"2022-04-25"
"黄浦区","上海市黄浦区大沽路155号",121.47778959616323,31.23230985688301,"2022-04-25"
"黄浦区","上海市黄浦区大沽路161号",121.47768602153792,31.232260529703876,"2022-04-25"
"黄浦区","上海市黄浦区大沽路169号",121.47760122149778,31.232100196893438,"2022-04-25"
"黄浦区","上海市黄浦区大沽路171号",121.47752890790424,31.23209957933755,"2022-04-25"
"黄浦区","上海市黄浦区大沽路183弄",121.4776655401723,31.231942951592927,"2022-04-25"
"黄浦区","上海市黄浦区大沽路197号",121.47710778228115,31.23191454396995,"2022-04-25"
"黄浦区","上海市黄浦区大吉路173弄",121.49031718514428,31.22014540391755,"2022-04-25"
"黄浦区","上海市黄浦区大吉路320号",121.48821461126762,31.21884519645946,"2022-04-25"
"黄浦区","上海市黄浦区大吉路57号",121.49302997795387,31.221047841193307,"2022-04-25"
"黄浦区","上海市黄浦区大林路31弄",121.494257961586,31.21938293066933,"2022-04-25"
"黄浦区","上海市黄浦区大林路43弄",121.49331950181971,31.219241105018995,"2022-04-25"
"黄浦区","上海市黄浦区大林路78号",121.49358953245603,31.218933751034996,"2022-04-25"
"黄浦区","上海市黄浦区淡水路190号",121.47965879026839,31.223670410874007,"2022-04-25"
"黄浦区","上海市黄浦区淡水路205弄",121.47982955814584,31.223561942787075,"2022-04-25"
"黄浦区","上海市黄浦区淡水路209号",121.47980454033738,31.223456948647257,"2022-04-25"
"黄浦区","上海市黄浦区淡水路211号",121.47994606837048,31.22346104033285,"2022-04-25"
"黄浦区","上海市黄浦区淡水路213号",121.47993690565427,31.22333813528374,"2022-04-25"
"黄浦区","上海市黄浦区淡水路214弄",121.47901048318184,31.22338754436811,"2022-04-25"
"黄浦区","上海市黄浦区淡水路217号",121.4798435717118,31.223202954983662,"2022-04-25"
"黄浦区","上海市黄浦区淡水路223弄",121.47991148360833,31.222843579792674,"2022-04-25"
"黄浦区","上海市黄浦区淡水路225弄",121.47987824630448,31.222755183320498,"2022-04-25"
"黄浦区","上海市黄浦区淡水路227弄",121.4798842649514,31.222721059943833,"2022-04-25"
"黄浦区","上海市黄浦区淡水路232号",121.47969454282769,31.223005626907845,"2022-04-25"
"黄浦区","上海市黄浦区淡水路266弄",121.47956931903958,31.22204785413196,"2022-04-25"
"黄浦区","上海市黄浦区淡水路361号",121.48079155351647,31.218312477541577,"2022-04-25"
"黄浦区","上海市黄浦区淡水路460弄",121.48045567708628,31.21706227470301,"2022-04-25"
"黄浦区","上海市黄浦区定兴路36号",121.47746629601019,31.241107665019452,"2022-04-25"
"黄浦区","上海市黄浦区定兴路6号",121.47809259461175,31.241315761083744,"2022-04-25"
"黄浦区","上海市黄浦区东街162弄",121.50389713903027,31.228933857077042,"2022-04-25"
"黄浦区","上海市黄浦区东街167弄",121.50389713903027,31.228933857077042,"2022-04-25"
"黄浦区","上海市黄浦区东姚家弄44号",121.50426319852559,31.228396332135844,"2022-04-25"
"黄浦区","上海市黄浦区多稼路2号",121.51227788028561,31.215310742787516,"2022-04-25"
"黄浦区","上海市黄浦区方浜西路63弄",121.48894178957794,31.22685144217224,"2022-04-25"
"黄浦区","上海市黄浦区方斜路269号",121.49163589763292,31.221482959693272,"2022-04-25"
"黄浦区","上海市黄浦区方斜路401弄",121.49001086296538,31.22040782112921,"2022-04-25"
"黄浦区","上海市黄浦区方斜路407号",121.48995238327667,31.22035632595917,"2022-04-25"
"黄浦区","上海市黄浦区方斜路543号",121.4897891611655,31.217760222396315,"2022-04-25"
"黄浦区","上海市黄浦区丰记码头街95弄",121.51082990163408,31.215549702281102,"2022-04-25"
"黄浦区","上海市黄浦区凤阳路145号",121.47853673799248,31.240565451640553,"2022-04-25"
"黄浦区","上海市黄浦区凤阳路228弄",121.4782059607671,31.240573683460127,"2022-04-25"
"黄浦区","上海市黄浦区凤阳路358弄",121.47565019176066,31.240041088234957,"2022-04-25"
"黄浦区","上海市黄浦区凤阳路428号",121.47501976095377,31.239377192462186,"2022-04-25"
"黄浦区","上海市黄浦区福建中路195弄",121.48805704848118,31.239509570614192,"2022-04-25"
"黄浦区","上海市黄浦区福建中路225号",121.48776069749343,31.240106234828197,"2022-04-25"
"黄浦区","上海市黄浦区福州路105号",121.494982804302,31.240828710592687,"2022-04-25"
"黄浦区","上海市黄浦区福州路37号",121.49599995563095,31.241006858673476,"2022-04-25"
"黄浦区","上海市黄浦区福州路614弄",121.48585503218456,31.238969867958666,"2022-04-25"
"黄浦区","上海市黄浦区福州路646号",121.4849942758449,31.238336994702173,"2022-04-25"
"黄浦区","上海市黄浦区抚安街10号",121.50384872036328,31.226729236365895,"2022-04-25"
"黄浦区","上海市黄浦区抚安街9弄",121.49158559252436,31.23724715206362,"2022-04-25"
"黄浦区","上海市黄浦区复兴东路314号",121.5051201819821,31.226410713090885,"2022-04-25"
"黄浦区","上海市黄浦区复兴东路330号",121.50468549194582,31.226560942574764,"2022-04-25"
"黄浦区","上海市黄浦区复兴东路338号",121.50448732575032,31.226565034124658,"2022-04-25"
"黄浦区","上海市黄浦区复兴东路346号",121.50437126467844,31.226603324847012,"2022-04-25"
"黄浦区","上海市黄浦区复兴东路354号",121.5043178155006,31.22667620069466,"2022-04-25"
"黄浦区","上海市黄浦区复兴东路368号",121.50412818320743,31.226837932378366,"2022-04-25"
"黄浦区","上海市黄浦区复兴东路404弄",121.50363519314355,31.226892511933613,"2022-04-25"
"黄浦区","上海市黄浦区复兴东路663弄",121.49812238205936,31.227977302939546,"2022-04-25"
"黄浦区","上海市黄浦区复兴东路699号",121.49743886139683,31.227891072859233,"2022-04-25"
"黄浦区","上海市黄浦区复兴中路305号",121.48276441207747,31.222075415520003,"2022-04-25"
"黄浦区","上海市黄浦区复兴中路388号",121.48104006224993,31.22240050289499,"2022-04-25"
"黄浦区","上海市黄浦区复兴中路408弄",121.48013579049419,31.222547895195856,"2022-04-25"
"黄浦区","上海市黄浦区复兴中路455号",121.47943816643513,31.221327163415282,"2022-04-25"
"黄浦区","上海市黄浦区复兴中路485弄",121.47845595919053,31.221353875778686,"2022-04-25"
"黄浦区","上海市黄浦区复兴中路582号",121.47126879646629,31.220974574944584,"2022-04-25"
"黄浦区","上海市黄浦区复兴中路583弄",121.47227606643465,31.22093520106751,"2022-04-25"
"黄浦区","上海市黄浦区复兴中路598弄",121.47063585040398,31.221046837546464,"2022-04-25"
"黄浦区","上海市黄浦区复兴中路616弄",121.47034767399637,31.22099541993162,"2022-04-25"
"黄浦区","上海市黄浦区富润路177弄",121.48284337313181,31.198472793352003,"2022-04-25"
"黄浦区","上海市黄浦区高家横弄11号",121.49158559252436,31.23724715206362,"2022-04-25"
"黄浦区","上海市黄浦区高家横弄15号",121.49158559252436,31.23724715206362,"2022-04-25"
"黄浦区","上海市黄浦区高家横弄18弄",121.47198797985759,31.216227432867615,"2022-04-25"
"黄浦区","上海市黄浦区高家弄37弄",121.49158559252436,31.23724715206362,"2022-04-25"
"黄浦区","上海市黄浦区高家弄45弄",121.49158559252436,31.23724715206362,"2022-04-25"
"黄浦区","上海市黄浦区高家弄66弄",121.48457854005488,31.235498236464565,"2022-04-25"
"黄浦区","上海市黄浦区高家弄74号",121.49158559252436,31.23724715206362,"2022-04-25"
"黄浦区","上海市黄浦区高家弄75号",121.49158559252436,31.23724715206362,"2022-04-25"
"黄浦区","上海市黄浦区牯岭路181号",121.47707122124689,31.24166410483167,"2022-04-25"
"黄浦区","上海市黄浦区光启路111号",121.50087721556682,31.22962600370282,"2022-04-25"
"黄浦区","上海市黄浦区光启路121号",121.50095446984069,31.22940645652096,"2022-04-25"
"黄浦区","上海市黄浦区光启路129号",121.50078774433803,31.229329722961083,"2022-04-25"
"黄浦区","上海市黄浦区光启路215号",121.50080651892318,31.22807796893098,"2022-04-25"
"黄浦区","上海市黄浦区光启南路154弄",121.50058050525688,31.2250675921171,"2022-04-25"
"黄浦区","上海市黄浦区光启南路94号",121.50101483597095,31.226163057793418,"2022-04-25"
"黄浦区","上海市黄浦区广东路131弄",121.49526478240158,31.239207763591953,"2022-04-25"
"黄浦区","上海市黄浦区广东路138号",121.49468869907803,31.239072374652263,"2022-04-25"
"黄浦区","上海市黄浦区广东路140号",121.49494884835373,31.23931497852545,"2022-04-25"
"黄浦区","上海市黄浦区广东路154号",121.49473226689527,31.23924836479793,"2022-04-25"
"黄浦区","上海市黄浦区广东路159号",121.49479541777262,31.23910965680287,"2022-04-25"
"黄浦区","上海市黄浦区广东路339号",121.49133801952581,31.238043829129953,"2022-04-25"
"黄浦区","上海市黄浦区广东路543号",121.48757789232216,31.237774668670987,"2022-04-25"
"黄浦区","上海市黄浦区广东路544号",121.48735637018339,31.237806779623895,"2022-04-25"
"黄浦区","上海市黄浦区广东路546号",121.48732933118752,31.23779419768933,"2022-04-25"
"黄浦区","上海市黄浦区广东路579号",121.4871184090538,31.23757358901568,"2022-04-25"
"黄浦区","上海市黄浦区广西北路228弄",121.48509955725068,31.239119228201453,"2022-04-25"
"黄浦区","上海市黄浦区广西北路433号",121.48324042416722,31.242279511521712,"2022-04-25"
"黄浦区","上海市黄浦区广西北路515号",121.48280501548653,31.243499198102377,"2022-04-25"
"黄浦区","上海市黄浦区贵州路107号",121.4827302764681,31.241861779490264,"2022-04-25"
"黄浦区","上海市黄浦区贵州路118号",121.48283690533214,31.242108544184507,"2022-04-25"
"黄浦区","上海市黄浦区贵州路131弄",121.4825359729863,31.24229487155161,"2022-04-25"
"黄浦区","上海市黄浦区贵州路136号",121.48270530357492,31.242374759103587,"2022-04-25"
"黄浦区","上海市黄浦区贵州路155号",121.4824879136415,31.24258200330435,"2022-04-25"
"黄浦区","上海市黄浦区贵州路157号",121.48247884075586,31.242613186377117,"2022-04-25"
"黄浦区","上海市黄浦区贵州路159号",121.48249887296873,31.242656178863864,"2022-04-25"
"黄浦区","上海市黄浦区贵州路161号",121.48245270006552,31.24269060371332,"2022-04-25"
"黄浦区","上海市黄浦区贵州路165号",121.482465006851,31.242778749794756,"2022-04-25"
"黄浦区","上海市黄浦区贵州路167号",121.48242548140857,31.242783149378084,"2022-04-25"
"黄浦区","上海市黄浦区贵州路171号",121.48240742546783,31.24284543819346,"2022-04-25"
"黄浦区","上海市黄浦区贵州路198弄",121.4825858289421,31.24344455105009,"2022-04-25"
"黄浦区","上海市黄浦区贵州路67号",121.48287499348577,31.241327879423363,"2022-04-25"
"黄浦区","上海市黄浦区国货路190号",121.5017121007078,31.21422947723392,"2022-04-25"
"黄浦区","上海市黄浦区国货路236号",121.50191969911116,31.214328570399072,"2022-04-25"
"黄浦区","上海市黄浦区国货路370号",121.49916253000939,31.214303400214256,"2022-04-25"
"黄浦区","上海市黄浦区国货路8号",121.5041924120514,31.213402056068396,"2022-04-25"
"黄浦区","上海市黄浦区海潮路222弄",121.50365558467864,31.213898746099275,"2022-04-25"
"黄浦区","上海市黄浦区海潮路230弄",121.50483703608535,31.215277852030805,"2022-04-25"
"黄浦区","上海市黄浦区海潮路240弄",121.50372691013612,31.213442050793024,"2022-04-25"
"黄浦区","上海市黄浦区海潮路93弄",121.50591203828914,31.214961528834515,"2022-04-25"
"黄浦区","上海市黄浦区海南西弄105号",121.50301239793349,31.216704651700574,"2022-04-25"
"黄浦区","上海市黄浦区海南西弄51弄",121.50368495926881,31.216586910667893,"2022-04-25"
"黄浦区","上海市黄浦区海南西弄64号",121.50316403190357,31.21651387254959,"2022-04-25"
"黄浦区","上海市黄浦区汉口路126号",121.49429263617867,31.24233161211539,"2022-04-25"
"黄浦区","上海市黄浦区汉口路271号",121.49173632818895,31.241488891098918,"2022-04-25"
"黄浦区","上海市黄浦区汉口路558号",121.486326103594,31.240046414202215,"2022-04-25"
"黄浦区","上海市黄浦区汉口路618号",121.48477104692567,31.2397655269062,"2022-04-25"
"黄浦区","上海市黄浦区汉口路678号",121.48426682804292,31.239647583321876,"2022-04-25"
"黄浦区","上海市黄浦区合肥路343号",121.48014755829637,31.219858589324573,"2022-04-25"
"黄浦区","上海市黄浦区合肥路349弄",121.47981087339123,31.219844846907478,"2022-04-25"
"黄浦区","上海市黄浦区合肥路381号",121.47908800694734,31.21906685295954,"2022-04-25"
"黄浦区","上海市黄浦区和顺街27号",121.50361985457697,31.226214086572597,"2022-04-25"
"黄浦区","上海市黄浦区和顺街45号",121.50331153366831,31.226227596456525,"2022-04-25"
"黄浦区","上海市黄浦区和顺街53弄",121.50322835057808,31.22633544386002,"2022-04-25"
"黄浦区","上海市黄浦区和顺街5号",121.50403718485927,31.226196176323462,"2022-04-25"
"黄浦区","上海市黄浦区河南南路1001弄",121.49979358963014,31.21950653575603,"2022-04-25"
"黄浦区","上海市黄浦区河南南路398弄",121.495698843624,31.228571801984344,"2022-04-25"
"黄浦区","上海市黄浦区河南南路555弄",121.49758088349796,31.226237323571752,"2022-04-25"
"黄浦区","上海市黄浦区河南南路582弄",121.49702815611768,31.226081535207985,"2022-04-25"
"黄浦区","上海市黄浦区河南南路600弄",121.49730555285915,31.22561733375389,"2022-04-25"
"黄浦区","上海市黄浦区河南南路612弄",121.49686358654824,31.22596704835115,"2022-04-25"
"黄浦区","上海市黄浦区河南南路703弄",121.49901996892494,31.222337827320732,"2022-04-25"
"黄浦区","上海市黄浦区河南南路790弄",121.49854009412151,31.222041137489935,"2022-04-25"
"黄浦区","上海市黄浦区河南中路166弄",121.49293673384192,31.239567539063756,"2022-04-25"
"黄浦区","上海市黄浦区河南中路192号",121.49274207103791,31.23997192782091,"2022-04-25"
"黄浦区","上海市黄浦区河南中路531弄",121.49025951393054,31.245360960873626,"2022-04-25"
"黄浦区","上海市黄浦区河南中路541弄",121.4903367682044,31.245362813278643,"2022-04-25"
"黄浦区","上海市黄浦区湖北路180号",121.48748168380203,31.239395717695903,"2022-04-25"
"黄浦区","上海市黄浦区淮海东路89弄",121.48837091642636,31.230855813500817,"2022-04-25"
"黄浦区","上海市黄浦区淮海中路526弄",121.4758250020129,31.227307454470328,"2022-04-25"
"黄浦区","上海市黄浦区淮海中路593弄",121.47422476057743,31.22635265928944,"2022-04-25"
"黄浦区","上海市黄浦区淮海中路622弄",121.4733404686334,31.22636624635258,"2022-04-25"
"黄浦区","上海市黄浦区淮海中路670弄",121.47227417999306,31.225899035526318,"2022-04-25"
"黄浦区","上海市黄浦区淮海中路697弄",121.47197423578328,31.224941446761353,"2022-04-25"
"黄浦区","上海市黄浦区淮海中路833弄",121.46898988521804,31.224196151207956,"2022-04-25"
"黄浦区","上海市黄浦区淮海中路927弄",121.46719695725068,31.22261969336921,"2022-04-25"
"黄浦区","上海市黄浦区黄陂南路574号",121.48305357662115,31.22209842193854,"2022-04-25"
"黄浦区","上海市黄浦区黄陂南路596弄",121.48299842066284,31.2218577034941,"2022-04-25"
"黄浦区","上海市黄浦区黄陂南路783号",121.48418822631079,31.218270940779707,"2022-04-25"
"黄浦区","上海市黄浦区黄陂南路847弄",121.48515336575072,31.216905930618072,"2022-04-25"
"黄浦区","上海市黄浦区黄河路107弄",121.47663239900527,31.240460526525432,"2022-04-25"
"黄浦区","上海市黄浦区黄河路125弄",121.47631799207679,31.241027544823773,"2022-04-25"
"黄浦区","上海市黄浦区黄河路132弄",121.47704292462332,31.241237030431375,"2022-04-25"
"黄浦区","上海市黄浦区黄河路215弄",121.4344569553118,31.2533728868238,"2022-04-25"
"黄浦区","上海市黄浦区黄河路217号",121.47617354455078,31.242513076326908,"2022-04-25"
"黄浦区","上海市黄浦区黄河路223弄",121.47603987669088,31.242534611188706,"2022-04-25"
"黄浦区","上海市黄浦区黄河路229号",121.47611928689798,31.24266011533831,"2022-04-25"
"黄浦区","上海市黄浦区黄河路231弄",121.47603511567169,31.242660501267174,"2022-04-25"
"黄浦区","上海市黄浦区黄河路253弄",121.47529419328706,31.242852770826993,"2022-04-25"
"黄浦区","上海市黄浦区黄河路275号",121.47572412230414,31.243207592417193,"2022-04-25"
"黄浦区","上海市黄浦区黄河路281弄",121.47563276463377,31.243446480678184,"2022-04-25"
"黄浦区","上海市黄浦区黄家路55弄",121.50334800487202,31.22150874557353,"2022-04-25"
"黄浦区","上海市黄浦区黄家路88弄",121.50359063719026,31.22123451932127,"2022-04-25"
"黄浦区","上海市黄浦区黄家阙路36号",121.4935556663383,31.22107656092955,"2022-04-25"
"黄浦区","上海市黄浦区黄家阙路68弄",121.49395002245718,31.220714861457605,"2022-04-25"
"黄浦区","上海市黄浦区黄家阙路72弄",121.49399359027441,31.220593342473972,"2022-04-25"
"黄浦区","上海市黄浦区黄家阙路76弄",121.49405377674357,31.2203405763063,"2022-04-25"
"黄浦区","上海市黄浦区黄家阙路99号",121.49434698366204,31.22051281868951,"2022-04-25"
"黄浦区","上海市黄浦区徽宁路359号",121.49651935587681,31.216100117482355,"2022-04-25"
"黄浦区","上海市黄浦区徽宁路4号",121.50229815522252,31.217236221666944,"2022-04-25"
"黄浦区","上海市黄浦区徽宁路501弄",121.49425248192239,31.215749285106345,"2022-04-25"
"黄浦区","上海市黄浦区徽宁路503号",121.49466219906549,31.215167212381704,"2022-04-25"
"黄浦区","上海市黄浦区徽宁路509号",121.49441642267796,31.215144281468078,"2022-04-25"
"黄浦区","上海市黄浦区徽宁路527弄",121.49434204298173,31.214897059611655,"2022-04-25"
"黄浦区","上海市黄浦区徽宁路6弄",121.49158559252436,31.23724715206362,"2022-04-25"
"黄浦区","上海市黄浦区会稽路38弄",121.48823877568583,31.22873345319458,"2022-04-25"
"黄浦区","上海市黄浦区火腿弄21号",121.49158559252436,31.23724715206362,"2022-04-25"
"黄浦区","上海市黄浦区建国东路111号",121.4855788930708,31.21891815555348,"2022-04-25"
"黄浦区","上海市黄浦区建国东路115弄",121.47743269938411,31.214314441124376,"2022-04-25"
"黄浦区","上海市黄浦区建国东路119号",121.48543821842793,31.21886951616378,"2022-04-25"
"黄浦区","上海市黄浦区建国东路143弄",121.48532709803635,31.21823318708983,"2022-04-25"
"黄浦区","上海市黄浦区建国东路187号",121.48429584331089,31.21846310605316,"2022-04-25"
"黄浦区","上海市黄浦区建国东路45号",121.48673716819535,31.219307964606568,"2022-04-25"
"黄浦区","上海市黄浦区建国东路61弄",121.48644240421402,31.219232432313035,"2022-04-25"
"黄浦区","上海市黄浦区建国东路63号",121.48642276126687,31.219231145561334,"2022-04-25"
"黄浦区","上海市黄浦区建国东路65号",121.48637047988619,31.219213928821944,"2022-04-25"
"黄浦区","上海市黄浦区建国东路75弄",121.48630256798964,31.219067547806674,"2022-04-25"
"黄浦区","上海市黄浦区建国东路87弄",121.48609393653494,31.219121552854524,"2022-04-25"
"黄浦区","上海市黄浦区建国西路135号",121.47062902328209,31.21320084682782,"2022-04-25"
"黄浦区","上海市黄浦区建国西路176号",121.46901611573892,31.212928449285194,"2022-04-25"
"黄浦区","上海市黄浦区建国西路178号",121.46898503436827,31.2129157095848,"2022-04-25"
"黄浦区","上海市黄浦区建国西路56弄",121.47164455766112,31.215209059354372,"2022-04-25"
"黄浦区","上海市黄浦区建国西路91弄",121.47809636749489,31.218166326734593,"2022-04-25"
"黄浦区","上海市黄浦区建国中路103弄",121.47583488337352,31.215426014761544,"2022-04-25"
"黄浦区","上海市黄浦区建国中路151号",121.47455623531062,31.215007159119903,"2022-04-25"
"黄浦区","上海市黄浦区建国中路153号",121.47443963525542,31.214968323193133,"2022-04-25"
"黄浦区","上海市黄浦区建国中路155弄",121.47445041492153,31.21479027995086,"2022-04-25"
"黄浦区","上海市黄浦区建国中路167号",121.47399030283933,31.214806725416317,"2022-04-25"
"黄浦区","上海市黄浦区江滨路99号",121.4799350192127,31.19785385522803,"2022-04-25"
"黄浦区","上海市黄浦区江西中路135弄",121.49403509198896,31.239906240817817,"2022-04-25"
"黄浦区","上海市黄浦区江西中路141号",121.49407623438132,31.239927776279842,"2022-04-25"
"黄浦区","上海市黄浦区江西中路147号",121.4939873919664,31.2400644761759,"2022-04-25"
"黄浦区","上海市黄浦区江西中路24弄",121.49505628569273,31.23835189224358,"2022-04-25"
"黄浦区","上海市黄浦区江西中路304号",121.49311001697481,31.2440498348388,"2022-04-25"
"黄浦区","上海市黄浦区江西中路34弄",121.49485066356148,31.238477093249102,"2022-04-25"
"黄浦区","上海市黄浦区江西中路412弄",121.49218557077448,31.246727331150872,"2022-04-25"
"黄浦区","上海市黄浦区江西中路44弄",121.49473334486187,31.238583382750505,"2022-04-25"
"黄浦区","上海市黄浦区江西中路451号",121.4916062535511,31.24738391965078,"2022-04-25"
"黄浦区","上海市黄浦区江西中路452号",121.4919360215038,31.247525857007712,"2022-04-25"
"黄浦区","上海市黄浦区江西中路460弄",121.49170039596855,31.247648653100814,"2022-04-25"
"黄浦区","上海市黄浦区江西中路469弄",121.4914625246695,31.247800778018277,"2022-04-25"
"黄浦区","上海市黄浦区江西中路473号",121.4914681839942,31.24781636868584,"2022-04-25"
"黄浦区","上海市黄浦区江西中路481号",121.49141105176378,31.248127178134823,"2022-04-25"
"黄浦区","上海市黄浦区江阴街18号",121.50135214968995,31.219733440609016,"2022-04-25"
"黄浦区","上海市黄浦区江阴街308弄",121.49679935770428,31.218984938166418,"2022-04-25"
"黄浦区","上海市黄浦区江阴街310号",121.49672398987198,31.21916621604781,"2022-04-25"
"黄浦区","上海市黄浦区江阴街355弄",121.49764565132523,31.21954760874058,"2022-04-25"
"黄浦区","上海市黄浦区江阴街401弄",121.49466606177917,31.21858223442759,"2022-04-25"
"黄浦区","上海市黄浦区江阴街406号",121.49472993130095,31.21810417589966,"2022-04-25"
"黄浦区","上海市黄浦区江阴街472号",121.49367648842939,31.21845106195762,"2022-04-25"
"黄浦区","上海市黄浦区江阴路120号",121.47482312187762,31.235609006463218,"2022-04-25"
"黄浦区","上海市黄浦区江阴路156号",121.47417885716587,31.23544296720365,"2022-04-25"
"黄浦区","上海市黄浦区江阴路72号",121.475855993553,31.235904881363577,"2022-04-25"
"黄浦区","上海市黄浦区江阴路88弄",121.47555173747676,31.235860033180316,"2022-04-25"
"黄浦区","上海市黄浦区金陵东路59号",121.4978543276952,31.237064905731295,"2022-04-25"
"黄浦区","上海市黄浦区金陵东路63号",121.49771877339374,31.23702291414992,"2022-04-25"
"黄浦区","上海市黄浦区金陵东路67号",121.49757576315655,31.23695730226629,"2022-04-25"
"黄浦区","上海市黄浦区金陵东路69号",121.4974634749678,31.23695737945677,"2022-04-25"
"黄浦区","上海市黄浦区金坛路17号",121.50484574964881,31.2247220429897,"2022-04-25"
"黄浦区","上海市黄浦区金坛路35弄",121.50458335460934,31.2247265978234,"2022-04-25"
"黄浦区","上海市黄浦区进贤路122弄",121.46628903987174,31.227982552395765,"2022-04-25"
"黄浦区","上海市黄浦区进贤路138弄",121.46617046354442,31.227847456002312,"2022-04-25"
"黄浦区","上海市黄浦区进贤路154号",121.46581491422356,31.227802217966403,"2022-04-25"
"黄浦区","上海市黄浦区静修路104弄",121.49324548144571,31.225768104909392,"2022-04-25"
"黄浦区","上海市黄浦区静修路114弄",121.49302979829275,31.2257417798045,"2022-04-25"
"黄浦区","上海市黄浦区静修路126弄",121.48653334267514,31.22551241911987,"2022-04-25"
"黄浦区","上海市黄浦区静修路80号",121.49389127327682,31.225508173124112,"2022-04-25"
"黄浦区","上海市黄浦区九江路202号",121.49273820832421,31.242706735533037,"2022-04-25"
"黄浦区","上海市黄浦区九江路210号",121.49264496421227,31.242806845375934,"2022-04-25"
"黄浦区","上海市黄浦区九江路218弄",121.49263508285166,31.24293589969533,"2022-04-25"
"黄浦区","上海市黄浦区九江路558号",121.48656690475102,31.24101879892898,"2022-04-25"
"黄浦区","上海市黄浦区九江路619号",121.4851466284594,31.240162350399974,"2022-04-25"
"黄浦区","上海市黄浦区九江路700号",121.48354485990455,31.24033216347948,"2022-04-25"
"黄浦区","上海市黄浦区局门后路15号",121.48711095311806,31.214735230085406,"2022-04-25"
"黄浦区","上海市黄浦区局门后路1号",121.48719647180262,31.21540177137089,"2022-04-25"
"黄浦区","上海市黄浦区局门后路3号",121.48678037669039,31.215416209314483,"2022-04-25"
"黄浦区","上海市黄浦区局门后路7号",121.48689077843757,31.215189525622222,"2022-04-25"
"黄浦区","上海市黄浦区局门后路9号",121.48719296841112,31.215033178409747,"2022-04-25"
"黄浦区","上海市黄浦区局门路162号",121.48709352599116,31.212692339889678,"2022-04-25"
"黄浦区","上海市黄浦区局门路165号",121.4871134683735,31.213170426053132,"2022-04-25"
"黄浦区","上海市黄浦区局门路1弄",121.49158559252436,31.23724715206362,"2022-04-25"
"黄浦区","上海市黄浦区局门路221号",121.48738251087374,31.21235361683613,"2022-04-25"
"黄浦区","上海市黄浦区局门路241弄",121.48761041098162,31.212027091902875,"2022-04-25"
"黄浦区","上海市黄浦区局门路295弄",121.48918909308485,31.210922426988578,"2022-04-25"
"黄浦区","上海市黄浦区局门路434弄",121.48772763985068,31.208410534000432,"2022-04-25"
"黄浦区","上海市黄浦区局门路573弄",121.48943756438891,31.206887629392675,"2022-04-25"
"黄浦区","上海市黄浦区局门路599弄",121.48965782889995,31.206398855387498,"2022-04-25"
"黄浦区","上海市黄浦区局门路699号",121.48991601701138,31.20586034463847,"2022-04-25"
"黄浦区","上海市黄浦区巨鹿路1号",121.47590477154219,31.229506657795152,"2022-04-25"
"黄浦区","上海市黄浦区巨鹿路260弄",121.46855097314585,31.229130863865187,"2022-04-25"
"黄浦区","上海市黄浦区巨鹿路367号",121.46612500928562,31.228929842827828,"2022-04-25"
"黄浦区","上海市黄浦区巨鹿路383弄",121.46518663934988,31.228627306896506,"2022-04-25"
"黄浦区","上海市黄浦区巨鹿路385号",121.46621726526149,31.228913477040813,"2022-04-25"
"黄浦区","上海市黄浦区巨鹿路391弄",121.46500832570615,31.228665210788414,"2022-04-25"
"黄浦区","上海市黄浦区聚奎新村",121.50270850117947,31.22949600466016,"2022-04-25"
"黄浦区","上海市黄浦区老道前街16弄",121.49371233081925,31.223986897644714,"2022-04-25"
"黄浦区","上海市黄浦区老道前街20号",121.49374565795367,31.22393196898934,"2022-04-25"
"黄浦区","上海市黄浦区老道前街22号",121.49376299525001,31.223901937708046,"2022-04-25"
"黄浦区","上海市黄浦区老道前街28号",121.49377629017155,31.223763129758268,"2022-04-25"
"黄浦区","上海市黄浦区老道前街62号",121.49400949028194,31.22325359936795,"2022-04-25"
"黄浦区","上海市黄浦区老道前街68弄",121.49419660731967,31.223279075953357,"2022-04-25"
"黄浦区","上海市黄浦区丽园路1032弄",121.47854025946738,31.21134075647708,"2022-04-25"
"黄浦区","上海市黄浦区丽园路17号",121.49655474911391,31.21683876048658,"2022-04-25"
"黄浦区","上海市黄浦区丽园路25号",121.49642503379827,31.216835826617668,"2022-04-25"
"黄浦区","上海市黄浦区丽园路333弄",121.49070920566882,31.21505942931798,"2022-04-25"
"黄浦区","上海市黄浦区丽园路41号",121.49615437434811,31.21670380242153,"2022-04-25"
"黄浦区","上海市黄浦区丽园路43弄",121.49571860634522,31.21691365131976,"2022-04-25"
"黄浦区","上海市黄浦区丽园路45弄",121.49574663347714,31.216842312011984,"2022-04-25"
"黄浦区","上海市黄浦区丽园路488弄",121.48928602024937,31.21314185831155,"2022-04-25"
"黄浦区","上海市黄浦区丽园路502号",121.48857087923288,31.213633685510622,"2022-04-25"
"黄浦区","上海市黄浦区丽园路546号",121.48793281282914,31.213185327601355,"2022-04-25"
"黄浦区","上海市黄浦区丽园路570号",121.48742248546893,31.21294636207311,"2022-04-25"
"黄浦区","上海市黄浦区丽园路574弄",121.48735825662496,31.212948369540506,"2022-04-25"
"黄浦区","上海市黄浦区丽园路68弄",121.49532398073468,31.21622256878999,"2022-04-25"
"黄浦区","上海市黄浦区丽园路694弄",121.48638566124932,31.21239708649189,"2022-04-25"
"黄浦区","上海市黄浦区丽园路710弄",121.48600639666299,31.212344042699645,"2022-04-25"
"黄浦区","上海市黄浦区丽园路842弄",121.483621395534,31.211378208045655,"2022-04-25"
"黄浦区","上海市黄浦区丽园路866弄",121.48215949314707,31.212257643794672,"2022-04-25"
"黄浦区","上海市黄浦区丽园路881号",121.48205403208019,31.21255984658679,"2022-04-25"
"黄浦区","上海市黄浦区丽园路881弄",121.43865401831553,31.223335278820255,"2022-04-25"
"黄浦区","上海市黄浦区丽园路883号",121.48180780653992,31.21263396873738,"2022-04-25"
"黄浦区","上海市黄浦区丽园路885号",121.48191407608175,31.212574671021603,"2022-04-25"
"黄浦区","上海市黄浦区丽园路887号",121.48149061486434,31.21255799353228,"2022-04-25"
"黄浦区","上海市黄浦区林荫路260弄",121.48654618844394,31.209148542748196,"2022-04-25"
"黄浦区","上海市黄浦区灵济街46号",121.5018838567213,31.226975577786867,"2022-04-25"
"黄浦区","上海市黄浦区柳江街24弄",121.49607927600748,31.225101483037438,"2022-04-25"
"黄浦区","上海市黄浦区龙华东路18号",121.49963701497975,31.201629893324135,"2022-04-25"
"黄浦区","上海市黄浦区龙华东路39号",121.49292209146212,31.202759532271777,"2022-04-25"
"黄浦区","上海市黄浦区龙华东路72号",121.49311248323174,31.201493916502013,"2022-04-25"
"黄浦区","上海市黄浦区龙华东路888弄",121.47773012833846,31.19906060703334,"2022-04-25"
"黄浦区","上海市黄浦区龙华东路98号",121.48764071382082,31.20122937148072,"2022-04-25"
"黄浦区","上海市黄浦区鲁班路168号",121.47947338001113,31.211918301479507,"2022-04-25"
"黄浦区","上海市黄浦区鲁班路168弄",121.48069247041873,31.2107777316744,"2022-04-25"
"黄浦区","上海市黄浦区鲁班路299弄",121.4816728810523,31.210145208230895,"2022-04-25"
"黄浦区","上海市黄浦区鲁班路400弄",121.4821266151654,31.2064886571851,"2022-04-25"
"黄浦区","上海市黄浦区鲁班路509弄",121.48325407841098,31.206749413937416,"2022-04-25"
"黄浦区","上海市黄浦区鲁班路738弄",121.4849409164976,31.19988803425617,"2022-04-25"
"黄浦区","上海市黄浦区鲁班路88弄",121.47993304294059,31.212396777648934,"2022-04-25"
"黄浦区","上海市黄浦区陆家浜路1018弄",121.49590168100816,31.21767792042789,"2022-04-25"
"黄浦区","上海市黄浦区陆家浜路1034弄",121.4960365166652,31.21713616166859,"2022-04-25"
"黄浦区","上海市黄浦区陆家浜路1060弄",121.49486800085782,31.217355119982727,"2022-04-25"
"黄浦区","上海市黄浦区陆家浜路1088号",121.49459024479414,31.21760364785768,"2022-04-25"
"黄浦区","上海市黄浦区陆家浜路1300号",121.49057401068958,31.21716588629347,"2022-04-25"
"黄浦区","上海市黄浦区陆家浜路1382弄",121.49013635624512,31.21632270697232,"2022-04-25"
"黄浦区","上海市黄浦区陆家浜路1398号",121.48872637591666,31.216892419388596,"2022-04-25"
"黄浦区","上海市黄浦区陆家浜路305弄",121.50738552881717,31.21716202595311,"2022-04-25"
"黄浦区","上海市黄浦区陆家浜路413弄",121.50586370945271,31.217303468719948,"2022-04-25"
"黄浦区","上海市黄浦区陆家浜路468弄",121.50449810541643,31.21610714338139,"2022-04-25"
"黄浦区","上海市黄浦区陆家浜路688弄",121.50167895323447,31.218053065492683,"2022-04-25"
"黄浦区","上海市黄浦区陆家浜路842弄",121.49898403670454,31.2180609405119,"2022-04-25"
"黄浦区","上海市黄浦区马当路278弄",121.48038956180075,31.223680369859316,"2022-04-25"
"黄浦区","上海市黄浦区马当路290号",121.48118806556857,31.22354596206898,"2022-04-25"
"黄浦区","上海市黄浦区马当路296号",121.48118303505773,31.223433865361013,"2022-04-25"
"黄浦区","上海市黄浦区马当路306弄",121.48012563964191,31.223088619009204,"2022-04-25"
"黄浦区","上海市黄浦区马当路314号",121.48126810458952,31.223104445401567,"2022-04-25"
"黄浦区","上海市黄浦区马当路318弄",121.48114997741496,31.223044305096334,"2022-04-25"
"黄浦区","上海市黄浦区马当路357弄",121.48227007455534,31.219236318303054,"2022-04-25"
"黄浦区","上海市黄浦区马当路588弄",121.48231777457792,31.216113783241536,"2022-04-25"
"黄浦区","上海市黄浦区马当路590号",121.48247066617571,31.21631205233658,"2022-04-25"
"黄浦区","上海市黄浦区茂名南路131弄",121.46806696613709,31.22351484984188,"2022-04-25"
"黄浦区","上海市黄浦区茂名南路133弄",121.46806696613709,31.22351484984188,"2022-04-25"
"黄浦区","上海市黄浦区茂名南路159弄",121.46856965790046,31.222069084893775,"2022-04-25"
"黄浦区","上海市黄浦区茂名南路169弄",121.46913352426908,31.221248493144664,"2022-04-25"
"黄浦区","上海市黄浦区茂名南路96号",121.4680093847539,31.222437881758868,"2022-04-25"
"黄浦区","上海市黄浦区蒙自路345弄",121.48562317953244,31.210186208109956,"2022-04-25"
"黄浦区","上海市黄浦区蒙自路395弄",121.48617231369069,31.208556854464472,"2022-04-25"
"黄浦区","上海市黄浦区蒙自路430弄",121.48547495912328,31.208973885836073,"2022-04-25"
"黄浦区","上海市黄浦区蒙自路490弄",121.48548061844801,31.20723285827842,"2022-04-25"
"黄浦区","上海市黄浦区蒙自路601弄",121.48752812619689,31.205122548647797,"2022-04-25"
"黄浦区","上海市黄浦区蒙自西路72弄",121.48209804905018,31.2132159800014,"2022-04-25"
