"district","address","lng","lat","date"
"浦东新区","上海市浦东新区北艾路1200弄",121.538886767458,31.1884818678728,2022-05-06
"浦东新区","上海市浦东新区北艾路155弄",121.5498820269,31.1925399313686,2022-05-06
"浦东新区","上海市浦东新区北艾路1765弄",121.528398601476,31.1842654537065,2022-05-06
"浦东新区","上海市浦东新区北蔡镇北蔡村丁家宅",121.569857916017,31.1921842226328,2022-05-06
"浦东新区","上海市浦东新区北蔡镇南新村赵家厍",121.543435157746,31.1767913831306,2022-05-06
"浦东新区","上海市浦东新区北蔡镇卫行村顾家队张家宅",121.584959240115,31.1722250698694,2022-05-06
"浦东新区","上海市浦东新区北蔡镇卫行村沈家队沈家宅",121.587201410668,31.1666652020159,2022-05-06
"浦东新区","上海市浦东新区北蔡镇卫行村张浜队杨家宅",121.587201410668,31.1666652020159,2022-05-06
"浦东新区","上海市浦东新区北蔡镇五星村陈家队陈家宅",121.578579474383,31.194413133383,2022-05-06
"浦东新区","上海市浦东新区北蔡镇杨桥村西计队金家宅",121.570644651983,31.1909809347657,2022-05-06
"浦东新区","上海市浦东新区北蔡镇杨桥村西计队西计家宅",121.570644651983,31.1909809347657,2022-05-06
"浦东新区","上海市浦东新区北蔡镇中界村陈家队陈家宅",121.578579474383,31.194413133383,2022-05-06
"浦东新区","上海市浦东新区北蔡镇中界村庄家队蔡家宅",121.578579474383,31.194413133383,2022-05-06
"浦东新区","上海市浦东新区博兴路1663弄",121.60720101505,31.2807760939525,2022-05-06
"浦东新区","上海市浦东新区博兴路916弄",121.597995000523,31.2704201787296,2022-05-06
"浦东新区","上海市浦东新区曹路镇联合村路北宅",121.691927573801,31.2750515326103,2022-05-06
"浦东新区","上海市浦东新区曹路镇联合村西柴场",121.67746314831,31.3033290423911,2022-05-06
"浦东新区","上海市浦东新区曹路镇民建村曹家宅",121.653580977683,31.2733973056005,2022-05-06
"浦东新区","上海市浦东新区长岛路1203弄",121.60099758669,31.2700940107856,2022-05-06
"浦东新区","上海市浦东新区长岛路588弄",121.588731943595,31.266885513111,2022-05-06
"浦东新区","上海市浦东新区长清路693弄",121.536884264815,31.1897022555378,2022-05-06
"浦东新区","上海市浦东新区昌里东路650弄",121.521399004942,31.1835358991941,2022-05-06
"浦东新区","上海市浦东新区昌里路167弄",121.504545446117,31.1810916262197,2022-05-06
"浦东新区","上海市浦东新区昌里路340弄",121.500968393576,31.1782390828587,2022-05-06
"浦东新区","上海市浦东新区陈春路620弄",121.552907609688,31.1780781941088,2022-05-06
"浦东新区","上海市浦东新区成山路1728弄",121.535534201464,31.1818249843163,2022-05-06
"浦东新区","上海市浦东新区成山路24弄",121.492308997952,31.1741468770644,2022-05-06
"浦东新区","上海市浦东新区城南路627弄",121.70162621907,31.1955905841654,2022-05-06
"浦东新区","上海市浦东新区川沙路1666弄",121.67243200864,31.2858133621136,2022-05-06
"浦东新区","上海市浦东新区川沙路2373号",121.692421282509,31.2445374088444,2022-05-06
"浦东新区","上海市浦东新区川沙路326弄",121.672769322359,31.2863483196138,2022-05-06
"浦东新区","上海市浦东新区川沙路389弄",121.675454896512,31.2852923658015,2022-05-06
"浦东新区","上海市浦东新区川沙新镇药师村",121.688302012763,31.209451836559,2022-05-06
"浦东新区","上海市浦东新区川周公路4318弄",121.587429400606,31.1268947718151,2022-05-06
"浦东新区","上海市浦东新区创新西路28弄",121.664299379367,31.210286275536,2022-05-06
"浦东新区","上海市浦东新区创新西路300弄",121.659610224605,31.2094711398488,2022-05-06
"浦东新区","上海市浦东新区创新西路76号",121.663364602653,31.2098184439579,2022-05-06
"浦东新区","上海市浦东新区德平路100弄",121.568682662918,31.2539399811791,2022-05-06
"浦东新区","上海市浦东新区丁香路1599弄",121.572306876498,31.2338622988355,2022-05-06
"浦东新区","上海市浦东新区丁香路910弄",121.560392021706,31.2312404779508,2022-05-06
"浦东新区","上海市浦东新区丁香路999弄",121.560513831933,31.2333260373034,2022-05-06
"浦东新区","上海市浦东新区东建路228弄",121.538810411489,31.206686097292,2022-05-06
"浦东新区","上海市浦东新区东建新村",121.526861421087,31.2227134169234,2022-05-06
"浦东新区","上海市浦东新区东靖路51弄",121.5896261169,31.2815848989426,2022-05-06
"浦东新区","上海市浦东新区东康名苑",121.63093855849,31.1483921616878,2022-05-06
"浦东新区","上海市浦东新区东陆路1018弄",121.599020955246,31.2779119282265,2022-05-06
"浦东新区","上海市浦东新区东三街15弄",121.513798352192,31.2069744193285,2022-05-06
"浦东新区","上海市浦东新区东书房路390弄",121.541617795869,31.1696664870587,2022-05-06
"浦东新区","上海市浦东新区繁荣东路150弄",121.59321448809,31.1120169709024,2022-05-06
"浦东新区","上海市浦东新区芳华路188弄",121.536884264815,31.1897022555378,2022-05-06
"浦东新区","上海市浦东新区芳华路229弄",121.560810542243,31.2025519682178,2022-05-06
"浦东新区","上海市浦东新区芳华路310弄",121.564018211558,31.2013345278281,2022-05-06
"浦东新区","上海市浦东新区芳华路411弄",121.565570303818,31.2023994608537,2022-05-06
"浦东新区","上海市浦东新区芳华路478弄",121.536884264815,31.1897022555378,2022-05-06
"浦东新区","上海市浦东新区芳华路503弄",121.536884264815,31.1897022555378,2022-05-06
"浦东新区","上海市浦东新区芳华路63号",121.558171590146,31.200731052684,2022-05-06
"浦东新区","上海市浦东新区芳芯路210弄",121.562195280186,31.1977535428501,2022-05-06
"浦东新区","上海市浦东新区芳芯路251弄",121.563004024637,31.1984666927966,2022-05-06
"浦东新区","上海市浦东新区芳芯路312弄",121.564077499721,31.1971826328678,2022-05-06
"浦东新区","上海市浦东新区福山路40弄",121.530906490799,31.242456421864,2022-05-06
"浦东新区","上海市浦东新区高东镇先锋村卢家宅",121.591521541526,31.2903783011154,2022-05-06
"浦东新区","上海市浦东新区高科西路3030弄",121.569848753301,31.1958928407386,2022-05-06
"浦东新区","上海市浦东新区高桥镇南塘村顾家宅",121.5746809183,31.345394276907,2022-05-06
"浦东新区","上海市浦东新区高桥镇三岔港村三岔港",121.514471272849,31.3715312688423,2022-05-06
"浦东新区","上海市浦东新区高桥镇西浜头",121.615635834297,31.2925041992064,2022-05-06
"浦东新区","上海市浦东新区高桥镇西新村尖角圩",121.523275744814,31.3619537605392,2022-05-06
"浦东新区","上海市浦东新区高桥镇新农村沈家宅",121.558501268268,31.3625522632348,2022-05-06
"浦东新区","上海市浦东新区高桥镇中新村",121.548516782186,31.3577369980232,2022-05-06
"浦东新区","上海市浦东新区崮山路717号",121.566756426413,31.2457458744099,2022-05-06
"浦东新区","上海市浦东新区海纳路129弄",121.67672465135,31.2983650765524,2022-05-06
"浦东新区","上海市浦东新区海鹏路301弄",121.680730914264,31.2953639830489,2022-05-06
"浦东新区","上海市浦东新区海鹏路380弄",121.676483635982,31.2939871381692,2022-05-06
"浦东新区","上海市浦东新区海容路99弄",121.680835027872,31.2869618891018,2022-05-06
"浦东新区","上海市浦东新区海松路398弄",121.687490753057,31.2839344288311,2022-05-06
"浦东新区","上海市浦东新区海松路421弄",121.687246593619,31.2860583134694,2022-05-06
"浦东新区","上海市浦东新区海阳路1318弄",121.519825173689,31.1647673435087,2022-05-06
"浦东新区","上海市浦东新区航三路航吉路交界口工地生活区",121.614290352304,31.045793267667,2022-05-06
"浦东新区","上海市浦东新区航头镇梅园村",121.591231748169,31.06555502677,2022-05-06
"浦东新区","上海市浦东新区航头镇沈庄村",121.589114801404,31.0850414945296,2022-05-06
"浦东新区","上海市浦东新区合庆镇勤奋村卫家宅",121.732101682649,31.2614765761563,2022-05-06
"浦东新区","上海市浦东新区合庆镇庆星村顾家宅",121.725707094876,31.2404364439951,2022-05-06
"浦东新区","上海市浦东新区合庆镇庆星村薛家宅",121.720667690796,31.2414183423931,2022-05-06
"浦东新区","上海市浦东新区合庆镇营房村青晏二宅",121.740505510356,31.2144043125402,2022-05-06
"浦东新区","上海市浦东新区和佳路105弄",121.520302084084,31.1332973749386,2022-05-06
"浦东新区","上海市浦东新区和炯路77弄",121.525530311983,31.1391594184198,2022-05-06
"浦东新区","上海市浦东新区和龙路55弄",121.579757871748,31.3449552012399,2022-05-06
"浦东新区","上海市浦东新区鹤洁路138弄",121.6042452306,31.0753084303108,2022-05-06
"浦东新区","上海市浦东新区鹤永路750弄",121.609967885851,31.0777774939509,2022-05-06
"浦东新区","上海市浦东新区沪南路3158弄",121.572008728899,31.1277255406032,2022-05-06
"浦东新区","上海市浦东新区花山路300弄",121.575701662851,31.3522273211378,2022-05-06
"浦东新区","上海市浦东新区花园石桥路28弄",121.507534108549,31.2391866139073,2022-05-06
"浦东新区","上海市浦东新区华夏东路3179号",121.722268830537,31.2101764793267,2022-05-06
"浦东新区","上海市浦东新区华夏二路1255弄",121.69800191566,31.1828119771678,2022-05-06
"浦东新区","上海市浦东新区环林西路777弄",121.532913844291,31.1465822474585,2022-05-06
"浦东新区","上海市浦东新区惠南镇黄路村富强",121.772434252589,31.035656061793,2022-05-06
"浦东新区","上海市浦东新区金口路471弄",121.58930820658,31.2526068254862,2022-05-06
"浦东新区","上海市浦东新区金桥路1506弄",121.596460784542,31.2555643772158,2022-05-06
"浦东新区","上海市浦东新区金杨路660弄",121.588399929879,31.2575016841727,2022-05-06
"浦东新区","上海市浦东新区金杨路750弄",121.589772181376,31.2586101980446,2022-05-06
"浦东新区","上海市浦东新区金杨路785弄",121.589437562574,31.2596987884712,2022-05-06
"浦东新区","上海市浦东新区锦绣路888弄",121.55980578753,31.2288054010169,2022-05-06
"浦东新区","上海市浦东新区锦尊路306号",121.536847973272,31.188715953082,2022-05-06
"浦东新区","上海市浦东新区京浦路160弄",121.574694572544,31.1599125196442,2022-05-06
"浦东新区","上海市浦东新区居家桥路151弄",121.56804217109,31.2667841172325,2022-05-06
"浦东新区","上海市浦东新区康桥路90弄",121.584859707864,31.1200779398788,2022-05-06
"浦东新区","上海市浦东新区康桥镇叠桥村",121.622828746177,31.1338499732159,2022-05-06
"浦东新区","上海市浦东新区康桥镇花墙村",121.55274169266,31.1563281752622,2022-05-06
"浦东新区","上海市浦东新区康桥镇火箭村",121.614989413652,31.1451293459159,2022-05-06
"浦东新区","上海市浦东新区康桥镇太平村",121.560021740174,31.1293839649748,2022-05-06
"浦东新区","上海市浦东新区康杉路359弄",121.536884264815,31.1897022555378,2022-05-06
"浦东新区","上海市浦东新区康沈路1199弄",121.584859707864,31.1200779398788,2022-05-06
"浦东新区","上海市浦东新区康沈路1646弄",121.583436702106,31.1218754582956,2022-05-06
"浦东新区","上海市浦东新区康沈路250弄",121.584859707864,31.1200779398788,2022-05-06
"浦东新区","上海市浦东新区康沈路726弄",121.584859707864,31.1200779398788,2022-05-06
"浦东新区","上海市浦东新区莱阳路111弄",121.589537813468,31.332463488478,2022-05-06
"浦东新区","上海市浦东新区蓝桉路455弄",121.593934030804,31.2400958916517,2022-05-06
"浦东新区","上海市浦东新区崂山三村",121.526396817478,31.2389325085635,2022-05-06
"浦东新区","上海市浦东新区崂山四村",121.524541996261,31.2411728108698,2022-05-06
"浦东新区","上海市浦东新区老港镇牛肚村",121.835494131592,31.0588987083613,2022-05-06
"浦东新区","上海市浦东新区历城路100弄",121.4979155023,31.1798977733905,2022-05-06
"浦东新区","上海市浦东新区历城路25号",121.499164955434,31.1828558467082,2022-05-06
"浦东新区","上海市浦东新区丽正路1059弄",121.870629195682,30.9856193034231,2022-05-06
"浦东新区","上海市浦东新区莲安西路185弄",121.557578259357,31.1859559346542,2022-05-06
"浦东新区","上海市浦东新区林展路278弄",121.512901034818,31.1328058217041,2022-05-06
"浦东新区","上海市浦东新区林展路422弄",121.516191887223,31.149587574481,2022-05-06
"浦东新区","上海市浦东新区临沂北路210弄",121.525542798429,31.2106243111584,2022-05-06
"浦东新区","上海市浦东新区临沂路181弄",121.520668143579,31.1975792508032,2022-05-06
"浦东新区","上海市浦东新区灵山路2011弄",121.580017841165,31.2495250746587,2022-05-06
"浦东新区","上海市浦东新区灵岩南路351弄",121.503240208211,31.1601352426206,2022-05-06
"浦东新区","上海市浦东新区灵岩南路801弄",121.50452478509,31.1533289357887,2022-05-06
"浦东新区","上海市浦东新区凌河路420弄",121.605932248348,31.2799170540613,2022-05-06
"浦东新区","上海市浦东新区凌兆路379弄",121.525530311983,31.1391594184198,2022-05-06
"浦东新区","上海市浦东新区龙居路180弄",121.568971737631,31.2585512381558,2022-05-06
"浦东新区","上海市浦东新区龙阳路1880弄",121.559292495761,31.2066989150554,2022-05-06
"浦东新区","上海市浦东新区罗山路108弄",121.558879454888,31.2546415897529,2022-05-06
"浦东新区","上海市浦东新区罗山路1502弄",121.575171482939,31.2348882658017,2022-05-06
"浦东新区","上海市浦东新区绿林路320弄",121.554834744499,31.1761626467343,2022-05-06
"浦东新区","上海市浦东新区苗桥路935弄",121.602516621307,31.104273708865,2022-05-06
"浦东新区","上海市浦东新区妙境北路116弄",121.69707926607,31.2076736776561,2022-05-06
"浦东新区","上海市浦东新区妙境北路451号",121.692776652169,31.2136740661847,2022-05-06
"浦东新区","上海市浦东新区妙栏路353弄",121.696058341858,31.1925650301754,2022-05-06
"浦东新区","上海市浦东新区民雪路918弄",121.665106057715,31.2764061266504,2022-05-06
"浦东新区","上海市浦东新区明月路888弄",121.595603980747,31.2425211036595,2022-05-06
"浦东新区","上海市浦东新区南码头路1136弄",121.519727887202,31.1898749404218,2022-05-06
"浦东新区","上海市浦东新区南码头路1521弄",121.525396464462,31.1828675092058,2022-05-06
"浦东新区","上海市浦东新区南码头路1675弄",121.520848882648,31.1809040184718,2022-05-06
"浦东新区","上海市浦东新区南码头路450弄",121.516319536436,31.2003681163043,2022-05-06
"浦东新区","上海市浦东新区南泉北路101弄",121.522040215415,31.244123854865,2022-05-06
"浦东新区","上海市浦东新区南泉路1320弄",121.526560398911,31.2157341523422,2022-05-06
"浦东新区","上海市浦东新区浦电路108弄",121.526721914242,31.2244347020154,2022-05-06
"浦东新区","上海市浦东新区浦电路221号",121.530044566662,31.2249883073877,2022-05-06
"浦东新区","上海市浦东新区浦电路307号",121.532363272844,31.2256313069229,2022-05-06
"浦东新区","上海市浦东新区浦电路311号",121.533171747803,31.2257702665013,2022-05-06
"浦东新区","上海市浦东新区浦电路62弄",121.524943538824,31.2243655300639,2022-05-06
"浦东新区","上海市浦东新区浦东大道136弄",121.520173536566,31.2440242095398,2022-05-06
"浦东新区","上海市浦东新区浦东大道140弄",121.521669035579,31.2440488314387,2022-05-06
"浦东新区","上海市浦东新区浦东大道2639弄",121.573829414507,31.2700964028423,2022-05-06
"浦东新区","上海市浦东新区浦东大道2641弄",121.575420313565,31.2714724426133,2022-05-06
"浦东新区","上海市浦东新区浦东大道2742弄",121.577979316472,31.2729270889842,2022-05-06
"浦东新区","上海市浦东新区浦东大道2920弄",121.583602619133,31.2809363432894,2022-05-06
"浦东新区","上海市浦东新区浦东南路1299号",121.52421420458,31.2307668070321,2022-05-06
"浦东新区","上海市浦东新区浦东南路2108号",121.522886149714,31.2157862677185,2022-05-06
"浦东新区","上海市浦东新区浦东南路2351弄",121.519461719279,31.2055986658343,2022-05-06
"浦东新区","上海市浦东新区浦东南路3606弄",121.51135909341,31.196098875064,2022-05-06
"浦东新区","上海市浦东新区浦建路60弄",121.524453692829,31.2131592305879,2022-05-06
"浦东新区","上海市浦东新区栖霞路190弄",121.526081152921,31.2441861427874,2022-05-06
"浦东新区","上海市浦东新区钱仓路313弄",121.527825482561,31.2452163188024,2022-05-06
"浦东新区","上海市浦东新区清溪路365弄",121.578081633469,31.347103664356,2022-05-06
"浦东新区","上海市浦东新区乳山路313弄",121.526396817478,31.2389325085635,2022-05-06
"浦东新区","上海市浦东新区瑞意路399弄",121.59268628445,31.1027918607619,2022-05-06
"浦东新区","上海市浦东新区三彩路52弄",121.525530311983,31.1391594184198,2022-05-06
"浦东新区","上海市浦东新区三航路2号工地生活区",121.494375459947,31.1380722081932,2022-05-06
"浦东新区","上海市浦东新区三林路168号",121.50263852318,31.1415921892231,2022-05-06
"浦东新区","上海市浦东新区三林路184号",121.502530996011,31.1424148693693,2022-05-06
"浦东新区","上海市浦东新区三林路235号",121.502736528311,31.1436912572177,2022-05-06
"浦东新区","上海市浦东新区三林路788弄",121.514306433788,31.1473404454447,2022-05-06
"浦东新区","上海市浦东新区三林路88弄",121.536884264815,31.1897022555378,2022-05-06
"浦东新区","上海市浦东新区三林镇临江村王家宅队王家宅",121.484029855049,31.1268779245209,2022-05-06
"浦东新区","上海市浦东新区三林镇临江村周北队周家宅",121.478736410171,31.1240123722048,2022-05-06
"浦东新区","上海市浦东新区三林镇三林村镇前队金家宅",121.593249522005,31.1310947543661,2022-05-06
"浦东新区","上海市浦东新区三林镇天花庵村西瞿队大瞿家宅",121.532611205165,31.1270776188598,2022-05-06
"浦东新区","上海市浦东新区三林镇西林村西林队金家宅",121.506713326804,31.1407565978205,2022-05-06
"浦东新区","上海市浦东新区三舒路192弄",121.510630657472,31.1278552944324,2022-05-06
"浦东新区","上海市浦东新区三舒路288弄",121.525530311983,31.1391594184198,2022-05-06
"浦东新区","上海市浦东新区三舒路33弄",121.511249500138,31.1314993022756,2022-05-06
"浦东新区","上海市浦东新区三舒路62弄",121.509892699496,31.1304092986302,2022-05-06
"浦东新区","上海市浦东新区沙北新村",121.594559790422,31.0595842987163,2022-05-06
"浦东新区","上海市浦东新区商城路1178弄",121.534434855181,31.2403688276266,2022-05-06
"浦东新区","上海市浦东新区上南路1251弄",121.502606274012,31.1785212361064,2022-05-06
"浦东新区","上海市浦东新区上南路1551弄",121.504524605429,31.1745415069555,2022-05-06
"浦东新区","上海市浦东新区上南路6333弄",121.584859707864,31.1200779398788,2022-05-06
"浦东新区","上海市浦东新区沈家弄路901弄",121.552898267311,31.2449719550083,2022-05-06
"浦东新区","上海市浦东新区沈梅东路300弄",121.599445314769,31.0976181184832,2022-05-06
"浦东新区","上海市浦东新区世博家园大道站路94弄",121.545610314708,31.1654593463491,2022-05-06
"浦东新区","上海市浦东新区水洞港路69弄",121.672470006963,31.3016768591264,2022-05-06
"浦东新区","上海市浦东新区思浦路17弄",121.499381626723,31.1638258159296,2022-05-06
"浦东新区","上海市浦东新区孙环路377弄",121.645765360424,31.1867917414103,2022-05-06
"浦东新区","上海市浦东新区唐镇虹二村朱家宅",121.668338969415,31.2583088385362,2022-05-06
"浦东新区","上海市浦东新区唐镇虹三村顾家宅",121.679576681514,31.2599663423934,2022-05-06
"浦东新区","上海市浦东新区唐镇虹四村吴张家宅",121.658368227407,31.2467905435275,2022-05-06
"浦东新区","上海市浦东新区唐镇虹一村奚家宅",121.678443738605,31.2379222554596,2022-05-06
"浦东新区","上海市浦东新区唐镇暮二村小丁家宅",121.669724605664,31.2288207632593,2022-05-06
"浦东新区","上海市浦东新区唐镇小湾村北街",121.697839941295,31.2397379836963,2022-05-06
"浦东新区","上海市浦东新区唐镇小湾村北张家宅",121.691947606014,31.2362337931142,2022-05-06
"浦东新区","上海市浦东新区唐镇小湾村南街",121.661543557723,31.2142274263638,2022-05-06
"浦东新区","上海市浦东新区唐镇小湾村小湾新村",121.696664967569,31.239619872733,2022-05-06
"浦东新区","上海市浦东新区听谐路73弄",121.758974042827,31.0636258162458,2022-05-06
"浦东新区","上海市浦东新区潍坊路375弄",121.541472090715,31.2347481618797,2022-05-06
"浦东新区","上海市浦东新区潍坊路606号",121.528018797906,31.2292048956976,2022-05-06
"浦东新区","上海市浦东新区潍坊路89弄",121.526387025948,31.2297083723614,2022-05-06
"浦东新区","上海市浦东新区潍坊西路100弄",121.522905283621,31.2282278869475,2022-05-06
"浦东新区","上海市浦东新区五莲路100弄",121.585797359155,31.2816781004793,2022-05-06
"浦东新区","上海市浦东新区五莲路1047弄",121.601390415689,31.2777458097831,2022-05-06
"浦东新区","上海市浦东新区五莲路108弄",121.588773624971,31.2771578731139,2022-05-06
"浦东新区","上海市浦东新区五莲路1424弄",121.606921013223,31.281810881647,2022-05-06
"浦东新区","上海市浦东新区五星路151弄",121.536884264815,31.1897022555378,2022-05-06
"浦东新区","上海市浦东新区西营路106号",121.490493073363,31.1743117119087,2022-05-06
"浦东新区","上海市浦东新区下南路1071弄",121.541526977182,31.1913899354429,2022-05-06
"浦东新区","上海市浦东新区下南路161弄",121.549904215046,31.1727314791562,2022-05-06
"浦东新区","上海市浦东新区下南路225弄",121.552785889291,31.1753995837175,2022-05-06
"浦东新区","上海市浦东新区下南路276弄",121.536884264815,31.1897022555378,2022-05-06
"浦东新区","上海市浦东新区下南路309弄",121.529696185109,31.2072012517119,2022-05-06
"浦东新区","上海市浦东新区下南路320弄",121.547891741212,31.1755488136572,2022-05-06
"浦东新区","上海市浦东新区下南路500弄",121.543720818899,31.1779675877605,2022-05-06
"浦东新区","上海市浦东新区下南路526弄",121.544402003967,31.1780418917603,2022-05-06
"浦东新区","上海市浦东新区下南路551弄",121.54679904239,31.1790168752743,2022-05-06
"浦东新区","上海市浦东新区香楠路399弄",121.620937184264,31.2197982153198,2022-05-06
"浦东新区","上海市浦东新区小南码头路4弄",121.550454606832,31.2273482924363,2022-05-06
"浦东新区","上海市浦东新区新浦路380弄",121.536884264815,31.1897022555378,2022-05-06
"浦东新区","上海市浦东新区新浦路543弄",121.536926664835,31.1758010055361,2022-05-06
"浦东新区","上海市浦东新区新元南路正茂路交界口工地生活区",121.82788341782,30.8836711316312,2022-05-06
"浦东新区","上海市浦东新区秀沿路2875弄",121.616066481959,31.1449302308223,2022-05-06
"浦东新区","上海市浦东新区雪野路34弄",121.503822310181,31.1865529402405,2022-05-06
"浦东新区","上海市浦东新区严杨路30弄",121.532512930542,31.1982761081556,2022-05-06
"浦东新区","上海市浦东新区严杨路60弄",121.536194994997,31.2003668807737,2022-05-06
"浦东新区","上海市浦东新区严镇路75弄",121.534643980704,31.1975138429377,2022-05-06
"浦东新区","上海市浦东新区严中路269弄",121.539412006689,31.19614320173,2022-05-06
"浦东新区","上海市浦东新区杨高南路5055弄",121.537526104102,31.1561531881371,2022-05-06
"浦东新区","上海市浦东新区杨新路197弄",121.498520151739,31.1688455907204,2022-05-06
"浦东新区","上海市浦东新区杨新路77弄",121.500168003367,31.1692430237866,2022-05-06
"浦东新区","上海市浦东新区耀华路331弄",121.493188888199,31.1809682021446,2022-05-06
"浦东新区","上海市浦东新区耀华路500弄",121.488759343729,31.1767943182538,2022-05-06
"浦东新区","上海市浦东新区耀元路228弄",121.480329835216,31.1769398309366,2022-05-06
"浦东新区","上海市浦东新区银峰路676弄",121.652778790863,31.290487771739,2022-05-06
"浦东新区","上海市浦东新区樱花路801弄",121.567035979088,31.214397826977,2022-05-06
"浦东新区","上海市浦东新区樱花路89弄",121.551946231283,31.2119883489066,2022-05-06
"浦东新区","上海市浦东新区永泰路2079弄",121.525530311983,31.1391594184198,2022-05-06
"浦东新区","上海市浦东新区永泰路59弄",121.507846629035,31.1402600610679,2022-05-06
"浦东新区","上海市浦东新区玉兰路99弄",121.554886307235,31.2106172848479,2022-05-06
"浦东新区","上海市浦东新区御青路999弄",121.579524761271,31.1602976299725,2022-05-06
"浦东新区","上海市浦东新区御山路360弄",121.574682445419,31.1620356669102,2022-05-06
"浦东新区","上海市浦东新区源深路836号",121.542754960814,31.2334733223372,2022-05-06
"浦东新区","上海市浦东新区跃进新村",121.709297568464,31.2141929138321,2022-05-06
"浦东新区","上海市浦东新区云汉路978弄",121.814302296137,30.9166158663587,2022-05-06
"浦东新区","上海市浦东新区云台路255弄",121.536884264815,31.1897022555378,2022-05-06
"浦东新区","上海市浦东新区枣庄路210弄",121.577389219582,31.2643915592667,2022-05-06
"浦东新区","上海市浦东新区张江镇沔北村诸家宅",121.628810113415,31.1677259713913,2022-05-06
"浦东新区","上海市浦东新区张江镇中心村蔡家圈宅",121.646543023504,31.1777788924112,2022-05-06
"浦东新区","上海市浦东新区张杨北路555弄",121.593490267882,31.2720642731454,2022-05-06
"浦东新区","上海市浦东新区张杨路310弄",121.519739385513,31.2308058679906,2022-05-06
"浦东新区","上海市浦东新区张杨路370弄",121.521538421957,31.2321643454895,2022-05-06
"浦东新区","上海市浦东新区张杨路98号",121.5896261169,31.2815848989426,2022-05-06
"浦东新区","上海市浦东新区招远路19弄",121.521229943845,31.2416451169276,2022-05-06
"浦东新区","上海市浦东新区赵高公路587号",121.633098983242,31.3221740793311,2022-05-06
"浦东新区","上海市浦东新区赵高路610号",121.633474115623,31.3217408948772,2022-05-06
"浦东新区","上海市浦东新区周浦镇姚桥村",121.604918420749,31.1203519983522,2022-05-06
"浦东新区","上海市浦东新区祝桥镇滨海一村龚家宅",121.769681754676,31.1574470035516,2022-05-06
"浦东新区","上海市浦东新区紫叶路51弄",121.557614011916,31.1902708942297,2022-05-06
"浦东新区","上海市浦东新区紫叶路65弄",121.536884264815,31.1897022555378,2022-05-06
"黄浦区","上海市黄浦区半淞园路628号",121.50154258756,31.2042940990732,2022-05-06
"黄浦区","上海市黄浦区保屯路211弄",121.498305816045,31.209535149529,2022-05-06
"黄浦区","上海市黄浦区保屯路50弄",121.496314991373,31.2118891156666,2022-05-06
"黄浦区","上海市黄浦区北京东路275号",121.490980673594,31.2461452967472,2022-05-06
"黄浦区","上海市黄浦区北京东路288弄",121.490646324283,31.2464802699138,2022-05-06
"黄浦区","上海市黄浦区北京东路316弄",121.477099248379,31.2054004512698,2022-05-06
"黄浦区","上海市黄浦区北京西路218弄",121.476082007219,31.242234743581,2022-05-06
"黄浦区","上海市黄浦区北京西路239弄",121.475743795195,31.241462338857,2022-05-06
"黄浦区","上海市黄浦区北京西路246号",121.475527932381,31.2418528258638,2022-05-06
"黄浦区","上海市黄浦区北京西路256号",121.475433161149,31.2417952447631,2022-05-06
"黄浦区","上海市黄浦区北京西路284号",121.474979067714,31.2416915832551,2022-05-06
"黄浦区","上海市黄浦区长乐路81号",121.474772008294,31.2280188353939,2022-05-06
"黄浦区","上海市黄浦区成都南路99弄",121.474386096247,31.227539744289,2022-05-06
"黄浦区","上海市黄浦区重庆南路205弄",121.477585501151,31.2205009292658,2022-05-06
"黄浦区","上海市黄浦区重庆南路26弄",121.491585592524,31.2372471520636,2022-05-06
"黄浦区","上海市黄浦区打浦路303弄",121.478195181101,31.2059046737052,2022-05-06
"黄浦区","上海市黄浦区打浦路316弄",121.477142906027,31.2052986798579,2022-05-06
"黄浦区","上海市黄浦区打浦路339弄",121.478552257541,31.2052967494431,2022-05-06
"黄浦区","上海市黄浦区打浦路398弄",121.478787972907,31.2038108587615,2022-05-06
"黄浦区","上海市黄浦区打浦路399弄",121.478588369423,31.2053980575581,2022-05-06
"黄浦区","上海市黄浦区打浦路457弄",121.480652855146,31.2030750472854,2022-05-06
"黄浦区","上海市黄浦区打浦路470弄",121.479363247756,31.2030630784288,2022-05-06
"黄浦区","上海市黄浦区打浦路80弄",121.476874312679,31.209469750012,2022-05-06
"黄浦区","上海市黄浦区大夫坊27号",121.491585592524,31.2372471520636,2022-05-06
"黄浦区","上海市黄浦区大夫坊95弄",121.491585592524,31.2372471520636,2022-05-06
"黄浦区","上海市黄浦区大沽路179号",121.477421380735,31.2320375921442,2022-05-06
"黄浦区","上海市黄浦区大沽路183弄",121.477665540172,31.2319429515929,2022-05-06
"黄浦区","上海市黄浦区大沽路193号",121.477124939916,31.2319691977587,2022-05-06
"黄浦区","上海市黄浦区大沽路197号",121.477107782281,31.2319145439699,2022-05-06
"黄浦区","上海市黄浦区大沽路254号",121.475885817296,31.2319917385775,2022-05-06
"黄浦区","上海市黄浦区大吉路135弄",121.491322658502,31.2202550340278,2022-05-06
"黄浦区","上海市黄浦区大吉路173弄",121.490317185144,31.2201454039175,2022-05-06
"黄浦区","上海市黄浦区大吉路310弄",121.468393051037,31.2230778107397,2022-05-06
"黄浦区","上海市黄浦区大境路50号",121.493632381629,31.231105849433,2022-05-06
"黄浦区","上海市黄浦区大林路43弄",121.49331950182,31.219241105019,2022-05-06
"黄浦区","上海市黄浦区淡水路222号",121.479685559773,31.2231758571387,2022-05-06
"黄浦区","上海市黄浦区淡水路225弄",121.479878246304,31.2227551833205,2022-05-06
"黄浦区","上海市黄浦区淡水路227弄",121.479884264951,31.2227210599438,2022-05-06
"黄浦区","上海市黄浦区淡水路229弄",121.480324434651,31.2223618373075,2022-05-06
"黄浦区","上海市黄浦区东街167弄",121.50389713903,31.228933857077,2022-05-06
"黄浦区","上海市黄浦区董家渡路199号",121.510684735464,31.2199670617033,2022-05-06
"黄浦区","上海市黄浦区多稼路208号",121.508549193775,31.2175481364076,2022-05-06
"黄浦区","上海市黄浦区方浜西路63弄",121.488941789578,31.2268514421722,2022-05-06
"黄浦区","上海市黄浦区方斜路548弄",121.489296530424,31.2184045840872,2022-05-06
"黄浦区","上海市黄浦区方斜路556弄",121.48243060175,31.208481416449,2022-05-06
"黄浦区","上海市黄浦区凤阳路228弄",121.478205960767,31.2405736834601,2022-05-06
"黄浦区","上海市黄浦区福州路105号",121.494982804302,31.2408287105927,2022-05-06
"黄浦区","上海市黄浦区福州路185号",121.49338965948,31.2404007833137,2022-05-06
"黄浦区","上海市黄浦区福州路384弄",121.489639054315,31.2400334466292,2022-05-06
"黄浦区","上海市黄浦区福州路531号",121.489504847472,31.238861494796,2022-05-06
"黄浦区","上海市黄浦区福州路614弄",121.485855032185,31.2389698679587,2022-05-06
"黄浦区","上海市黄浦区复兴东路330号",121.504685491946,31.2265609425748,2022-05-06
"黄浦区","上海市黄浦区复兴东路404弄",121.503635193144,31.2268925119336,2022-05-06
"黄浦区","上海市黄浦区复兴东路443弄",121.502922657213,31.2277467125648,2022-05-06
"黄浦区","上海市黄浦区复兴东路464弄",121.502749194419,31.2271373089532,2022-05-06
"黄浦区","上海市黄浦区复兴中路575号",121.472475041105,31.2209414545667,2022-05-06
"黄浦区","上海市黄浦区牯岭路145弄",121.477555497747,31.2417679207431,2022-05-06
"黄浦区","上海市黄浦区广东路123号",121.495351918036,31.239256701165,2022-05-06
"黄浦区","上海市黄浦区广东路138号",121.494688699078,31.2390723746523,2022-05-06
"黄浦区","上海市黄浦区广西北路200号",121.484809404571,31.2385372236355,2022-05-06
"黄浦区","上海市黄浦区贵州路165号",121.482465006851,31.2427787497948,2022-05-06
"黄浦区","上海市黄浦区海潮路93弄",121.505912038289,31.2149615288345,2022-05-06
"黄浦区","上海市黄浦区海口路19号",121.487590378769,31.2373260404548,2022-05-06
"黄浦区","上海市黄浦区海南西弄51弄",121.503684959269,31.2165869106679,2022-05-06
"黄浦区","上海市黄浦区汉口路429弄",121.488844952244,31.2405803215844,2022-05-06
"黄浦区","上海市黄浦区汉口路455弄",121.488773626786,31.2406223887562,2022-05-06
"黄浦区","上海市黄浦区和顺街38号",121.503338123511,31.226158580229,2022-05-06
"黄浦区","上海市黄浦区和顺街45号",121.503311533668,31.2262275964565,2022-05-06
"黄浦区","上海市黄浦区河南南路600弄",121.497305552859,31.2256173337539,2022-05-06
"黄浦区","上海市黄浦区河南南路790弄",121.498540094122,31.2220411374899,2022-05-06
"黄浦区","上海市黄浦区河南中路130号",121.49288579992,31.2388916756538,2022-05-06
"黄浦区","上海市黄浦区河南中路166弄",121.492936733842,31.2395675390638,2022-05-06
"黄浦区","上海市黄浦区河南中路541弄",121.490336768204,31.2453628132786,2022-05-06
"黄浦区","上海市黄浦区河南中路575弄",121.490140847773,31.2459055663665,2022-05-06
"黄浦区","上海市黄浦区湖北路147号",121.487588761819,31.2387509602158,2022-05-06
"黄浦区","上海市黄浦区湖北路20号",121.488464340199,31.2370663723487,2022-05-06
"黄浦区","上海市黄浦区湖滨路150号",121.485768615195,31.2266223158043,2022-05-06
"黄浦区","上海市黄浦区淮海中路526弄",121.475825002013,31.2273074544703,2022-05-06
"黄浦区","上海市黄浦区淮海中路776号",121.469727394042,31.2248379209782,2022-05-06
"黄浦区","上海市黄浦区淮海中路927弄",121.467196957251,31.2226196933692,2022-05-06
"黄浦区","上海市黄浦区黄河路132弄",121.477042924623,31.2412370304314,2022-05-06
"黄浦区","上海市黄浦区黄河路149号",121.47658595661,31.2413313528325,2022-05-06
"黄浦区","上海市黄浦区黄河路158号",121.47687125844,31.2415928615782,2022-05-06
"黄浦区","上海市黄浦区黄河路215弄",121.434456955312,31.2533728868238,2022-05-06
"黄浦区","上海市黄浦区黄河路253弄",121.475294193287,31.242852770827,2022-05-06
"黄浦区","上海市黄浦区黄河路255号",121.475903064762,31.2430211896831,2022-05-06
"黄浦区","上海市黄浦区黄河路275号",121.475724122304,31.2432075924172,2022-05-06
"黄浦区","上海市黄浦区黄河路277号",121.475706066363,31.243230902381,2022-05-06
"黄浦区","上海市黄浦区黄河路281弄",121.475632764634,31.2434464806782,2022-05-06
"黄浦区","上海市黄浦区黄河路288号",121.47590926307,31.2434954160334,2022-05-06
"黄浦区","上海市黄浦区黄家路88弄",121.50359063719,31.2212345193213,2022-05-06
"黄浦区","上海市黄浦区黄家阙路68弄",121.493950022457,31.2207148614576,2022-05-06
"黄浦区","上海市黄浦区黄家阙路76弄",121.494053776744,31.2203405763063,2022-05-06
"黄浦区","上海市黄浦区徽宁路198号",121.499367164005,31.2172251811014,2022-05-06
"黄浦区","上海市黄浦区徽宁路4号",121.502298155223,31.2172362216669,2022-05-06
"黄浦区","上海市黄浦区济南路260弄",121.486546188444,31.2091485427482,2022-05-06
"黄浦区","上海市黄浦区建国东路173号",121.484537846815,31.2185912674867,2022-05-06
"黄浦区","上海市黄浦区建国西路186号",121.468819297002,31.2129726907767,2022-05-06
"黄浦区","上海市黄浦区建国中路26号",121.474417986093,31.2151568664483,2022-05-06
"黄浦区","上海市黄浦区江滨路99号",121.479935019213,31.197853855228,2022-05-06
"黄浦区","上海市黄浦区江西中路14弄",121.495133539967,31.2379330620145,2022-05-06
"黄浦区","上海市黄浦区江西中路412弄",121.492185570774,31.2467273311509,2022-05-06
"黄浦区","上海市黄浦区江西中路460弄",121.491700395969,31.2476486531008,2022-05-06
"黄浦区","上海市黄浦区江阴街401弄",121.494666061779,31.2185822344276,2022-05-06
"黄浦区","上海市黄浦区金陵东路531号",121.48826383841,31.233254787699,2022-05-06
"黄浦区","上海市黄浦区金陵东路57号",121.497950536215,31.2370931574096,2022-05-06
"黄浦区","上海市黄浦区金陵东路89号",121.49666829493,31.2367783745662,2022-05-06
"黄浦区","上海市黄浦区静修路66号",121.494139475089,31.2255961809968,2022-05-06
"黄浦区","上海市黄浦区静修路75号",121.49384617834,31.2256622640468,2022-05-06
"黄浦区","上海市黄浦区九江路558号",121.486566904751,31.241018798929,2022-05-06
"黄浦区","上海市黄浦区九江路595号",121.48584937286,31.2405418050197,2022-05-06
"黄浦区","上海市黄浦区九江路619号",121.485146628459,31.2401623504,2022-05-06
"黄浦区","上海市黄浦区九江路700号",121.483544859905,31.2403321634795,2022-05-06
"黄浦区","上海市黄浦区局门后路13号",121.487299776936,31.2148000082547,2022-05-06
"黄浦区","上海市黄浦区局门路241弄",121.487610410982,31.2120270919029,2022-05-06
"黄浦区","上海市黄浦区局门路361弄",121.488617860611,31.210057880745,2022-05-06
"黄浦区","上海市黄浦区巨鹿路310弄",121.468393051037,31.2230778107397,2022-05-06
"黄浦区","上海市黄浦区丽园路567号",121.487316036266,31.2131918904586,2022-05-06
"黄浦区","上海市黄浦区丽园路68弄",121.495323980735,31.21622256879,2022-05-06
"黄浦区","上海市黄浦区丽园路708号",121.485742205012,31.212766925198,2022-05-06
"黄浦区","上海市黄浦区丽园路842弄",121.483621395534,31.2113782080457,2022-05-06
"黄浦区","上海市黄浦区丽园路885号",121.481914076082,31.2125746710216,2022-05-06
"黄浦区","上海市黄浦区龙华东路18号",121.49963701498,31.2016298933241,2022-05-06
"黄浦区","上海市黄浦区龙华东路888弄",121.477730128338,31.1990606070333,2022-05-06
"黄浦区","上海市黄浦区鲁班路400弄",121.482126615165,31.2064886571851,2022-05-06
"黄浦区","上海市黄浦区鲁班路509弄",121.483254078411,31.2067494139374,2022-05-06
"黄浦区","上海市黄浦区鲁班路721弄",121.484686336716,31.2025081078975,2022-05-06
"黄浦区","上海市黄浦区鲁班路738弄",121.484940916498,31.1998880342562,2022-05-06
"黄浦区","上海市黄浦区鲁班路776弄",121.485188040343,31.1989094839785,2022-05-06
"黄浦区","上海市黄浦区鲁班路899号",121.487175720945,31.1990555876205,2022-05-06
"黄浦区","上海市黄浦区陆家浜路1088号",121.494590244794,31.2176036478577,2022-05-06
"黄浦区","上海市黄浦区陆家浜路305弄",121.507385528817,31.2171620259531,2022-05-06
"黄浦区","上海市黄浦区陆家浜路413弄",121.505863709453,31.2173034687199,2022-05-06
"黄浦区","上海市黄浦区陆家浜路468弄",121.504498105416,31.2161071433814,2022-05-06
"黄浦区","上海市黄浦区陆家浜路521弄",121.505512112676,31.2192072119766,2022-05-06
"黄浦区","上海市黄浦区陆家浜路976号",121.496603796595,31.2177531966214,2022-05-06
"黄浦区","上海市黄浦区陆家宅路91弄",121.502350619858,31.2301080052278,2022-05-06
"黄浦区","上海市黄浦区马当路278弄",121.480389561801,31.2236803698593,2022-05-06
"黄浦区","上海市黄浦区马当路357弄",121.482270074555,31.2192363183031,2022-05-06
"黄浦区","上海市黄浦区茂名南路169弄",121.469133524269,31.2212484931447,2022-05-06
"黄浦区","上海市黄浦区茂名南路22弄",121.491585592524,31.2372471520636,2022-05-06
"黄浦区","上海市黄浦区蒙自路345弄",121.485623179532,31.21018620811,2022-05-06
"黄浦区","上海市黄浦区蒙自路490弄",121.485480618448,31.2072328582784,2022-05-06
"黄浦区","上海市黄浦区蒙自路737号",121.488555967361,31.2029928868457,2022-05-06
"黄浦区","上海市黄浦区蒙自西路68号",121.481724443789,31.2132698726099,2022-05-06
"黄浦区","上海市黄浦区蒙自西路72弄",121.48209804905,31.2132159800014,2022-05-06
"黄浦区","上海市黄浦区面筋弄12弄",121.504795534371,31.2263274151385,2022-05-06
"黄浦区","上海市黄浦区面筋弄29号",121.504795534371,31.2263274151385,2022-05-06
"黄浦区","上海市黄浦区面筋弄62号",121.504795534371,31.2263274151385,2022-05-06
"黄浦区","上海市黄浦区南仓街97号",121.507416071205,31.2190489413427,2022-05-06
"黄浦区","上海市黄浦区南昌路68号",121.475953819023,31.2255648378516,2022-05-06
"黄浦区","上海市黄浦区南车站路450弄",121.50015381014,31.2106206821849,2022-05-06
"黄浦区","上海市黄浦区南车站路555号",121.501598644722,31.2095445695266,2022-05-06
"黄浦区","上海市黄浦区宁波路120弄",121.491211897432,31.2454927130886,2022-05-06
"黄浦区","上海市黄浦区宁波路284弄",121.488411789327,31.2445556243191,2022-05-06
"黄浦区","上海市黄浦区宁波路542弄",121.483778778659,31.2427559028324,2022-05-06
"黄浦区","上海市黄浦区宁波路620弄",121.482230728774,31.2425626296574,2022-05-06
"黄浦区","上海市黄浦区牌楼路23号",121.492777374444,31.2199779475365,2022-05-06
"黄浦区","上海市黄浦区普育东路200弄",121.502308755228,31.2136236482467,2022-05-06
"黄浦区","上海市黄浦区普育东路26号",121.502612651982,31.2167004053053,2022-05-06
"黄浦区","上海市黄浦区普育东路28号",121.502622533342,31.2164667760583,2022-05-06
"黄浦区","上海市黄浦区普育东路7号",121.502789438506,31.2170727748396,2022-05-06
"黄浦区","上海市黄浦区乔家路258弄",121.500978724089,31.223425527584,2022-05-06
"黄浦区","上海市黄浦区青岛路15号",121.475310003464,31.2434843785659,2022-05-06
"黄浦区","上海市黄浦区青岛路25号",121.475173371196,31.2434939495168,2022-05-06
"黄浦区","上海市黄浦区青岛路37号",121.474988499922,31.243427493136,2022-05-06
"黄浦区","上海市黄浦区瞿溪路1003弄",121.483856931239,31.2057716302849,2022-05-06
"黄浦区","上海市黄浦区瞿溪路1072弄",121.481430608056,31.2047559228658,2022-05-06
"黄浦区","上海市黄浦区瞿溪路1079号",121.481510108094,31.2053247018456,2022-05-06
"黄浦区","上海市黄浦区瞿溪路1111弄",121.480162649829,31.2049094302128,2022-05-06
"黄浦区","上海市黄浦区瞿溪路1145弄",121.479453976612,31.2046405605389,2022-05-06
"黄浦区","上海市黄浦区瞿溪路114号",121.501800763462,31.2126111916244,2022-05-06
"黄浦区","上海市黄浦区瞿溪路1151号",121.479219698535,31.2044399502105,2022-05-06
"黄浦区","上海市黄浦区瞿溪路1200弄",121.477917514868,31.2023023965439,2022-05-06
"黄浦区","上海市黄浦区瞿溪路120弄",121.50172216173,31.2120859266995,2022-05-06
"黄浦区","上海市黄浦区瞿溪路125号",121.500705549384,31.2120042374312,2022-05-06
"黄浦区","上海市黄浦区瞿溪路131号",121.500236544077,31.211707051581,2022-05-06
"黄浦区","上海市黄浦区瞿溪路566号",121.492495306514,31.2072535518952,2022-05-06
"黄浦区","上海市黄浦区瞿溪路601号",121.491644072213,31.2080429945178,2022-05-06
"黄浦区","上海市黄浦区瞿溪路621号",121.491261394066,31.2080054683466,2022-05-06
"黄浦区","上海市黄浦区瞿溪路883弄",121.485768974517,31.2063427195683,2022-05-06
"黄浦区","上海市黄浦区瞿溪路915号",121.48502445891,31.2058768759081,2022-05-06
"黄浦区","上海市黄浦区瞿溪路937弄",121.484684090952,31.2063509816511,2022-05-06
"黄浦区","上海市黄浦区汝南街64号",121.491456595853,31.2085883577324,2022-05-06
"黄浦区","上海市黄浦区汝南街70弄",121.491384012768,31.2081913231254,2022-05-06
"黄浦区","上海市黄浦区汝南街74号",121.490793646387,31.2084567079763,2022-05-06
"黄浦区","上海市黄浦区汝南街78弄",121.490983727833,31.2082045267538,2022-05-06
"黄浦区","上海市黄浦区汝南街80号",121.490476903864,31.2083713092673,2022-05-06
"黄浦区","上海市黄浦区瑞金二路410弄",121.473398499169,31.2133016831321,2022-05-06
"黄浦区","上海市黄浦区瑞金二路52弄",121.470646001256,31.2218631849024,2022-05-06
"黄浦区","上海市黄浦区瑞金二路69弄",121.471064970946,31.2233369000563,2022-05-06
"黄浦区","上海市黄浦区瑞金二路70弄",121.470872104753,31.2213571183194,2022-05-06
"黄浦区","上海市黄浦区瑞金一路121弄",121.469885855134,31.2278638219758,2022-05-06
"黄浦区","上海市黄浦区山西南路264号",121.488444128325,31.2440491401772,2022-05-06
"黄浦区","上海市黄浦区陕西南路39弄",121.464726257776,31.2253950751662,2022-05-06
"黄浦区","上海市黄浦区四川南路25弄",121.497228927399,31.2373414012982,2022-05-06
"黄浦区","上海市黄浦区四川中路126弄",121.496402396499,31.2402469482272,2022-05-06
"黄浦区","上海市黄浦区四川中路540号",121.493509583266,31.2467056428897,2022-05-06
"黄浦区","上海市黄浦区四川中路567号",121.493029977954,31.2471734444459,2022-05-06
"黄浦区","上海市黄浦区四川中路615号",121.492745754091,31.2479309831671,2022-05-06
"黄浦区","上海市黄浦区四牌楼路119号",121.502094060211,31.2291788803471,2022-05-06
"黄浦区","上海市黄浦区四牌楼路121弄",121.501829419407,31.2292613265961,2022-05-06
"黄浦区","上海市黄浦区四牌楼路147号",121.502212007724,31.2286018317671,2022-05-06
"黄浦区","上海市黄浦区泗泾路36号",121.492942033844,31.2392192646958,2022-05-06
"黄浦区","上海市黄浦区太仓路181弄",121.48111000282,31.2265908958038,2022-05-06
"黄浦区","上海市黄浦区铁道路680号",121.48284148669,31.202210660254,2022-05-06
"黄浦区","上海市黄浦区铁道路682号",121.482744739187,31.2021797725941,2022-05-06
"黄浦区","上海市黄浦区铁道路684号",121.482630205234,31.2021422440736,2022-05-06
"黄浦区","上海市黄浦区文庙路257号",121.49379066306,31.2229640922285,2022-05-06
"黄浦区","上海市黄浦区五里桥路235弄",121.486606644405,31.2096501197617,2022-05-06
"黄浦区","上海市黄浦区五里桥路262号",121.486198634042,31.2090853049383,2022-05-06
"黄浦区","上海市黄浦区五里桥路269弄",121.48593902375,31.2095841026205,2022-05-06
"黄浦区","上海市黄浦区西藏南路1341弄",121.494635788883,31.2116118499907,2022-05-06
"黄浦区","上海市黄浦区西藏南路1374弄",121.493515512082,31.2116939256578,2022-05-06
"黄浦区","上海市黄浦区西藏南路1383弄",121.49478679404,31.2111731338686,2022-05-06
"黄浦区","上海市黄浦区西藏南路1717弄",121.49862291789,31.2053518048576,2022-05-06
"黄浦区","上海市黄浦区西藏南路555弄",121.489053808275,31.2259346245362,2022-05-06
"黄浦区","上海市黄浦区西藏中路200号",121.483820010882,31.2374298611814,2022-05-06
"黄浦区","上海市黄浦区西凌家宅路111弄",121.493016593202,31.2103186275591,2022-05-06
"黄浦区","上海市黄浦区西凌家宅路27弄",121.493752125753,31.2105657842924,2022-05-06
"黄浦区","上海市黄浦区县左街24弄",121.501377571736,31.2296827431334,2022-05-06
"黄浦区","上海市黄浦区斜土东路158弄",121.495445790962,31.2135645055772,2022-05-06
"黄浦区","上海市黄浦区斜土东路265弄",121.493419752715,31.2132894839525,2022-05-06
"黄浦区","上海市黄浦区斜土路262弄",121.487484738041,31.2107963397823,2022-05-06
"黄浦区","上海市黄浦区斜土路298弄",121.486648505442,31.2107846035487,2022-05-06
"黄浦区","上海市黄浦区斜土路2号",121.491013821067,31.2123754674827,2022-05-06
"黄浦区","上海市黄浦区斜土路338号",121.485982861059,31.210533509567,2022-05-06
"黄浦区","上海市黄浦区斜土路352号",121.485722891444,31.2104135988271,2022-05-06
"黄浦区","上海市黄浦区斜土路456号",121.484234399214,31.2096175358686,2022-05-06
"黄浦区","上海市黄浦区斜土路486弄",121.483998234695,31.2084093757901,2022-05-06
"黄浦区","上海市黄浦区斜土路530号",121.482802230739,31.2089081770726,2022-05-06
"黄浦区","上海市黄浦区斜土路556弄",121.482356042393,31.2088778321169,2022-05-06
"黄浦区","上海市黄浦区斜土路766弄",121.477927755551,31.2078272574353,2022-05-06
"黄浦区","上海市黄浦区斜土路80弄",121.490479149628,31.2107099394492,2022-05-06
"黄浦区","上海市黄浦区斜土支路5号",121.49068333447,31.211769901564,2022-05-06
"黄浦区","上海市黄浦区新昌路280弄",121.474989038905,31.2417755622071,2022-05-06
"黄浦区","上海市黄浦区新昌路284号",121.474831116797,31.2418031949708,2022-05-06
"黄浦区","上海市黄浦区新昌路290号",121.474852316807,31.2419182027543,2022-05-06
"黄浦区","上海市黄浦区新昌路300弄",121.474735716751,31.2421443585871,2022-05-06
"黄浦区","上海市黄浦区新昌路328弄",121.474649209931,31.2424730168396,2022-05-06
"黄浦区","上海市黄浦区新昌路477弄",121.473272736398,31.2445516879245,2022-05-06
"黄浦区","上海市黄浦区新昌路87弄",121.47507940844,31.238620665096,2022-05-06
"黄浦区","上海市黄浦区新闸路274号",121.474435997118,31.245219811363,2022-05-06
"黄浦区","上海市黄浦区兴安路163弄",121.476799034677,31.2268428731032,2022-05-06
"黄浦区","上海市黄浦区徐家汇路1弄",121.488376665582,31.2165762560622,2022-05-06
"黄浦区","上海市黄浦区徐家汇路258号",121.48186437865,31.2149240372277,2022-05-06
"黄浦区","上海市黄浦区徐家汇路396号",121.480366834671,31.2152804771151,2022-05-06
"黄浦区","上海市黄浦区薛家浜路242弄",121.508629322626,31.2162139987478,2022-05-06
"黄浦区","上海市黄浦区学宫街63弄",121.495296492586,31.2237713903039,2022-05-06
"黄浦区","上海市黄浦区学前街156号",121.496594723709,31.2205836919761,2022-05-06
"黄浦区","上海市黄浦区学西街1号",121.493912113965,31.2234769438639,2022-05-06
"黄浦区","上海市黄浦区巡道街8号",121.504082100135,31.226523501025,2022-05-06
"黄浦区","上海市黄浦区延安东路1292弄",121.478033306448,31.2317579931103,2022-05-06
"黄浦区","上海市黄浦区延安东路385号",121.487112659899,31.2352954536951,2022-05-06
"黄浦区","上海市黄浦区延安中路535弄",121.466308173779,31.2296148102057,2022-05-06
"黄浦区","上海市黄浦区永嘉路21弄",121.470620309719,31.2171466617969,2022-05-06
"黄浦区","上海市黄浦区永年路149弄",121.485099287759,31.2170759403217,2022-05-06
"黄浦区","上海市黄浦区云南南路297号",121.48894367602,31.2314168688063,2022-05-06
"黄浦区","上海市黄浦区肇周路417号",121.488687030135,31.2177481782103,2022-05-06
"黄浦区","上海市黄浦区浙江中路128弄",121.486610237627,31.237968878016,2022-05-06
"黄浦区","上海市黄浦区浙江中路142号",121.486361496831,31.2381222537122,2022-05-06
"黄浦区","上海市黄浦区浙江中路159号",121.486020050907,31.2382680645963,2022-05-06
"黄浦区","上海市黄浦区浙江中路417号",121.484239968708,31.2422118964858,2022-05-06
"黄浦区","上海市黄浦区制造局路130号",121.489596205142,31.2147306747655,2022-05-06
"黄浦区","上海市黄浦区制造局路370弄",121.490967743528,31.2121753784511,2022-05-06
"黄浦区","上海市黄浦区制造局路466弄",121.491504565367,31.2075521417448,2022-05-06
"黄浦区","上海市黄浦区制造局路529号",121.491455697548,31.2096017071961,2022-05-06
"黄浦区","上海市黄浦区制造局路567弄",121.491828673995,31.2093086060248,2022-05-06
"黄浦区","上海市黄浦区制造局路646弄",121.491508967064,31.2075514468122,2022-05-06
"黄浦区","上海市黄浦区制造局路721弄",121.456643574289,31.2405023621885,2022-05-06
"黄浦区","上海市黄浦区制造局路855号",121.492784201566,31.2046539963192,2022-05-06
"黄浦区","上海市黄浦区中华路1148弄",121.49465968381,31.220816693318,2022-05-06
"黄浦区","上海市黄浦区中华路1299弄",121.497128807935,31.2185663181058,2022-05-06
"黄浦区","上海市黄浦区中华路169弄",121.504585780034,31.2280301834777,2022-05-06
"黄浦区","上海市黄浦区中华路211弄",121.505009420913,31.2273103108126,2022-05-06
"黄浦区","上海市黄浦区中华路316号",121.505630419512,31.2258202146993,2022-05-06
"黄浦区","上海市黄浦区中华路333号",121.505256275267,31.2255354246935,2022-05-06
"黄浦区","上海市黄浦区中华路429弄",121.504498015586,31.2244948414272,2022-05-06
"黄浦区","上海市黄浦区中华路97号",121.504779454702,31.2290427049227,2022-05-06
"黄浦区","上海市黄浦区中华路999号",121.497145654478,31.2205095761196,2022-05-06
"黄浦区","上海市黄浦区中山南路1726弄",121.49944953862,31.2099897019351,2022-05-06
"黄浦区","上海市黄浦区中山南路200弄",121.507902413808,31.2283238436158,2022-05-06
"黄浦区","上海市黄浦区中山南路609号",121.512491946489,31.2229914217408,2022-05-06
"黄浦区","上海市黄浦区中山南路969号",121.512016653043,31.2173782819747,2022-05-06
"黄浦区","上海市黄浦区中山南一路1043弄",121.479223022266,31.2019809330397,2022-05-06
"黄浦区","上海市黄浦区中山南一路1079号",121.47797815049,31.2015294305501,2022-05-06
"黄浦区","上海市黄浦区中山南一路1109弄",121.476887877092,31.2014854153116,2022-05-06
"黄浦区","上海市黄浦区中山南一路198弄",121.495143062005,31.2064719786118,2022-05-06
"黄浦区","上海市黄浦区中山南一路247弄",121.492960718599,31.2063049610685,2022-05-06
"黄浦区","上海市黄浦区中山南一路270号",121.493142355973,31.2058641352483,2022-05-06
"黄浦区","上海市黄浦区中山南一路468号",121.490900904065,31.2050419343403,2022-05-06
"黄浦区","上海市黄浦区中山南一路500弄",121.492106430059,31.205224783551,2022-05-06
"黄浦区","上海市黄浦区中山南一路904号",121.482043342245,31.2021998495742,2022-05-06
"黄浦区","上海市黄浦区昼锦路99号",121.497857202273,31.2299774788325,2022-05-06
"静安区","上海市静安区安远路501弄",121.447348986838,31.244497890514,2022-05-06
"静安区","上海市静安区宝昌路600弄",121.478398018485,31.26623677822,2022-05-06
"静安区","上海市静安区宝昌路610弄",121.478543094825,31.2668629035372,2022-05-06
"静安区","上海市静安区宝昌路632弄",121.477998542025,31.2676679707548,2022-05-06
"静安区","上海市静安区宝山路475号",121.484266917873,31.2635119190218,2022-05-06
"静安区","上海市静安区宝山路499弄",121.484717238426,31.2636615487347,2022-05-06
"静安区","上海市静安区宝山路519号",121.484502902731,31.2642291980094,2022-05-06
"静安区","上海市静安区宝山路535号",121.484589948535,31.2642841415844,2022-05-06
"静安区","上海市静安区保德路1316弄",121.448663477291,31.3201670078394,2022-05-06
"静安区","上海市静安区保德路450弄",121.465352376716,31.3241342196088,2022-05-06
"静安区","上海市静安区保德路525弄",121.46445137629,31.3227480051444,2022-05-06
"静安区","上海市静安区昌化路320号",121.458519236194,31.2436809687881,2022-05-06
"静安区","上海市静安区昌平路88弄",121.458702310857,31.2451041708738,2022-05-06
"静安区","上海市静安区常德路519弄",121.452539396075,31.2361806856393,2022-05-06
"静安区","上海市静安区长安路1001号",121.458639968454,31.2513428800156,2022-05-06
"静安区","上海市静安区长安路979弄",121.459139965301,31.2511288634988,2022-05-06
"静安区","上海市静安区长乐路632弄",121.461033683147,31.2254782195486,2022-05-06
"静安区","上海市静安区长乐路682弄",121.45939146217,31.2247195476741,2022-05-06
"静安区","上海市静安区长乐路698弄",121.458999021167,31.2242728889774,2022-05-06
"静安区","上海市静安区长寿路999弄",121.435947244153,31.2389305016534,2022-05-06
"静安区","上海市静安区场中路3123弄",121.43768789074,31.3120195120596,2022-05-06
"静安区","上海市静安区场中路3300弄",121.441464726426,31.3087211317983,2022-05-06
"静安区","上海市静安区场中路3332弄",121.437450378763,31.309717044519,2022-05-06
"静安区","上海市静安区大宁路540弄",121.457282000015,31.2778189544011,2022-05-06
"静安区","上海市静安区大宁路660弄",121.455414063537,31.2788371863469,2022-05-06
"静安区","上海市静安区大统路107弄",121.471659469533,31.2491013549185,2022-05-06
"静安区","上海市静安区大统路865号",121.465893605786,31.2595756995188,2022-05-06
"静安区","上海市静安区大统路933弄",121.466221397467,31.2615230326281,2022-05-06
"静安区","上海市静安区大统路938弄",121.465017937575,31.2604427207575,2022-05-06
"静安区","上海市静安区东宝兴路458弄",121.485668993113,31.265014533089,2022-05-06
"静安区","上海市静安区东宝兴路922号",121.478829833944,31.2708983556984,2022-05-06
"静安区","上海市静安区汾西路400弄",121.464971944333,31.3233030332376,2022-05-06
"静安区","上海市静安区富民路148弄",121.457301403414,31.225503077929,2022-05-06
"静安区","上海市静安区高平路809弄",121.433852305873,31.2973428148451,2022-05-06
"静安区","上海市静安区高平路860弄",121.434458482431,31.2983149356945,2022-05-06
"静安区","上海市静安区公兴路220弄",121.480226968503,31.2610461967472,2022-05-06
"静安区","上海市静安区公兴路5号",121.482387033933,31.2584998411543,2022-05-06
"静安区","上海市静安区共和新路1700弄",121.462315026126,31.274841119709,2022-05-06
"静安区","上海市静安区共和新路1725弄",121.464347532173,31.2772026243291,2022-05-06
"静安区","上海市静安区共和新路318弄",121.468953144523,31.2545115483017,2022-05-06
"静安区","上海市静安区共和新路3616弄",121.454428981715,31.3089819120165,2022-05-06
"静安区","上海市静安区共和新路3650弄",121.454836722586,31.3103605410192,2022-05-06
"静安区","上海市静安区共和新路555弄",121.470609979205,31.2589239041575,2022-05-06
"静安区","上海市静安区共和新路619弄",121.471503433865,31.2604662579375,2022-05-06
"静安区","上海市静安区共和新路635弄",121.462016788697,31.2747511520386,2022-05-06
"静安区","上海市静安区共和新路700号",121.46981192459,31.2611956760674,2022-05-06
"静安区","上海市静安区共和新路710弄",121.468637300305,31.2615052834805,2022-05-06
"静安区","上海市静安区共和新路802弄",121.469784975425,31.2630487521927,2022-05-06
"静安区","上海市静安区共和新路938号",121.468949910623,31.2650106747231,2022-05-06
"静安区","上海市静安区共和新路966号",121.468580078244,31.2652664840375,2022-05-06
"静安区","上海市静安区共和新路970弄",121.468642061325,31.2657220775345,2022-05-06
"静安区","上海市静安区广延路52弄",121.463336668983,31.2789384919869,2022-05-06
"静安区","上海市静安区海宁路717号",121.486893024201,31.2528549510174,2022-05-06
"静安区","上海市静安区汉中路28弄",121.453431772769,31.2338449304017,2022-05-06
"静安区","上海市静安区汉中路78弄",121.465700020949,31.2493749592327,2022-05-06
"静安区","上海市静安区和田路434号",121.4666701909,31.2740307902761,2022-05-06
"静安区","上海市静安区沪太路1051弄",121.435839716983,31.2849668670001,2022-05-06
"静安区","上海市静安区沪太路1218号",121.432237961041,31.2846172187657,2022-05-06
"静安区","上海市静安区沪太路315弄",121.461028293314,31.2615378493053,2022-05-06
"静安区","上海市静安区沪太路453弄",121.463284567263,31.2634062752071,2022-05-06
"静安区","上海市静安区沪太路555弄",121.457268435602,31.2638327081641,2022-05-06
"静安区","上海市静安区沪太路631弄",121.456626326823,31.2673061427831,2022-05-06
"静安区","上海市静安区沪太路655弄",121.470448014722,31.261024897661,2022-05-06
"静安区","上海市静安区沪太路883弄",121.442703399893,31.2764844418933,2022-05-06
"静安区","上海市静安区沪太路941弄",121.437299732929,31.2801932685761,2022-05-06
"静安区","上海市静安区淮安路687弄",121.458216686898,31.2455075323067,2022-05-06
"静安区","上海市静安区黄山路280弄",121.474549498019,31.272077159114,2022-05-06
"静安区","上海市静安区江宁路565弄",121.457243283047,31.2421662022785,2022-05-06
"静安区","上海市静安区江宁路906弄",121.454120683264,31.246327525386,2022-05-06
"静安区","上海市静安区江宁路936弄",121.452928811513,31.2475124273812,2022-05-06
"静安区","上海市静安区江苏路35弄",121.434603199449,31.2303704840526,2022-05-06
"静安区","上海市静安区京江路168号",121.471504960985,31.2542919051787,2022-05-06
"静安区","上海市静安区晋元路314号",121.475548862899,31.2511616644753,2022-05-06
"静安区","上海市静安区晋元路65号",121.476982917815,31.2469568713716,2022-05-06
"静安区","上海市静安区晋元路88弄",121.476462978586,31.2469950765655,2022-05-06
"静安区","上海市静安区景凤路403弄",121.465456041172,31.325365021963,2022-05-06
"静安区","上海市静安区景凤路480弄",121.465525390358,31.3264141987332,2022-05-06
"静安区","上海市静安区景凤路52弄",121.470297009566,31.3266501751231,2022-05-06
"静安区","上海市静安区康定路848弄",121.446996222264,31.2377864787102,2022-05-06
"静安区","上海市静安区康乐路256弄",121.483306629283,31.2553266003691,2022-05-06
"静安区","上海市静安区康宁路1211号",121.438948033709,31.3175307183801,2022-05-06
"静安区","上海市静安区康宁路852号",121.440906788873,31.3111681641092,2022-05-06
"静安区","上海市静安区临汾路1320弄",121.445242640078,31.3175857848379,2022-05-06
"静安区","上海市静安区临汾路380弄",121.468559956201,31.3181868863255,2022-05-06
"静安区","上海市静安区临汾路894弄",121.456228287652,31.3171978509763,2022-05-06
"静安区","上海市静安区临汾路971弄",121.45414439853,31.3168023572985,2022-05-06
"静安区","上海市静安区临汾路99弄",121.455802041687,31.316900845253,2022-05-06
"静安区","上海市静安区临山路203弄",121.479793715756,31.261272923676,2022-05-06
"静安区","上海市静安区临山路204号",121.479982270083,31.2605725996148,2022-05-06
"静安区","上海市静安区灵石路896弄",121.438275921526,31.2822474148002,2022-05-06
"静安区","上海市静安区岭南路100弄",121.462500616045,31.313743548841,2022-05-06
"静安区","上海市静安区岭南路50弄",121.461416451125,31.3122224368465,2022-05-06
"静安区","上海市静安区柳营路309弄",121.470841113213,31.2743156640793,2022-05-06
"静安区","上海市静安区柳营路319弄",121.469876782248,31.273721070047,2022-05-06
"静安区","上海市静安区柳营路635弄",121.463591877578,31.2715149588561,2022-05-06
"静安区","上海市静安区陆丰路156号",121.480748255191,31.2632163629798,2022-05-06
"静安区","上海市静安区洛川东路320弄",121.46965534994,31.2763943986478,2022-05-06
"静安区","上海市静安区洛川东路487号",121.464776023901,31.2747447478186,2022-05-06
"静安区","上海市静安区洛川中路1100弄",121.456053477399,31.2707076099104,2022-05-06
"静安区","上海市静安区洛川中路838弄",121.45874039901,31.2719325583827,2022-05-06
"静安区","上海市静安区洛川中路901弄",121.457121203329,31.2716851007954,2022-05-06
"静安区","上海市静安区洛川中路960号",121.456697652281,31.2710814620291,2022-05-06
"静安区","上海市静安区茂名北路39号",121.467166774186,31.2308653085484,2022-05-06
"静安区","上海市静安区民立路130号",121.46242973974,31.2514104884491,2022-05-06
"静安区","上海市静安区民立路289弄",121.463881311613,31.2491928137134,2022-05-06
"静安区","上海市静安区南京西路1025弄",121.464349957598,31.233589884228,2022-05-06
"静安区","上海市静安区南京西路1522弄",121.45194193308,31.2315979682183,2022-05-06
"静安区","上海市静安区南京西路698号",121.470777782675,31.2372812701431,2022-05-06
"静安区","上海市静安区南山路10弄",121.473537646693,31.2630127142909,2022-05-06
"静安区","上海市静安区南山路151弄",121.470529131709,31.2632772491442,2022-05-06
"静安区","上海市静安区南山路71弄",121.472567925895,31.2628968835957,2022-05-06
"静安区","上海市静安区南苏州路1539弄",121.466373750081,31.2448289331989,2022-05-06
"静安区","上海市静安区南阳路183弄",121.457157135549,31.2340611478753,2022-05-06
"静安区","上海市静安区彭越浦路800弄",121.44314303061,31.2913238792861,2022-05-06
"静安区","上海市静安区平陆路999弄",121.455802041687,31.316900845253,2022-05-06
"静安区","上海市静安区平顺路721弄",121.457853861302,31.3236286296725,2022-05-06
"静安区","上海市静安区平型关路121弄",121.458320620845,31.2660382291011,2022-05-06
"静安区","上海市静安区平型关路2199弄",121.47022766038,31.3090307359159,2022-05-06
"静安区","上海市静安区平遥路111号",121.43198832194,31.2962471032497,2022-05-06
"静安区","上海市静安区普善路239弄",121.463956948937,31.2632953066303,2022-05-06
"静安区","上海市静安区普善路641号",121.459893553793,31.268919889355,2022-05-06
"静安区","上海市静安区普善路659号",121.459590824837,31.2690823196254,2022-05-06
"静安区","上海市静安区普善路661号",121.459559204483,31.2690579358118,2022-05-06
"静安区","上海市静安区普善路958弄",121.457300864431,31.2736681381861,2022-05-06
"静安区","上海市静安区普善路铁路新村17号",121.459744524909,31.2627410791231,2022-05-06
"静安区","上海市静安区普善路铁路新村19号",121.459744524909,31.2627410791231,2022-05-06
"静安区","上海市静安区普善路铁路新村25号",121.459735811346,31.2626172996541,2022-05-06
"静安区","上海市静安区普善路铁路新村7号",121.459789170693,31.2623536889667,2022-05-06
"静安区","上海市静安区普善路铁路新村91号",121.459744524909,31.2627410791231,2022-05-06
"静安区","上海市静安区青云路315弄",121.479427835922,31.2700785009969,2022-05-06
"静安区","上海市静安区青云路350弄",121.479605790243,31.2695631270032,2022-05-06
"静安区","上海市静安区青云路480弄",121.47679454315,31.267901780791,2022-05-06
"静安区","上海市静安区虬江路1258弄",121.475599168008,31.2560116059654,2022-05-06
"静安区","上海市静安区虬江路1368弄",121.473200063482,31.2554889770933,2022-05-06
"静安区","上海市静安区虬江路1431弄",121.472424825827,31.256164334672,2022-05-06
"静安区","上海市静安区虬江路888弄",121.482116733805,31.2580348745036,2022-05-06
"静安区","上海市静安区虬江路909弄",121.481537955565,31.2591871386589,2022-05-06
"静安区","上海市静安区三泉路601弄",121.44676068656,31.317838056668,2022-05-06
"静安区","上海市静安区三泉路821弄",121.444705363553,31.3222946950465,2022-05-06
"静安区","上海市静安区三泉路999弄",121.446826622184,31.3261068887154,2022-05-06
"静安区","上海市静安区山西北路388弄",121.486922039469,31.2522479491359,2022-05-06
"静安区","上海市静安区陕西北路835弄",121.454580885177,31.2418672597267,2022-05-06
"静安区","上海市静安区石门二路330号",121.466148814382,31.2433219809918,2022-05-06
"静安区","上海市静安区太阳山路188弄",121.467306730184,31.2558495388486,2022-05-06
"静安区","上海市静安区太阳山路78弄",121.468501207021,31.2555701653496,2022-05-06
"静安区","上海市静安区泰兴路594弄",121.462998007805,31.2425648680471,2022-05-06
"静安区","上海市静安区天目中路465号",121.472542324188,31.2509696435365,2022-05-06
"静安区","上海市静安区天目中路538弄",121.458733122736,31.2789379518962,2022-05-06
"静安区","上海市静安区天目中路749弄",121.46822066621,31.252132799701,2022-05-06
"静安区","上海市静安区通阁路191弄",121.476660336307,31.2664567019362,2022-05-06
"静安区","上海市静安区万航渡路455弄",121.442461126897,31.2316291549529,2022-05-06
"静安区","上海市静安区万航渡路623弄",121.440392958122,31.2327279403492,2022-05-06
"静安区","上海市静安区万航渡路661弄",121.4386351539,31.2334591187592,2022-05-06
"静安区","上海市静安区万航渡路676弄",121.437584136453,31.2321675876556,2022-05-06
"静安区","上海市静安区万航渡路829弄",121.436856688651,31.2345663738335,2022-05-06
"静安区","上海市静安区万荣路32号",121.455691514177,31.276049841619,2022-05-06
"静安区","上海市静安区万荣路970弄",121.446858961183,31.2944005486238,2022-05-06
"静安区","上海市静安区威海路287弄",121.472402188528,31.2334544871572,2022-05-06
"静安区","上海市静安区威海路910弄",121.460706610111,31.2303430023034,2022-05-06
"静安区","上海市静安区闻喜路280弄",121.468062115287,31.3147269134858,2022-05-06
"静安区","上海市静安区闻喜路590号",121.463023070529,31.3147160386864,2022-05-06
"静安区","上海市静安区武定路1128弄",121.446410616903,31.2360211314597,2022-05-06
"静安区","上海市静安区武定路116弄",121.463684223384,31.242304211066,2022-05-06
"静安区","上海市静安区武定路44弄",121.465352556378,31.2430547653583,2022-05-06
"静安区","上海市静安区武定路584号",121.455696221298,31.2394127763454,2022-05-06
"静安区","上海市静安区武宁南路320号",121.439607839106,31.2379401634642,2022-05-06
"静安区","上海市静安区武宁南路480弄",121.438277268985,31.2395347340202,2022-05-06
"静安区","上海市静安区西宝兴路922弄",121.474453738652,31.275670037316,2022-05-06
"静安区","上海市静安区西藏北路1009号",121.473537556862,31.2660322872826,2022-05-06
"静安区","上海市静安区西藏北路573号",121.475374771291,31.2584200445525,2022-05-06
"静安区","上海市静安区西藏北路853弄",121.4736235247,31.2624819446106,2022-05-06
"静安区","上海市静安区西藏北路985弄",121.472361405458,31.2665716793923,2022-05-06
"静安区","上海市静安区西藏北路987弄",121.472264118971,31.2654627969549,2022-05-06
"静安区","上海市静安区西康路786弄",121.450851839344,31.243465082291,2022-05-06
"静安区","上海市静安区西康路900号",121.449747013397,31.2451551893218,2022-05-06
"静安区","上海市静安区西康路910弄",121.449673891329,31.2453893644131,2022-05-06
"静安区","上海市静安区西苏州路85弄",121.457767983296,31.2480783223847,2022-05-06
"静安区","上海市静安区新闸路1039弄",121.462857872146,31.2394428798368,2022-05-06
"静安区","上海市静安区新闸路1300号",121.458064424114,31.2384841946575,2022-05-06
"静安区","上海市静安区新闸路1999弄",121.462857872146,31.2394428798368,2022-05-06
"静安区","上海市静安区延平路220弄",121.446561711889,31.2366661393286,2022-05-06
"静安区","上海市静安区延平路446弄",121.444255671815,31.2399994067415,2022-05-06
"静安区","上海市静安区延平路482弄",121.443577181663,31.2412536256234,2022-05-06
"静安区","上海市静安区延平路85号",121.44713240538,31.2340126707415,2022-05-06
"静安区","上海市静安区延长中路576号",121.456729721787,31.275397744519,2022-05-06
"静安区","上海市静安区阳城路280弄",121.43407185174,31.2907746782822,2022-05-06
"静安区","上海市静安区阳曲路555弄",121.465831622706,31.3216133375972,2022-05-06
"静安区","上海市静安区阳曲路650弄",121.467093023303,31.3228909076496,2022-05-06
"静安区","上海市静安区永兴路595弄",121.47292419386,31.2572717067993,2022-05-06
"静安区","上海市静安区永兴路973弄",121.466076051635,31.2578379285958,2022-05-06
"静安区","上海市静安区永兴小马路18号",121.47073457418,31.2564572890875,2022-05-06
"静安区","上海市静安区余姚路19号",121.450305579763,31.2424839000546,2022-05-06
"静安区","上海市静安区余姚路487弄",121.442623360872,31.2386428955558,2022-05-06
"静安区","上海市静安区俞泾港路15弄",121.471670339029,31.2724078726453,2022-05-06
"静安区","上海市静安区止园路355号",121.475735171462,31.2654880305429,2022-05-06
"静安区","上海市静安区止园路400弄",121.474177150385,31.2665367231739,2022-05-06
"静安区","上海市静安区芷江西路123弄",121.47196390527,31.2651924035841,2022-05-06
"静安区","上海市静安区芷江西路192号",121.470417651996,31.2637746775902,2022-05-06
"静安区","上海市静安区芷江西路230号",121.468637839289,31.2636664103459,2022-05-06
"静安区","上海市静安区芷江西路26弄",121.472402997003,31.2637398746622,2022-05-06
"静安区","上海市静安区芷江西路285弄",121.46675184687,31.2636787572939,2022-05-06
"静安区","上海市静安区芷江西路393弄",121.464417689833,31.2643917136024,2022-05-06
"静安区","上海市静安区芷江西路667号",121.460039977592,31.2623536117971,2022-05-06
"静安区","上海市静安区芷江中路413弄",121.476515439628,31.2656527046166,2022-05-06
"静安区","上海市静安区芷江中路459弄",121.476189264897,31.2652190262538,2022-05-06
"静安区","上海市静安区芷江中路493弄",121.475481759478,31.265302366736,2022-05-06
"静安区","上海市静安区芷江中路495弄",121.475065933857,31.2651332935135,2022-05-06
"静安区","上海市静安区芷江中路531弄",121.474920498195,31.2645193491074,2022-05-06
"静安区","上海市静安区芷江中路680号",121.474511409866,31.2639051691626,2022-05-06
"静安区","上海市静安区中华新路455弄",121.4744274183,31.2614964089054,2022-05-06
"静安区","上海市静安区中华新路487号",121.47132314395,31.2599306891604,2022-05-06
"静安区","上海市静安区中华新路489号",121.471178426932,31.2599163352576,2022-05-06
"静安区","上海市静安区中华新路706号",121.466794965535,31.2597231747271,2022-05-06
"静安区","上海市静安区中华新路718号",121.4666099146,31.2597568215762,2022-05-06
"静安区","上海市静安区中华新路730弄",121.466466634871,31.2596556494775,2022-05-06
"静安区","上海市静安区中华新路793弄",121.464296059267,31.2602477863762,2022-05-06
"静安区","上海市静安区中华新路893弄",121.46198462936,31.2612283963409,2022-05-06
"静安区","上海市静安区中山北路1038号",121.457717139204,31.2645253681897,2022-05-06
"静安区","上海市静安区中山北路805弄",121.464330194877,31.2677061674839,2022-05-06
"静安区","上海市静安区中山北路814弄",121.464484433933,31.2658025624015,2022-05-06
"静安区","上海市静安区中山北路831号",121.464042262295,31.2663430141169,2022-05-06
"静安区","上海市静安区中山北路899弄",121.462151804015,31.2686750473735,2022-05-06
"静安区","上海市静安区中兴路1055号",121.472398774967,31.258773958169,2022-05-06
"静安区","上海市静安区中兴路1279弄",121.468457908695,31.2589530752997,2022-05-06
"静安区","上海市静安区中兴路1321弄",121.468296123873,31.2585743899491,2022-05-06
"静安区","上海市静安区中兴路1377弄",121.467328109855,31.2590294758672,2022-05-06
"静安区","上海市静安区中兴路1385弄",121.467360628515,31.2589000578996,2022-05-06
"静安区","上海市静安区中兴路1394弄",121.467002204616,31.2582640782703,2022-05-06
"静安区","上海市静安区中兴路1395弄",121.466589163743,31.2585638944702,2022-05-06
"静安区","上海市静安区中兴路1397号",121.466409233149,31.2587498031828,2022-05-06
"静安区","上海市静安区中兴路457号",121.481458365697,31.2635903222432,2022-05-06
"徐汇区","上海市徐汇区宾南路36弄",121.442653004954,31.166843877453,2022-05-06
"徐汇区","上海市徐汇区漕溪路222号",121.440895290563,31.1778177437565,2022-05-06
"徐汇区","上海市徐汇区漕溪一村",121.443510976547,31.1794268550151,2022-05-06
"徐汇区","上海市徐汇区蝶山路125弄",121.443396352764,31.1945567728227,2022-05-06
"徐汇区","上海市徐汇区东安二村",121.45997781485,31.1928310771145,2022-05-06
"徐汇区","上海市徐汇区东安四村",121.456663067518,31.1926611778501,2022-05-06
"徐汇区","上海市徐汇区东安五村",121.459093516133,31.1907246652838,2022-05-06
"徐汇区","上海市徐汇区东安一村",121.463765520033,31.1953510331687,2022-05-06
"徐汇区","上海市徐汇区东泉路105弄",121.450730657931,31.1621501546563,2022-05-06
"徐汇区","上海市徐汇区丰谷路185弄",121.462960009482,31.1763159692049,2022-05-06
"徐汇区","上海市徐汇区桂江路77弄",121.435059628478,31.1721788780382,2022-05-06
"徐汇区","上海市徐汇区桂林路303弄",121.424907518588,31.1752011507849,2022-05-06
"徐汇区","上海市徐汇区桂林路575号",121.42160804245,31.1848929000286,2022-05-06
"徐汇区","上海市徐汇区虹桥路400弄",121.436434664723,31.1985869277211,2022-05-06
"徐汇区","上海市徐汇区虹桥路693弄",121.431831298137,31.2018613974462,2022-05-06
"徐汇区","上海市徐汇区虹桥路市民村",121.437271975288,31.2027068691141,2022-05-06
"徐汇区","上海市徐汇区华展路55弄",121.459532973962,31.1180969046061,2022-05-06
"徐汇区","上海市徐汇区淮海中路1670弄",121.448731029865,31.2134242925197,2022-05-06
"徐汇区","上海市徐汇区嘉善路169弄",121.466752206193,31.2151824996543,2022-05-06
"徐汇区","上海市徐汇区凯旋路3188弄",121.437717804313,31.1900508686124,2022-05-06
"徐汇区","上海市徐汇区康健路100弄",121.434161322968,31.1710799228616,2022-05-06
"徐汇区","上海市徐汇区老沪闵路1296弄",121.44694492902,31.1273331868082,2022-05-06
"徐汇区","上海市徐汇区乐山支路8弄",121.443396352764,31.1945567728227,2022-05-06
"徐汇区","上海市徐汇区零陵路639号",121.452161838269,31.1937486822708,2022-05-06
"徐汇区","上海市徐汇区零陵路687号",121.449995933854,31.192111397165,2022-05-06
"徐汇区","上海市徐汇区柳州路460号",121.429827178544,31.178442066447,2022-05-06
"徐汇区","上海市徐汇区柳州路588号",121.427034706036,31.1834862373794,2022-05-06
"徐汇区","上海市徐汇区龙漕路160弄",121.445694757242,31.1732751940755,2022-05-06
"徐汇区","上海市徐汇区龙漕路235弄",121.448691145101,31.177672611114,2022-05-06
"徐汇区","上海市徐汇区龙漕路51弄",121.443384584962,31.1751147176246,2022-05-06
"徐汇区","上海市徐汇区龙华路2381弄",121.457359344119,31.1876758101734,2022-05-06
"徐汇区","上海市徐汇区龙华西路125号",121.456344079232,31.1791362855346,2022-05-06
"徐汇区","上海市徐汇区龙华西路21弄",121.454790729344,31.1750608803076,2022-05-06
"徐汇区","上海市徐汇区龙南三村",121.462678031383,31.1624058589018,2022-05-06
"徐汇区","上海市徐汇区龙水北路900弄",121.451689688893,31.1774242862473,2022-05-06
"徐汇区","上海市徐汇区龙水北路960弄",121.452796311451,31.1777578833271,2022-05-06
"徐汇区","上海市徐汇区龙水南路385弄",121.459578967204,31.1600556711705,2022-05-06
"徐汇区","上海市徐汇区龙吴路1323弄",121.456191996109,31.1473358868488,2022-05-06
"徐汇区","上海市徐汇区龙吴路2388弄",121.46634913651,31.1289552194858,2022-05-06
"徐汇区","上海市徐汇区龙吴路988弄",121.45732853224,31.1553440712405,2022-05-06
"徐汇区","上海市徐汇区罗城路651弄",121.442901027106,31.1556417448677,2022-05-06
"徐汇区","上海市徐汇区南丹路333弄",121.436679902127,31.1965904828723,2022-05-06
"徐汇区","上海市徐汇区南宁路501弄",121.449311245394,31.1712522558279,2022-05-06
"徐汇区","上海市徐汇区钦州路900号",121.432063150789,31.1847335673685,2022-05-06
"徐汇区","上海市徐汇区三江路16号",121.444607807575,31.1745265220184,2022-05-06
"徐汇区","上海市徐汇区石龙路345弄",121.447770202292,31.1598419867287,2022-05-06
"徐汇区","上海市徐汇区石龙路885弄",121.437699838203,31.1554998999869,2022-05-06
"徐汇区","上海市徐汇区双峰北路8弄",121.443396352764,31.1945567728227,2022-05-06
"徐汇区","上海市徐汇区天钥桥路859号",121.450308993324,31.1898528528381,2022-05-06
"徐汇区","上海市徐汇区天钥新村",121.452930158972,31.1920618943491,2022-05-06
"徐汇区","上海市徐汇区田林东路411弄",121.433535293859,31.178894838758,2022-05-06
"徐汇区","上海市徐汇区田林东路414弄",121.432183254236,31.1800417440273,2022-05-06
"徐汇区","上海市徐汇区田林十三村",121.431878818498,31.1799641976388,2022-05-06
"徐汇区","上海市徐汇区田林十一村",121.431996137198,31.1784792182662,2022-05-06
"徐汇区","上海市徐汇区宛南华侨新村",121.456842369298,31.1870543293163,2022-05-06
"徐汇区","上海市徐汇区宛平南路383号",121.454073432394,31.1973549178509,2022-05-06
"徐汇区","上海市徐汇区宛平南路389弄",121.454731710672,31.1974452688808,2022-05-06
"徐汇区","上海市徐汇区宛平南路921弄",121.458703837976,31.1900820691877,2022-05-06
"徐汇区","上海市徐汇区宛平南路968弄",121.458578793849,31.1893078439228,2022-05-06
"徐汇区","上海市徐汇区宛平南路970号",121.458863107543,31.1887666161187,2022-05-06
"徐汇区","上海市徐汇区文定路211号",121.438255170669,31.1910423313181,2022-05-06
"徐汇区","上海市徐汇区五原路228弄",121.451456488783,31.2189446369884,2022-05-06
"徐汇区","上海市徐汇区小木桥路360弄",121.466127973694,31.2007678867869,2022-05-06
"徐汇区","上海市徐汇区斜土路1620号",121.464444189846,31.2024620082078,2022-05-06
"徐汇区","上海市徐汇区斜土路1899弄",121.459789530015,31.2014132920514,2022-05-06
"徐汇区","上海市徐汇区斜土路2200弄",121.457232593212,31.1974553078788,2022-05-06
"徐汇区","上海市徐汇区斜土路2588号",121.450418766258,31.1939031343676,2022-05-06
"徐汇区","上海市徐汇区秀山路15弄",121.436417147765,31.2012719797212,2022-05-06
"徐汇区","上海市徐汇区炎虹路71弄",121.444699704228,31.2079404538333,2022-05-06
"徐汇区","上海市徐汇区永康路141弄",121.462036371757,31.2160868377597,2022-05-06
"徐汇区","上海市徐汇区永康路157弄",121.462749805993,31.2163281887047,2022-05-06
"徐汇区","上海市徐汇区裕德路66弄",121.441771138435,31.1908449354668,2022-05-06
"徐汇区","上海市徐汇区云锦路50弄",121.462366678693,31.1799079687433,2022-05-06
"徐汇区","上海市徐汇区中山南二路1057弄",121.450124301711,31.1857877220443,2022-05-06
"长宁区","上海市长宁区安龙路929弄",121.393242249361,31.2174643673281,2022-05-06
"长宁区","上海市长宁区安顺路246号",121.420932426876,31.2064600101894,2022-05-06
"长宁区","上海市长宁区长宁路1661弄",121.413571442035,31.2229355274756,2022-05-06
"长宁区","上海市长宁区长宁路476弄",121.431701043838,31.2294174956496,2022-05-06
"长宁区","上海市长宁区长宁路491弄住宅",121.43327298865,31.2287608582192,2022-05-06
"长宁区","上海市长宁区长宁支路139号",121.432722596864,31.2332959318434,2022-05-06
"长宁区","上海市长宁区程家桥路80弄住宅",121.378344481292,31.1946983269584,2022-05-06
"长宁区","上海市长宁区定西路390弄",121.429820890405,31.2084722279865,2022-05-06
"长宁区","上海市长宁区定西路410弄",121.429911978584,31.2088766739123,2022-05-06
"长宁区","上海市长宁区定西路420弄",121.429561190282,31.209205603446,2022-05-06
"长宁区","上海市长宁区定西路439弄",121.429174918913,31.2090782012989,2022-05-06
"长宁区","上海市长宁区法华镇路20弄",121.432390942469,31.2108540171721,2022-05-06
"长宁区","上海市长宁区法华镇路315弄",121.434948687748,31.210168294794,2022-05-06
"长宁区","上海市长宁区芙蓉江路388弄",121.40136589558,31.2210500800978,2022-05-06
"长宁区","上海市长宁区甘溪路368弄",121.366299462031,31.2176144567593,2022-05-06
"长宁区","上海市长宁区江苏路581弄",121.439368710179,31.2218482075325,2022-05-06
"长宁区","上海市长宁区娄山关路810弄",121.412385409271,31.2189935079549,2022-05-06
"长宁区","上海市长宁区娄山关路988弄",121.411756775075,31.2220800476853,2022-05-06
"长宁区","上海市长宁区番禺路222弄住宅",121.434896945351,31.2133344973731,2022-05-06
"长宁区","上海市长宁区泉口路109弄",121.378231025306,31.2177088801825,2022-05-06
"长宁区","上海市长宁区淞虹路685弄",121.367611347398,31.2187369543972,2022-05-06
"长宁区","上海市长宁区天山二村",121.413333211414,31.2137112812456,2022-05-06
"长宁区","上海市长宁区万航渡路1424弄",121.427913877638,31.2312131508476,2022-05-06
"长宁区","上海市长宁区万航渡路1579弄",121.422559437815,31.2299354840699,2022-05-06
"长宁区","上海市长宁区新华路569弄",121.428229542194,31.2098415306016,2022-05-06
"长宁区","上海市长宁区新泾四村",121.373793396087,31.2225993119579,2022-05-06
"长宁区","上海市长宁区延安西路1228弄",121.434241361989,31.2161508429174,2022-05-06
"长宁区","上海市长宁区愚园路1088弄住宅",121.434743694431,31.2274153778277,2022-05-06
"长宁区","上海市长宁区愚园路1355弄住宅",121.430261060105,31.2249599748536,2022-05-06
"长宁区","上海市长宁区玉屏南路476弄",121.411729107265,31.2196844156193,2022-05-06
"长宁区","上海市长宁区昭化路518弄",121.426547285466,31.2171740702145,2022-05-06
"长宁区","上海市长宁区中华新村",121.425393052716,31.2043622695753,2022-05-06
"普陀区","上海市普陀区曹杨二村",121.411745007272,31.2501018398094,2022-05-06
"普陀区","上海市普陀区曹杨三村",121.410439140553,31.2445998508596,2022-05-06
"普陀区","上海市普陀区曹杨路1222弄",121.415226659768,31.2528654471373,2022-05-06
"普陀区","上海市普陀区长风二村",121.408447417576,31.2403716835701,2022-05-06
"普陀区","上海市普陀区长寿路790号",121.437746011106,31.2430509060859,2022-05-06
"普陀区","上海市普陀区大渡河路1262弄",121.402631428382,31.2431244637904,2022-05-06
"普陀区","上海市普陀区甘泉一村",121.438465374158,31.2707049092188,2022-05-06
"普陀区","上海市普陀区华池路25号",121.436157447642,31.2623857914789,2022-05-06
"普陀区","上海市普陀区黄陵路151弄",121.432570154419,31.267895916256,2022-05-06
"普陀区","上海市普陀区交通西路188弄",121.454282917239,31.2635204847313,2022-05-06
"普陀区","上海市普陀区金沙江路895弄",121.400264034041,31.2372700775619,2022-05-06
"普陀区","上海市普陀区梅川路1111弄",121.39459851102,31.2454825248747,2022-05-06
"普陀区","上海市普陀区梅川路999弄",121.395785531921,31.2442035093011,2022-05-06
"普陀区","上海市普陀区宁川路139弄",121.423222263187,31.257674259741,2022-05-06
"普陀区","上海市普陀区普陀一村",121.428633510182,31.2421393414841,2022-05-06
"普陀区","上海市普陀区石岚三村",121.428764303465,31.257962794819,2022-05-06
"普陀区","上海市普陀区石泉一村",121.433798497373,31.2584545407707,2022-05-06
"普陀区","上海市普陀区石泉五村",121.433422017534,31.2593868599144,2022-05-06
"普陀区","上海市普陀区石泉六村",121.43401157544,31.2612888207783,2022-05-06
"普陀区","上海市普陀区石泉路130弄",121.432140225402,31.2571131146903,2022-05-06
"普陀区","上海市普陀区石泉路135弄",121.431647953982,31.2572742535316,2022-05-06
"普陀区","上海市普陀区石泉路180弄",121.43070203828,31.2566064670501,2022-05-06
"普陀区","上海市普陀区双山路101弄",121.431139243572,31.267560171013,2022-05-06
"普陀区","上海市普陀区泰山一村",121.453747616986,31.2664736784822,2022-05-06
"普陀区","上海市普陀区桃浦路1023弄",121.389095581297,31.2660287376247,2022-05-06
"普陀区","上海市普陀区武宁四村",121.432118371066,31.2499387423465,2022-05-06
"普陀区","上海市普陀区西乡路91弄",121.432053449089,31.2755637128216,2022-05-06
"普陀区","上海市普陀区新村路50弄",121.438774750576,31.2718808600946,2022-05-06
"普陀区","上海市普陀区延长西路220弄",121.4448222331,31.2706418673398,2022-05-06
"普陀区","上海市普陀区延长西路526弄",121.439877330759,31.2676746841205,2022-05-06
"普陀区","上海市普陀区延长西路540弄",121.439472015313,31.2661888579311,2022-05-06
"普陀区","上海市普陀区真光路1509号",121.389871627427,31.2533965801381,2022-05-06
"普陀区","上海市普陀区真金路577弄",121.41181956663,31.2802649453376,2022-05-06
"普陀区","上海市普陀区中华新路1188号",121.455109178647,31.2615619264007,2022-05-06
"虹口区","上海市虹口区安汾路780弄",121.479288059584,31.3214198419706,2022-05-06
"虹口区","上海市虹口区宝安路160弄",121.493788956279,31.2703028139582,2022-05-06
"虹口区","上海市虹口区宝安路290号",121.493185519553,31.2730579149969,2022-05-06
"虹口区","上海市虹口区宝山路625号",121.485703128723,31.2659816660607,2022-05-06
"虹口区","上海市虹口区保定路230号",121.51759513026,31.2632169031614,2022-05-06
"虹口区","上海市虹口区北苏州路400号",121.490087937578,31.2488658770524,2022-05-06
"虹口区","上海市虹口区长春路214弄",121.492241984361,31.2673317617003,2022-05-06
"虹口区","上海市虹口区长春路304号",121.491701563766,31.2690147239747,2022-05-06
"虹口区","上海市虹口区长阳路8号",121.514973156138,31.2592204770126,2022-05-06
"虹口区","上海市虹口区场中路4弄",121.511586454535,31.2697466989314,2022-05-06
"虹口区","上海市虹口区车站北路188弄",121.485035777559,31.3038721529709,2022-05-06
"虹口区","上海市虹口区车站北路507弄",121.479871688674,31.3026197773295,2022-05-06
"虹口区","上海市虹口区车站南路460弄",121.479078646236,31.3010179634506,2022-05-06
"虹口区","上海市虹口区赤峰路455号",121.492849598207,31.287998536951,2022-05-06
"虹口区","上海市虹口区大连西路145弄",121.50347807951,31.2818064067473,2022-05-06
"虹口区","上海市虹口区大连西路96号",121.502457065467,31.2835198147439,2022-05-06
"虹口区","上海市虹口区丹徒路377号",121.507984878253,31.262312171759,2022-05-06
"虹口区","上海市虹口区东汉阳路309弄",121.490924313861,31.2816194781201,2022-05-06
"虹口区","上海市虹口区东汉阳路338弄",121.502394184082,31.2567003880767,2022-05-06
"虹口区","上海市虹口区东汉阳路490号",121.504580030879,31.2581328842639,2022-05-06
"虹口区","上海市虹口区东体育会路100弄",121.491580831505,31.2837207184132,2022-05-06
"虹口区","上海市虹口区东体育会路119弄",121.489892735791,31.2795350588429,2022-05-06
"虹口区","上海市虹口区东体育会路880弄",121.494587280386,31.2904718024595,2022-05-06
"虹口区","上海市虹口区东余杭路211弄",121.515699392144,31.2672424482158,2022-05-06
"虹口区","上海市虹口区东余杭路600号",121.506333343573,31.2596256296651,2022-05-06
"虹口区","上海市虹口区东余杭路760弄",121.508237481763,31.2611712130251,2022-05-06
"虹口区","上海市虹口区东长治路340弄",121.501990844908,31.2543226984657,2022-05-06
"虹口区","上海市虹口区峨嵋路366弄",121.497242671473,31.257613199843,2022-05-06
"虹口区","上海市虹口区飞虹路187弄",121.508557009033,31.2674458892612,2022-05-06
"虹口区","上海市虹口区飞虹路237弄",121.508857492226,31.2682412287098,2022-05-06
"虹口区","上海市虹口区广灵二路264弄",121.48052313983,31.2902378946309,2022-05-06
"虹口区","上海市虹口区广粤路53弄",121.471481515211,31.2880905748618,2022-05-06
"虹口区","上海市虹口区广中四村",121.484319289085,31.2857588169526,2022-05-06
"虹口区","上海市虹口区海伦路188弄",121.500590206956,31.2628342222937,2022-05-06
"虹口区","上海市虹口区海伦路216号",121.499956721911,31.2630178846117,2022-05-06
"虹口区","上海市虹口区海伦路224号",121.499825748967,31.2630597101816,2022-05-06
"虹口区","上海市虹口区海伦路88弄",121.501954283873,31.2624168907771,2022-05-06
"虹口区","上海市虹口区海门路171弄",121.51390731665,31.2603381538695,2022-05-06
"虹口区","上海市虹口区海宁路302号",121.49306851526,31.2569369652319,2022-05-06
"虹口区","上海市虹口区海宁路5号",121.498231975332,31.2588018945989,2022-05-06
"虹口区","上海市虹口区恒业路387弄",121.479402413876,31.2716543903912,2022-05-06
"虹口区","上海市虹口区横浜路132号",121.485764842311,31.2691448224095,2022-05-06
"虹口区","上海市虹口区横浜路178弄",121.484536768849,31.2701984895933,2022-05-06
"虹口区","上海市虹口区花园路118弄",121.480143965074,31.2769288700081,2022-05-06
"虹口区","上海市虹口区华昌路68弄",121.484160648332,31.268321634242,2022-05-06
"虹口区","上海市虹口区华严路98弄",121.479414091847,31.3092319703283,2022-05-06
"虹口区","上海市虹口区溧阳路1114弄",121.492281599634,31.2678551731605,2022-05-06
"虹口区","上海市虹口区凉城路210弄",121.47639353957,31.2886319225815,2022-05-06
"虹口区","上海市虹口区凉城路2289号",121.478231382813,31.3158806376563,2022-05-06
"虹口区","上海市虹口区凉城路465弄",121.476451570106,31.2938344712965,2022-05-06
"虹口区","上海市虹口区凉城路847弄",121.477394970553,31.3045160754646,2022-05-06
"虹口区","上海市虹口区临平北路2号",121.499924203251,31.2684721822263,2022-05-06
"虹口区","上海市虹口区临平路172弄",121.505821339376,31.2658095331233,2022-05-06
"虹口区","上海市虹口区临平路20弄",121.502244795875,31.2678327953164,2022-05-06
"虹口区","上海市虹口区临平路25弄",121.503611558253,31.2675959634815,2022-05-06
"虹口区","上海市虹口区临平路30弄",121.504827244555,31.2663219697841,2022-05-06
"虹口区","上海市虹口区临平路60弄",121.498296024514,31.2685518930803,2022-05-06
"虹口区","上海市虹口区闵行路201号",121.497858280239,31.2526549842722,2022-05-06
"虹口区","上海市虹口区欧阳路289弄",121.49508359418,31.2740076423124,2022-05-06
"虹口区","上海市虹口区欧阳路322号",121.494235234457,31.2757063018111,2022-05-06
"虹口区","上海市虹口区欧阳路351弄",121.495397731617,31.2754525272084,2022-05-06
"虹口区","上海市虹口区曲阳路428弄",121.498217782105,31.2794215632951,2022-05-06
"虹口区","上海市虹口区曲阳路990弄",121.497929965019,31.2961838471889,2022-05-06
"虹口区","上海市虹口区瑞虹路10弄",121.505071224332,31.2678859619786,2022-05-06
"虹口区","上海市虹口区瑞虹路25弄",121.511586454535,31.2697466989314,2022-05-06
"虹口区","上海市虹口区瑞虹路40弄",121.504827244555,31.2663219697841,2022-05-06
"虹口区","上海市虹口区三门路719弄",121.4873020227,31.3186213983829,2022-05-06
"虹口区","上海市虹口区三门路750弄",121.488848814958,31.3170088193984,2022-05-06
"虹口区","上海市虹口区山阴路133弄",121.491399643284,31.2718487608447,2022-05-06
"虹口区","上海市虹口区山阴路229弄",121.492039665092,31.2732216305036,2022-05-06
"虹口区","上海市虹口区山阴路303弄",121.491829751962,31.2744373447429,2022-05-06
"虹口区","上海市虹口区山阴路340弄",121.491246212703,31.2739213003573,2022-05-06
"虹口区","上海市虹口区山阴路69弄",121.493980834336,31.270746114047,2022-05-06
"虹口区","上海市虹口区商业一村",121.482694883231,31.2815794981885,2022-05-06
"虹口区","上海市虹口区四川北路1350号",121.490990554955,31.2587623051253,2022-05-06
"虹口区","上海市虹口区四川北路1515弄",121.488911786174,31.261482363924,2022-05-06
"虹口区","上海市虹口区四川北路1689号",121.489279013466,31.2643998933921,2022-05-06
"虹口区","上海市虹口区四达路25弄",121.497927629425,31.2724273944294,2022-05-06
"虹口区","上海市虹口区四达路53号",121.497409307146,31.2726338003949,2022-05-06
"虹口区","上海市虹口区四平路621弄",121.500505496747,31.2777983535493,2022-05-06
"虹口区","上海市虹口区四平路850弄",121.507156820234,31.2789843225298,2022-05-06
"虹口区","上海市虹口区松花江路2501弄",121.506720692909,31.2957383535954,2022-05-06
"虹口区","上海市虹口区唐山路577弄",121.511964461493,31.2612707629046,2022-05-06
"虹口区","上海市虹口区唐山路708弄",121.513964628542,31.2628658616263,2022-05-06
"虹口区","上海市虹口区唐山路725弄",121.513919264113,31.2633464694884,2022-05-06
"虹口区","上海市虹口区天宝路881号",121.506935837079,31.2765518778232,2022-05-06
"虹口区","上海市虹口区天宝西路231弄",121.502506023118,31.2800709010176,2022-05-06
"虹口区","上海市虹口区天宝西路252弄",121.499073058781,31.2790654132163,2022-05-06
"虹口区","上海市虹口区甜爱路200号",121.490726812457,31.2750801586046,2022-05-06
"虹口区","上海市虹口区通州路188号",121.502826987676,31.2638528490862,2022-05-06
"虹口区","上海市虹口区同心路125弄",121.48450595697,31.2729028604958,2022-05-06
"虹口区","上海市虹口区同心路189弄",121.528908749175,31.2712579320553,2022-05-06
"虹口区","上海市虹口区同心路93弄",121.485367791276,31.272135493177,2022-05-06
"虹口区","上海市虹口区文治路8弄",121.511586454535,31.2697466989314,2022-05-06
"虹口区","上海市虹口区汶水东路717弄",121.475433789963,31.2990803908113,2022-05-06
"虹口区","上海市虹口区吴淞路48号",121.496295138822,31.250663628645,2022-05-06
"虹口区","上海市虹口区梧州路299弄",121.498478919516,31.2612398947362,2022-05-06
"虹口区","上海市虹口区梧州路369号",121.499278680912,31.2624988447094,2022-05-06
"虹口区","上海市虹口区武进路266号",121.492135804649,31.2580806381289,2022-05-06
"虹口区","上海市虹口区武进路85号",121.495299995978,31.2587898556964,2022-05-06
"虹口区","上海市虹口区物华路98弄",121.500522744213,31.2646287728779,2022-05-06
"虹口区","上海市虹口区西宝兴路949弄",121.475029552484,31.2755931874033,2022-05-06
"虹口区","上海市虹口区西江湾路18弄",121.483806895622,31.2718327883773,2022-05-06
"虹口区","上海市虹口区祥德路274弄",121.496357930377,31.2767046501159,2022-05-06
"虹口区","上海市虹口区祥德路96弄",121.49204139274,31.2769205370004,2022-05-06
"虹口区","上海市虹口区新港路143号",121.508819853225,31.2740850336485,2022-05-06
"虹口区","上海市虹口区新港路18号",121.511162723826,31.2745868797992,2022-05-06
"虹口区","上海市虹口区新市南路546弄",121.487490577027,31.29938670995,2022-05-06
"虹口区","上海市虹口区新市南路585号",121.487687036442,31.300873859263,2022-05-06
"虹口区","上海市虹口区逸仙路288弄",121.49374179524,31.3044427203593,2022-05-06
"虹口区","上海市虹口区玉田路418号",121.495413811286,31.285124486021,2022-05-06
"虹口区","上海市虹口区玉田路422号",121.495271429862,31.2851330497487,2022-05-06
"虹口区","上海市虹口区岳州路371弄",121.509700192625,31.2680395972577,2022-05-06
"虹口区","上海市虹口区粤秀路351号",121.467802055842,31.2942444881281,2022-05-06
"虹口区","上海市虹口区乍浦路252弄",121.49399457841,31.2547774963818,2022-05-06
"虹口区","上海市虹口区中山北一路189弄",121.528908749175,31.2712579320553,2022-05-06
"虹口区","上海市虹口区中山北一路190号",121.484769968959,31.279695541775,2022-05-06
"虹口区","上海市虹口区周家嘴路1050号",121.513881355621,31.2677103343989,2022-05-06
"虹口区","上海市虹口区周家嘴路1063弄",121.513244007862,31.2677877309521,2022-05-06
"虹口区","上海市虹口区株洲路300弄",121.471483671144,31.2847795445872,2022-05-06
"杨浦区","上海市杨浦区安图路18弄",121.550365045773,31.2965351492087,2022-05-06
"杨浦区","上海市杨浦区鞍山六村",121.511773391911,31.2797154478117,2022-05-06
"杨浦区","上海市杨浦区鞍山五村",121.512357739645,31.280881332354,2022-05-06
"杨浦区","上海市杨浦区鞍山一村",121.51893360547,31.2822556701795,2022-05-06
"杨浦区","上海市杨浦区包头南路588弄",121.546878362766,31.3061001768474,2022-05-06
"杨浦区","上海市杨浦区波阳路301号",121.559337141545,31.2798919015258,2022-05-06
"杨浦区","上海市杨浦区长白三村",121.545561267227,31.2948411114723,2022-05-06
"杨浦区","上海市杨浦区长海路174号",121.532331678156,31.3144145296862,2022-05-06
"杨浦区","上海市杨浦区长阳路1841弄",121.542167828333,31.2782642248857,2022-05-06
"杨浦区","上海市杨浦区长阳路1969弄",121.545684065591,31.2780735712958,2022-05-06
"杨浦区","上海市杨浦区长阳路2087弄",121.547326347724,31.2789915751725,2022-05-06
"杨浦区","上海市杨浦区长阳路2121弄",121.548115239623,31.2801079353523,2022-05-06
"杨浦区","上海市杨浦区大连路1188弄",121.513257482444,31.2734354228267,2022-05-06
"杨浦区","上海市杨浦区大连路1288弄",121.513601533455,31.2735416725836,2022-05-06
"杨浦区","上海市杨浦区飞虹路600弄",121.515889068436,31.2714573188635,2022-05-06
"杨浦区","上海市杨浦区飞虹路656弄",121.51813150848,31.2723489986236,2022-05-06
"杨浦区","上海市杨浦区飞虹路720弄",121.518703100276,31.273645993215,2022-05-06
"杨浦区","上海市杨浦区凤城二村",121.525134338914,31.2841340200324,2022-05-06
"杨浦区","上海市杨浦区凤城三村",121.528297991259,31.2878228700411,2022-05-06
"杨浦区","上海市杨浦区凤城五村",121.524367006347,31.2880868717456,2022-05-06
"杨浦区","上海市杨浦区工农三村",121.541521317857,31.3293141220466,2022-05-06
"杨浦区","上海市杨浦区共青路119弄",121.56869272394,31.283427000806,2022-05-06
"杨浦区","上海市杨浦区共青路35号",121.569021593587,31.2807186139838,2022-05-06
"杨浦区","上海市杨浦区广远新村",121.554803303806,31.2939797324045,2022-05-06
"杨浦区","上海市杨浦区国定路700弄",121.510448660776,31.3124036110551,2022-05-06
"杨浦区","上海市杨浦区国权北路10弄",121.502048785613,31.3158661381029,2022-05-06
"杨浦区","上海市杨浦区国权路29号",121.525774830742,31.2945352402704,2022-05-06
"杨浦区","上海市杨浦区国权路37号",121.52546311873,31.2943402227488,2022-05-06
"杨浦区","上海市杨浦区国顺路128弄",121.521402508334,31.2964261485259,2022-05-06
"杨浦区","上海市杨浦区邯郸路500弄",121.518814400329,31.3055654868233,2022-05-06
"杨浦区","上海市杨浦区邯郸路50弄",121.49835558217,31.3002975618259,2022-05-06
"杨浦区","上海市杨浦区杭州路877号",121.552475524738,31.2739696024796,2022-05-06
"杨浦区","上海市杨浦区黄兴路1039弄",121.530002525964,31.2861163302003,2022-05-06
"杨浦区","上海市杨浦区黄兴路2053弄",121.523491787289,31.3019419786974,2022-05-06
"杨浦区","上海市杨浦区江浦路1315弄",121.525653110346,31.2769588842612,2022-05-06
"杨浦区","上海市杨浦区江浦路740弄",121.531507906338,31.2682775732536,2022-05-06
"杨浦区","上海市杨浦区锦西路150弄",121.515869395545,31.2804642357643,2022-05-06
"杨浦区","上海市杨浦区锦西路63弄",121.518837037628,31.2828117107301,2022-05-06
"杨浦区","上海市杨浦区军工路2850号",121.548575172044,31.3384399053913,2022-05-06
"杨浦区","上海市杨浦区开鲁二村",121.534190965235,31.3281462206896,2022-05-06
"杨浦区","上海市杨浦区开鲁路500号",121.534246211024,31.3310269661566,2022-05-06
"杨浦区","上海市杨浦区开鲁四村",121.536914986863,31.3320019746491,2022-05-06
"杨浦区","上海市杨浦区控江二村",121.532540867844,31.2855664042064,2022-05-06
"杨浦区","上海市杨浦区控江六村",121.536623037573,31.2906119000075,2022-05-06
"杨浦区","上海市杨浦区控江路128弄",121.55572999577,31.2962762627364,2022-05-06
"杨浦区","上海市杨浦区控江路1665号",121.523710973833,31.2796238645764,2022-05-06
"杨浦区","上海市杨浦区控江路645弄",121.546244428568,31.2903392650481,2022-05-06
"杨浦区","上海市杨浦区控江路802弄",121.542783347268,31.289124895756,2022-05-06
"杨浦区","上海市杨浦区控江路874弄",121.542602248878,31.2890396478423,2022-05-06
"杨浦区","上海市杨浦区控江路888弄",121.540224254532,31.2898464525802,2022-05-06
"杨浦区","上海市杨浦区控江路980弄",121.537974897535,31.2866645556676,2022-05-06
"杨浦区","上海市杨浦区控江七村",121.538589967317,31.289141868182,2022-05-06
"杨浦区","上海市杨浦区控江三村",121.538019453488,31.2910628954221,2022-05-06
"杨浦区","上海市杨浦区控江五村",121.536617288417,31.2934922620784,2022-05-06
"杨浦区","上海市杨浦区兰州路1101弄",121.533270561409,31.2725956056805,2022-05-06
"杨浦区","上海市杨浦区眉州路432弄",121.541669448436,31.2693939843272,2022-05-06
"杨浦区","上海市杨浦区民府路203号",121.521737420357,31.3185852684279,2022-05-06
"杨浦区","上海市杨浦区民府路229号",121.521149908214,31.3182070984671,2022-05-06
"杨浦区","上海市杨浦区民京路187号",121.532140503344,31.3283916403757,2022-05-06
"杨浦区","上海市杨浦区内江路260号",121.553411469249,31.2860080117001,2022-05-06
"杨浦区","上海市杨浦区内江一村",121.548219622723,31.2906504730841,2022-05-06
"杨浦区","上海市杨浦区内江支路260号",121.5548056394,31.2868870543619,2022-05-06
"杨浦区","上海市杨浦区嫩江路857号",121.5456708605,31.3206577321335,2022-05-06
"杨浦区","上海市杨浦区平凉路1889弄",121.550238654187,31.2758177185974,2022-05-06
"杨浦区","上海市杨浦区平凉路1988弄",121.552924767323,31.2765466310935,2022-05-06
"杨浦区","上海市杨浦区平凉路2545弄",121.545825458878,31.2725263921886,2022-05-06
"杨浦区","上海市杨浦区平凉路2678号",121.561682976554,31.2832188441909,2022-05-06
"杨浦区","上海市杨浦区平凉路2767弄",121.563338463778,31.2847027793218,2022-05-06
"杨浦区","上海市杨浦区齐齐哈尔路872号",121.531838931918,31.2719571729307,2022-05-06
"杨浦区","上海市杨浦区虬江码头路2号",121.561666807055,31.3158294264576,2022-05-06
"杨浦区","上海市杨浦区虬江码头路5号",121.562331373471,31.3162778319921,2022-05-06
"杨浦区","上海市杨浦区三门路318弄",121.498531560219,31.315378242242,2022-05-06
"杨浦区","上海市杨浦区三门路358弄",121.499199540196,31.3169780467797,2022-05-06
"杨浦区","上海市杨浦区三门路510弄",121.497130203624,31.3170668940121,2022-05-06
"杨浦区","上海市杨浦区世界路65弄",121.532089828647,31.3248570480485,2022-05-06
"杨浦区","上海市杨浦区市光路132弄",121.539573119579,31.329899823887,2022-05-06
"杨浦区","上海市杨浦区市光路146弄",121.539640256777,31.3300086207401,2022-05-06
"杨浦区","上海市杨浦区市光路176号",121.541568838219,31.3266541080579,2022-05-06
"杨浦区","上海市杨浦区市光一村",121.542728011649,31.322038964866,2022-05-06
"杨浦区","上海市杨浦区双辽路200弄",121.522798924249,31.2784074270024,2022-05-06
"杨浦区","上海市杨浦区双辽新村",121.522975980265,31.2778964197359,2022-05-06
"杨浦区","上海市杨浦区双辽支路60弄",121.522703434373,31.2757845404824,2022-05-06
"杨浦区","上海市杨浦区双辽支路70弄",121.523448129641,31.276463300642,2022-05-06
"杨浦区","上海市杨浦区双阳路160弄",121.542540984442,31.2802009068989,2022-05-06
"杨浦区","上海市杨浦区双阳路300弄",121.54121032449,31.2810000726074,2022-05-06
"杨浦区","上海市杨浦区双阳路50弄",121.544640683741,31.2780455634713,2022-05-06
"杨浦区","上海市杨浦区双阳路666弄",121.533686476861,31.2936134548914,2022-05-06
"杨浦区","上海市杨浦区顺平路59弄",121.562105359805,31.2894527716214,2022-05-06
"杨浦区","上海市杨浦区四平路1950弄",121.518289430589,31.2963729981114,2022-05-06
"杨浦区","上海市杨浦区四平路2100弄",121.51909826487,31.2991912397318,2022-05-06
"杨浦区","上海市杨浦区四平路2152号",121.520016692424,31.3003014187339,2022-05-06
"杨浦区","上海市杨浦区松花江路337号",121.536840876659,31.2958337781164,2022-05-06
"杨浦区","上海市杨浦区铁岭路50弄",121.521781323767,31.285505069667,2022-05-06
"杨浦区","上海市杨浦区图们路10弄",121.554476859583,31.2981416795382,2022-05-06
"杨浦区","上海市杨浦区武川路220弄",121.503194664121,31.3066710391411,2022-05-06
"杨浦区","上海市杨浦区翔殷路498号",121.543325654305,31.3130571156105,2022-05-06
"杨浦区","上海市杨浦区翔殷路500弄",121.542882430366,31.3129806821146,2022-05-06
"杨浦区","上海市杨浦区许昌路1128弄",121.524187345245,31.2717151167335,2022-05-06
"杨浦区","上海市杨浦区延吉东路125弄",121.551134713934,31.3005349927899,2022-05-06
"杨浦区","上海市杨浦区延吉东路137弄",121.551377615743,31.299151281681,2022-05-06
"杨浦区","上海市杨浦区延吉东路315弄",121.549041033281,31.2958488979183,2022-05-06
"杨浦区","上海市杨浦区延吉七村",121.539477852483,31.2967516073705,2022-05-06
"杨浦区","上海市杨浦区延吉西路80弄",121.528916205111,31.2866091623597,2022-05-06
"杨浦区","上海市杨浦区延吉一村",121.544335439529,31.2910495491984,2022-05-06
"杨浦区","上海市杨浦区延吉中路117弄",121.541784611202,31.2898969837216,2022-05-06
"杨浦区","上海市杨浦区营口路866弄",121.538992138694,31.3082798631669,2022-05-06
"杨浦区","上海市杨浦区政本路119号",121.521906098403,31.2970031641402,2022-05-06
"杨浦区","上海市杨浦区政立路505弄",121.509929979174,31.3151742445596,2022-05-06
"杨浦区","上海市杨浦区政立路580弄",121.512733590671,31.3135501911377,2022-05-06
"杨浦区","上海市杨浦区政立路821弄",121.501450154821,31.3138929438084,2022-05-06
"杨浦区","上海市杨浦区周家嘴路1299弄",121.517243802975,31.2693527789026,2022-05-06
"杨浦区","上海市杨浦区周家嘴路1683弄",121.519401083658,31.2720529304051,2022-05-06
"杨浦区","上海市杨浦区周家嘴路2200号",121.524248160528,31.2741151259752,2022-05-06
"杨浦区","上海市杨浦区周家嘴路3109弄",121.53757793633,31.2820718142225,2022-05-06
"杨浦区","上海市杨浦区周家嘴路4440号",121.560229967392,31.2918178411316,2022-05-06
"宝山区","上海市宝山区爱辉路28弄",121.45973320626,31.3347666280896,2022-05-06
"宝山区","上海市宝山区爱辉路701号",121.454273574862,31.3516444795868,2022-05-06
"宝山区","上海市宝山区宝安公路2145号",121.355202873727,31.3553998117508,2022-05-06
"宝山区","上海市宝山区宝菊路22弄",121.496563013525,31.4102794734761,2022-05-06
"宝山区","上海市宝山区宝菊路133弄",121.372532983626,31.3487728523517,2022-05-06
"宝山区","上海市宝山区宝祁路399号",121.356093004657,31.3082277222154,2022-05-06
"宝山区","上海市宝山区宝杨路1850号",121.4824354526,31.3978133409719,2022-05-06
"宝山区","上海市宝山区宝杨路3184弄",121.446309916855,31.3800418124471,2022-05-06
"宝山区","上海市宝山区宝杨路3410弄",121.43788201456,31.3784037062244,2022-05-06
"宝山区","上海市宝山区长江路180号",121.504505381691,31.3573107628981,2022-05-06
"宝山区","上海市宝山区长江路860弄",121.491817624838,31.3496387366587,2022-05-06
"宝山区","上海市宝山区长江西路366号",121.482481715333,31.3492579328189,2022-05-06
"宝山区","上海市宝山区长江西路1301号",121.46220471421,31.3439711383886,2022-05-06
"宝山区","上海市宝山区长临路1318弄",121.436997363294,31.3343227838632,2022-05-06
"宝山区","上海市宝山区长逸路128号",121.501524444687,31.344404913436,2022-05-06
"宝山区","上海市宝山区场北路71弄",121.426553034621,31.3415822553612,2022-05-06
"宝山区","上海市宝山区城银路555弄",121.35643912177,31.3214720526675,2022-05-06
"宝山区","上海市宝山区城银路655弄",121.356097765676,31.322042743755,2022-05-06
"宝山区","上海市宝山区大华路1380弄",121.421726528947,31.291878245782,2022-05-06
"宝山区","上海市宝山区大华一路198号",121.420510762269,31.2759420206861,2022-05-06
"宝山区","上海市宝山区大康路61号",121.43585382038,31.3210875282974,2022-05-06
"宝山区","上海市宝山区大康路325号",121.432592162904,31.3242925436544,2022-05-06
"宝山区","上海市宝山区电台路398弄",121.39926601662,31.3591688685622,2022-05-06
"宝山区","上海市宝山区东太路80弄",121.374520394736,31.3930897542039,2022-05-06
"宝山区","上海市宝山区东太路399号",121.366970136925,31.3900390764037,2022-05-06
"宝山区","上海市宝山区飞云路21号",121.347003680016,31.4714655228966,2022-05-06
"宝山区","上海市宝山区富锦路885号",121.466558890847,31.4149515692422,2022-05-06
"宝山区","上海市宝山区富联路128弄",121.417062526739,31.3596168343045,2022-05-06
"宝山区","上海市宝山区富联路1588号",121.404058296854,31.3825624234577,2022-05-06
"宝山区","上海市宝山区富联路1666号",121.403334891427,31.3837680999225,2022-05-06
"宝山区","上海市宝山区富联三路66号",121.413380641945,31.3827651175385,2022-05-06
"宝山区","上海市宝山区富桥路99号",121.413668279369,31.3826796469704,2022-05-06
"宝山区","上海市宝山区高境路477弄",121.478486411747,31.3297647761417,2022-05-06
"宝山区","上海市宝山区高跃路133弄",121.479273417205,31.3246802166436,2022-05-06
"宝山区","上海市宝山区革新路20号",121.461494693534,31.3448660574274,2022-05-06
"宝山区","上海市宝山区共富路518弄",121.430432546627,31.3544044641904,2022-05-06
"宝山区","上海市宝山区共富路618号",121.427292519717,31.3536756974334,2022-05-06
"宝山区","上海市宝山区共和新路4703弄",121.457799513819,31.3245066238653,2022-05-06
"宝山区","上海市宝山区共和新路4719弄",121.453975337433,31.3253727337059,2022-05-06
"宝山区","上海市宝山区共康东路356号",121.465150617299,31.3291838761297,2022-05-06
"宝山区","上海市宝山区共康路88弄",121.450069594906,31.3271867492792,2022-05-06
"宝山区","上海市宝山区顾北东路39弄",121.422632380223,31.3672792509177,2022-05-06
"宝山区","上海市宝山区顾北路39弄",121.397512318937,31.3583952396337,2022-05-06
"宝山区","上海市宝山区顾北路448号",121.399344887843,31.35772111735,2022-05-06
"宝山区","上海市宝山区顾太路98号",121.405602663687,31.3508632657388,2022-05-06
"宝山区","上海市宝山区国权北路220弄",121.500215972881,31.3208582473677,2022-05-06
"宝山区","上海市宝山区国权北路290弄",121.50127714118,31.3224735360919,2022-05-06
"宝山区","上海市宝山区国权北路380弄",121.502040700863,31.3228412426915,2022-05-06
"宝山区","上海市宝山区国权北路828弄",121.502126309378,31.3330394329395,2022-05-06
"宝山区","上海市宝山区海江路667弄",121.4964400355,31.4017431871732,2022-05-06
"宝山区","上海市宝山区涵青路398弄",121.403730595004,31.3351294283062,2022-05-06
"宝山区","上海市宝山区呼兰路515弄",121.456625248856,31.3534205159343,2022-05-06
"宝山区","上海市宝山区虎林路99弄",121.467875267741,31.3333750968809,2022-05-06
"宝山区","上海市宝山区虎林路135弄",121.464830012062,31.3426499085214,2022-05-06
"宝山区","上海市宝山区虎林路518弄",121.462159798934,31.3462231074486,2022-05-06
"宝山区","上海市宝山区沪联路1666弄",121.361874550207,31.3660459538594,2022-05-06
"宝山区","上海市宝山区沪太路3717弄",121.407111547452,31.3514957618926,2022-05-06
"宝山区","上海市宝山区沪太路4201弄",121.410118445486,31.3421988541184,2022-05-06
"宝山区","上海市宝山区沪太路6545弄",121.409051897636,31.3254957659603,2022-05-06
"宝山区","上海市宝山区华灵路560弄",121.428640337304,31.2812123233274,2022-05-06
"宝山区","上海市宝山区华灵路839号",121.429223786733,31.28544419799,2022-05-06
"宝山区","上海市宝山区华灵路1681弄",121.415674375234,31.2867437109505,2022-05-06
"宝山区","上海市宝山区华灵路1781弄",121.414100094828,31.2877248142792,2022-05-06
"宝山区","上海市宝山区华灵路1895弄",121.409755889382,31.2885628752702,2022-05-06
"宝山区","上海市宝山区华灵路1900弄",121.411514052926,31.2848785292534,2022-05-06
"宝山区","上海市宝山区华秋路205号",121.386209954507,31.3284338596881,2022-05-06
"宝山区","上海市宝山区环镇北路699弄",121.407877712221,31.3147214375232,2022-05-06
"宝山区","上海市宝山区环镇北路1366弄",121.392566543957,31.3134802367362,2022-05-06
"宝山区","上海市宝山区吉浦路615弄",121.498600370421,31.3232672499504,2022-05-06
"宝山区","上海市宝山区集贤路2020弄",121.356412711588,31.4312786753804,2022-05-06
"宝山区","上海市宝山区佳龙路19号",121.394811673634,31.3464140503653,2022-05-06
"宝山区","上海市宝山区江杨北路1568弄",121.447009966339,31.4052019307942,2022-05-06
"宝山区","上海市宝山区江杨南路1568号",121.472983442099,31.3415761213083,2022-05-06
"宝山区","上海市宝山区江杨南路1807号",121.472954466756,31.3462215654451,2022-05-06
"宝山区","上海市宝山区蒋巷街123号",121.35325498806,31.4175325585074,2022-05-06
"宝山区","上海市宝山区教育路555弄",121.401778038148,31.3628715556026,2022-05-06
"宝山区","上海市宝山区金石路2588号",121.33908430847,31.4551991628345,2022-05-06
"宝山区","上海市宝山区锦秋路101号",121.41038497273,31.3279808857,2022-05-06
"宝山区","上海市宝山区锦伟路40号",121.404684370879,31.4003145942859,2022-05-06
"宝山区","上海市宝山区菊泉街1596弄",121.378812008422,31.3675497477029,2022-05-06
"宝山区","上海市宝山区菊盛路468弄",121.377350506245,31.3622243360366,2022-05-06
"宝山区","上海市宝山区菊太路1221弄",121.362608145029,31.3570606022895,2022-05-06
"宝山区","上海市宝山区聚丰园路91弄",121.39170785372,31.3211830811319,2022-05-06
"宝山区","上海市宝山区聚丰园路105弄",121.391414736632,31.3217201494789,2022-05-06
"宝山区","上海市宝山区康陆路188号",121.432865966423,31.3250918716155,2022-05-06
"宝山区","上海市宝山区克山路12号",121.47439804371,31.4038348763753,2022-05-06
"宝山区","上海市宝山区克山路550弄",121.471416567723,31.4135167821595,2022-05-06
"宝山区","上海市宝山区兰岗路679号",121.462147941301,31.3820415824213,2022-05-06
"宝山区","上海市宝山区莲花山路700弄",121.445980148902,31.3672822571444,2022-05-06
"宝山区","上海市宝山区联长路140号",121.470056802672,31.3424773515564,2022-05-06
"宝山区","上海市宝山区联长路209号",121.469562734642,31.3437109957542,2022-05-06
"宝山区","上海市宝山区联长路221号",121.46935540573,31.3440797750947,2022-05-06
"宝山区","上海市宝山区陆翔路678弄",121.374042496205,31.3582427883393,2022-05-06
"宝山区","上海市宝山区罗芬路1288弄",121.354169013916,31.4109937744028,2022-05-06
"宝山区","上海市宝山区罗和路118弄",121.348992977567,31.3874218731181,2022-05-06
"宝山区","上海市宝山区罗和路935弄",121.340319088663,31.3992405672049,2022-05-06
"宝山区","上海市宝山区罗宁路3030弄",121.334157012917,31.491537905682,2022-05-06
"宝山区","上海市宝山区罗智路258弄",121.350937449674,31.3928450840885,2022-05-06
"宝山区","上海市宝山区毛家路212弄",121.393263203981,31.4390185994779,2022-05-06
"宝山区","上海市宝山区梅林路97弄",121.445859416642,31.366282257447,2022-05-06
"宝山区","上海市宝山区湄浦路358号",121.462770646681,31.407984134941,2022-05-06
"宝山区","上海市宝山区湄星路1858号",121.418747029231,31.3824990718331,2022-05-06
"宝山区","上海市宝山区美安路215弄",121.356442984484,31.3938269201772,2022-05-06
"宝山区","上海市宝山区美丹路1058弄",121.342643484731,31.4004969815832,2022-05-06
"宝山区","上海市宝山区美秀路558弄",121.496563013525,31.4102794734761,2022-05-06
"宝山区","上海市宝山区南陈路278弄",121.404652076796,31.3146197079614,2022-05-06
"宝山区","上海市宝山区南陈路279弄",121.405181178742,31.3146543376731,2022-05-06
"宝山区","上海市宝山区南东路108弄",121.3676769237,31.3926811740164,2022-05-06
"宝山区","上海市宝山区年吉路650弄",121.341464458749,31.404977403002,2022-05-06
"宝山区","上海市宝山区潘泾路4777弄",121.355374000927,31.4701099158162,2022-05-06
"宝山区","上海市宝山区盘古路827号",121.47179439502,31.4082258373531,2022-05-06
"宝山区","上海市宝山区盘古路895弄",121.470332402803,31.4077919745256,2022-05-06
"宝山区","上海市宝山区盘古路927弄",121.468494020577,31.4078248745127,2022-05-06
"宝山区","上海市宝山区盘古路2618弄",121.436872049675,31.3956555535828,2022-05-06
"宝山区","上海市宝山区祁华路655弄",121.379470866571,31.3270160915792,2022-05-06
"宝山区","上海市宝山区乾溪路201弄",121.417838033886,31.310202116187,2022-05-06
"宝山区","上海市宝山区沙浦路128弄",121.39539252326,31.3621973556092,2022-05-06
"宝山区","上海市宝山区市台路388弄",121.35909648913,31.3207953164791,2022-05-06
"宝山区","上海市宝山区市台路555弄",121.35467997009,31.3253172091423,2022-05-06
"宝山区","上海市宝山区水产路2159号",121.455305009248,31.374726918253,2022-05-06
"宝山区","上海市宝山区水产路2399号",121.452045956858,31.3737768676184,2022-05-06
"宝山区","上海市宝山区水产路2600弄",121.450263359404,31.3695318895837,2022-05-06
"宝山区","上海市宝山区水产西路500弄",121.428733042433,31.3643348750085,2022-05-06
"宝山区","上海市宝山区四元路126弄",121.436908520879,31.4194795974551,2022-05-06
"宝山区","上海市宝山区松兰路1060号",121.450288242467,31.3890556590211,2022-05-06
"宝山区","上海市宝山区松兰路1169弄",121.448810350242,31.3910190926106,2022-05-06
"宝山区","上海市宝山区淞滨路810弄",121.495829097923,31.3749636971704,2022-05-06
"宝山区","上海市宝山区淞发路500弄",121.4974818004,31.3468026676419,2022-05-06
"宝山区","上海市宝山区淞发路901弄",121.488097112907,31.3452989030961,2022-05-06
"宝山区","上海市宝山区泰和路710弄",121.492110741926,31.3760414498433,2022-05-06
"宝山区","上海市宝山区泰和路1425号",121.463790852248,31.3703348375628,2022-05-06
"宝山区","上海市宝山区泰和西路3493弄",121.409703338509,31.3564074833504,2022-05-06
"宝山区","上海市宝山区塘后路285弄",121.510085296197,31.4045941480637,2022-05-06
"宝山区","上海市宝山区塘祁路577弄",121.383705927898,31.3316924468006,2022-05-06
"宝山区","上海市宝山区铁城路1555号",121.459905950409,31.3631079021689,2022-05-06
"宝山区","上海市宝山区铁峰路2000弄",121.460283059063,31.4029590941624,2022-05-06
"宝山区","上海市宝山区铁力路390号",121.475895788487,31.3914689857161,2022-05-06
"宝山区","上海市宝山区铁山路9号",121.475204901719,31.3667367410279,2022-05-06
"宝山区","上海市宝山区铁山路38号",121.474144002912,31.3687509029117,2022-05-06
"宝山区","上海市宝山区通南路55弄",121.483498687001,31.3445743827689,2022-05-06
"宝山区","上海市宝山区通南路328弄",121.477554419781,31.3419868192428,2022-05-06
"宝山区","上海市宝山区纬地路88弄",121.411321366394,31.3330935649043,2022-05-06
"宝山区","上海市宝山区汶水路1585弄",121.422395676721,31.2957361936212,2022-05-06
"宝山区","上海市宝山区新二路1398弄",121.481128957066,31.3408235487765,2022-05-06
"宝山区","上海市宝山区新沪路1060弄",121.425662993522,31.2797878964911,2022-05-06
"宝山区","上海市宝山区新沪路1208号",121.427000031443,31.2825664422454,2022-05-06
"宝山区","上海市宝山区杨泰路55弄",121.456084019787,31.3694498754998,2022-05-06
"宝山区","上海市宝山区杨泰路321号",121.449088914781,31.3798204609253,2022-05-06
"宝山区","上海市宝山区杨泰路328弄",121.447935400675,31.3786185869568,2022-05-06
"宝山区","上海市宝山区杨泰路338弄",121.446317013468,31.3778280423042,2022-05-06
"宝山区","上海市宝山区杨鑫路98弄",121.456887643896,31.3783697167948,2022-05-06
"宝山区","上海市宝山区一二八纪念路55弄",121.472302566447,31.3347512832672,2022-05-06
"宝山区","上海市宝山区一二八纪念路788弄",121.457946656262,31.3303711970359,2022-05-06
"宝山区","上海市宝山区怡华苑路188弄",121.426743385559,31.2781410060783,2022-05-06
"宝山区","上海市宝山区逸仙路1321弄",121.495561582542,31.321586268285,2022-05-06
"宝山区","上海市宝山区逸仙路3458弄",121.503025513194,31.3524976936186,2022-05-06
"宝山区","上海市宝山区永清路335弄",121.502703201177,31.3948665408246,2022-05-06
"宝山区","上海市宝山区永顺路28弄",121.359176168829,31.4222587547738,2022-05-06
"宝山区","上海市宝山区友谊路1869弄",121.454297020636,31.4019519267094,2022-05-06
"宝山区","上海市宝山区友谊路2858弄",121.441200983928,31.3915048969253,2022-05-06
"宝山区","上海市宝山区郁江巷路129弄",121.484392411153,31.3483211337121,2022-05-06
"宝山区","上海市宝山区园光路198号",121.347986585942,31.3035589749305,2022-05-06
"宝山区","上海市宝山区园和路10号",121.394989094256,31.4123376098861,2022-05-06
"宝山区","上海市宝山区月罗路259弄",121.378187629065,31.4236461929995,2022-05-06
"宝山区","上海市宝山区川路1498弄",121.435347535394,31.3674186164033,2022-05-06
"宝山区","上海市宝山区川路2728号",121.444282157454,31.3524197804814,2022-05-06
"宝山区","上海市宝山区张桥街5弄",121.496563013525,31.4102794734761,2022-05-06
"宝山区","上海市宝山区真陈路1398弄",121.358619668565,31.3216017695161,2022-05-06
"宝山区","上海市宝山区真金路1039弄",121.412904809516,31.2911819313099,2022-05-06
"宝山区","上海市宝山区镇泰路111弄",121.450982003812,31.3879588678025,2022-05-06
"宝山区","上海市宝山区白杨村",121.402885648841,31.347963164987,2022-05-06
"宝山区","上海市宝山区宝城二村",121.497024922218,31.4151940239588,2022-05-06
"宝山区","上海市宝山区宝钢四村",121.492208657226,31.4141806715216,2022-05-06
"宝山区","上海市宝山区宝钢八村",121.48560647105,31.4151573514715,2022-05-06
"宝山区","上海市宝山区宝钢十一村",121.491003490554,31.4162581361273,2022-05-06
"宝山区","上海市宝山区东街村",121.450824710517,31.3849289071253,2022-05-06
"宝山区","上海市宝山区高境二村",121.485191004752,31.3278019009893,2022-05-06
"宝山区","上海市宝山区共富一村",121.436478591862,31.3586152104537,2022-05-06
"宝山区","上海市宝山区共富二村",121.438082965503,31.3545538710787,2022-05-06
"宝山区","上海市宝山区共和二村",121.467396381074,31.3280656353419,2022-05-06
"宝山区","上海市宝山区共康六村",121.445469911372,31.334220767249,2022-05-06
"宝山区","上海市宝山区共康八村",121.43955951027,31.330407825842,2022-05-06
"宝山区","上海市宝山区海滨新村",121.499571977661,31.3826569113237,2022-05-06
"宝山区","上海市宝山区海滨三村",121.498873904449,31.3882820033217,2022-05-06
"宝山区","上海市宝山区海江二村",121.509552960352,31.3984149264344,2022-05-06
"宝山区","上海市宝山区海陆村",121.39536314867,31.4674978947339,2022-05-06
"宝山区","上海市宝山区呼玛一村",121.45830175643,31.3481438842397,2022-05-06
"宝山区","上海市宝山区呼玛二村",121.45330969305,31.3472565524271,2022-05-06
"宝山区","上海市宝山区呼玛三村",121.448102036347,31.3457123945061,2022-05-06
"宝山区","上海市宝山区呼玛四村",121.452469957059,31.3495103694908,2022-05-06
"宝山区","上海市宝山区华浜新村",121.500733935838,31.3555994042145,2022-05-06
"宝山区","上海市宝山区聚源桥村",121.392207042092,31.4452782264077,2022-05-06
"宝山区","上海市宝山区罗南二村",121.371928154526,31.3922040068017,2022-05-06
"宝山区","上海市宝山区马泾桥三村",121.420383292718,31.4245406446091,2022-05-06
"宝山区","上海市宝山区毛家弄村",121.392927752602,31.4335117389984,2022-05-06
"宝山区","上海市宝山区茂盛村",121.405930185876,31.4163209254523,2022-05-06
"宝山区","上海市宝山区湄浦村",121.432377647548,31.3940809890939,2022-05-06
"宝山区","上海市宝山区南周村",121.341581687619,31.3875619020251,2022-05-06
"宝山区","上海市宝山区潘桥村",121.341545306245,31.4659292453401,2022-05-06
"宝山区","上海市宝山区祁连二村",121.384123999282,31.3206969097593,2022-05-06
"宝山区","上海市宝山区祁南二村",121.355817132637,31.4204397718687,2022-05-06
"宝山区","上海市宝山区勤丰村",121.399036948714,31.420418857931,2022-05-06
"宝山区","上海市宝山区沈家桥村",121.318303447786,31.5048879069605,2022-05-06
"宝山区","上海市宝山区沈巷村",121.415304992009,31.4273331312371,2022-05-06
"宝山区","上海市宝山区盛桥四村",121.410147370923,31.4555427030362,2022-05-06
"宝山区","上海市宝山区泗东新村",121.491522441647,31.3740522646024,2022-05-06
"宝山区","上海市宝山区泗塘一村",121.460399838779,31.3447274291945,2022-05-06
"宝山区","上海市宝山区泗塘二村",121.462024244633,31.3421664706414,2022-05-06
"宝山区","上海市宝山区泗塘三村",121.462006727675,31.3406413503301,2022-05-06
"宝山区","上海市宝山区泗塘五村",121.466571377294,31.3401410930935,2022-05-06
"宝山区","上海市宝山区泗塘六村",121.466118361825,31.3389333864165,2022-05-06
"宝山区","上海市宝山区泗塘七村",121.466495290817,31.3364972610965,2022-05-06
"宝山区","上海市宝山区泗塘八村",121.46330199439,31.3361948421589,2022-05-06
"宝山区","上海市宝山区淞南一村",121.491274778818,31.3480457376925,2022-05-06
"宝山区","上海市宝山区淞南三村",121.496085923468,31.3501755639247,2022-05-06
"宝山区","上海市宝山区淞南四村",121.499068387592,31.3513775739445,2022-05-06
"宝山区","上海市宝山区淞南五村",121.491637424752,31.3448847930404,2022-05-06
"宝山区","上海市宝山区淞南七村",121.486714980049,31.3388929056496,2022-05-06
"宝山区","上海市宝山区淞南八村",121.487199076889,31.3400123273096,2022-05-06
"宝山区","上海市宝山区谭杨村",121.401169256504,31.3806532239243,2022-05-06
"宝山区","上海市宝山区桃园新村",121.495739357203,31.3759572833816,2022-05-06
"宝山区","上海市宝山区通河一村",121.455058873539,31.341825055584,2022-05-06
"宝山区","上海市宝山区通河四村",121.45156203968,31.3373858520103,2022-05-06
"宝山区","上海市宝山区通河六村",121.458292414052,31.337235877828,2022-05-06
"宝山区","上海市宝山区通河八村",121.45409059003,31.3358375979219,2022-05-06
"宝山区","上海市宝山区通河九村",121.454891609053,31.3330187671668,2022-05-06
"宝山区","上海市宝山区王家村",121.395228851997,31.3915288634113,2022-05-06
"宝山区","上海市宝山区五星村",121.352482445321,31.3074150600677,2022-05-06
"宝山区","上海市宝山区西街村",121.443972525918,31.3785332667254,2022-05-06
"宝山区","上海市宝山区杨泰二村",121.44776175822,31.3759843368954,2022-05-06
"宝山区","上海市宝山区永清新村",121.504637612262,31.3967898584618,2022-05-06
"宝山区","上海市宝山区永清二村",121.500347664469,31.3957558846403,2022-05-06
"宝山区","上海市宝山区月狮村",121.414245171168,31.4552569201867,2022-05-06
"宝山区","上海市宝山区朱家弄村",121.395986662525,31.3476683389689,2022-05-06
"闵行区","上海市闵行区爱博五村",121.315494715948,31.22045854423,2022-05-06
"闵行区","上海市闵行区宝城路158弄",121.401503605814,31.1106224331224,2022-05-06
"闵行区","上海市闵行区北翟路1558号",121.343719115749,31.2309425040216,2022-05-06
"闵行区","上海市闵行区北翟路1905号",121.341228294231,31.2293765813899,2022-05-06
"闵行区","上海市闵行区北翟路2000弄51支弄",121.33657192762,31.2311144953069,2022-05-06
"闵行区","上海市闵行区北翟路2000弄70支弄",121.339999591954,31.2310338261842,2022-05-06
"闵行区","上海市闵行区北翟路2900弄",121.330342178908,31.228948833313,2022-05-06
"闵行区","上海市闵行区北沈路168号",121.341392504478,31.2324014864879,2022-05-06
"闵行区","上海市闵行区北沈路260弄",121.340499858293,31.233986502342,2022-05-06
"闵行区","上海市闵行区北沈路98号",121.341283360359,31.2338814427056,2022-05-06
"闵行区","上海市闵行区繁兴路300弄",121.303737334111,31.2177977446581,2022-05-06
"闵行区","上海市闵行区古美路377弄",121.412807253538,31.1466563445255,2022-05-06
"闵行区","上海市闵行区古美路718弄",121.411172786663,31.152984435465,2022-05-06
"闵行区","上海市闵行区古美西路628弄",121.398267370384,31.1386744639421,2022-05-06
"闵行区","上海市闵行区航北路653号",121.355753624836,31.1765951158703,2022-05-06
"闵行区","上海市闵行区航华三村",121.355769345182,31.1730440827916,2022-05-06
"闵行区","上海市闵行区鹤坡南路56弄",121.537052427606,31.0653047041339,2022-05-06
"闵行区","上海市闵行区华江路1415弄",121.334038526421,31.2320862246904,2022-05-06
"闵行区","上海市闵行区华宁路1399弄",121.39689880194,31.0293617714221,2022-05-06
"闵行区","上海市闵行区纪潭路200号工地",121.272998397526,31.2252718638564,2022-05-06
"闵行区","上海市闵行区江鹏路632号",121.38861193361,31.1188425800874,2022-05-06
"闵行区","上海市闵行区江月路1387号",121.520494239799,31.0894690209631,2022-05-06
"闵行区","上海市闵行区江月路1598号",121.516388975452,31.0892948370248,2022-05-06
"闵行区","上海市闵行区鹫山村",121.256897079735,31.2487029485586,2022-05-06
"闵行区","上海市闵行区昆阳路2038弄",121.368975963298,31.0295288716361,2022-05-06
"闵行区","上海市闵行区昆阳路3251弄",121.367951323776,31.050351417192,2022-05-06
"闵行区","上海市闵行区黎安路486弄",121.366417044389,31.1311508663928,2022-05-06
"闵行区","上海市闵行区立建路88号",121.524133896067,31.1025614262593,2022-05-06
"闵行区","上海市闵行区龙茗路98号",121.397897448175,31.1297299429198,2022-05-06
"闵行区","上海市闵行区梅陇一村",121.420466026655,31.1425948272757,2022-05-06
"闵行区","上海市闵行区浦航路178弄",121.548640568685,31.0493575414259,2022-05-06
"闵行区","上海市闵行区浦瑞路369弄",121.497513959737,31.0809018506851,2022-05-06
"闵行区","上海市闵行区普乐路665弄",121.427461940136,31.1241197189669,2022-05-06
"闵行区","上海市闵行区沁春路397号",121.379519734391,31.0993837534164,2022-05-06
"闵行区","上海市闵行区上中西路738弄",121.423923694393,31.1376884748405,2022-05-06
"闵行区","上海市闵行区莘松路958弄",121.355414963658,31.1128708271611,2022-05-06
"闵行区","上海市闵行区莘松三村",121.37728771469,31.113392087638,2022-05-06
"闵行区","上海市闵行区莘朱路698弄",121.401192792108,31.1183456956219,2022-05-06
"闵行区","上海市闵行区莘朱路779号",121.40361749834,31.1180983730856,2022-05-06
"闵行区","上海市闵行区水清路1100弄",121.381340240337,31.1347850786265,2022-05-06
"闵行区","上海市闵行区王泥浜村",121.3200550537,31.2319695837316,2022-05-06
"闵行区","上海市闵行区许浦村",121.344134402386,31.2307916640076,2022-05-06
"闵行区","上海市闵行区镇企路14号",121.362836698531,31.1562274151958,2022-05-06
"闵行区","上海市闵行区联明路8号",121.359716319932,31.1541560713445,2022-05-06
"闵行区","上海市闵行区珠城路99弄",121.391453723091,31.1097000728297,2022-05-06
"嘉定区","上海市嘉定区安礼路258弄",121.17557411073,31.2768596597272,2022-05-06
"嘉定区","上海市嘉定区宝翔路560弄",121.326138109122,31.3160829370411,2022-05-06
"嘉定区","上海市嘉定区仓场村",121.282711236022,31.3673763751167,2022-05-06
"嘉定区","上海市嘉定区曹安公路1558号",121.375464064674,31.2589215118148,2022-05-06
"嘉定区","上海市嘉定区曹安公路2883号",121.326473985552,31.2700947824168,2022-05-06
"嘉定区","上海市嘉定区慈竹路69弄",121.22621204148,31.3751149208901,2022-05-06
"嘉定区","上海市嘉定区德园路769号",121.312052678725,31.3061701367839,2022-05-06
"嘉定区","上海市嘉定区丰功路968号",121.296406262844,31.3497310221349,2022-05-06
"嘉定区","上海市嘉定区丰翔支路68号",121.341204039982,31.3129718895591,2022-05-06
"嘉定区","上海市嘉定区丰庄西路551弄",121.362375483902,31.2540212479572,2022-05-06
"嘉定区","上海市嘉定区阜康西路199弄",121.164926315859,31.3029071093935,2022-05-06
"嘉定区","上海市嘉定区高潮路601号",121.335967906995,31.254580003379,2022-05-06
"嘉定区","上海市嘉定区鹤霞路555弄",121.321009952457,31.2523309152963,2022-05-06
"嘉定区","上海市嘉定区鹤旋路500弄",121.314837605467,31.2467189182672,2022-05-06
"嘉定区","上海市嘉定区华江支路677弄",121.345091007924,31.2726318713693,2022-05-06
"嘉定区","上海市嘉定区嘉峪关路379弄",121.322711612584,31.2759556777025,2022-05-06
"嘉定区","上海市嘉定区金耀南路299弄",121.317753774644,31.2436615181838,2022-05-06
"嘉定区","上海市嘉定区金园四路188号",121.322842405866,31.2661054410731,2022-05-06
"嘉定区","上海市嘉定区金园一路100号",121.325136408647,31.2687490479013,2022-05-06
"嘉定区","上海市嘉定区金园一路102号",121.325103620496,31.2687326890827,2022-05-06
"嘉定区","上海市嘉定区金园一路1118弄",121.319776040008,31.2538058483937,2022-05-06
"嘉定区","上海市嘉定区金园一路26号",121.325149523908,31.2701972549847,2022-05-06
"嘉定区","上海市嘉定区靖远路521弄",121.345449191283,31.2609086290739,2022-05-06
"嘉定区","上海市嘉定区临洮路279号",121.335896401876,31.2625079506975,2022-05-06
"嘉定区","上海市嘉定区临夏路999弄",121.328860962953,31.2671758874569,2022-05-06
"嘉定区","上海市嘉定区梅川路1558弄",121.383045493687,31.2527692069347,2022-05-06
"嘉定区","上海市嘉定区曲惠路520弄",121.154607929619,31.3148186936569,2022-05-06
"嘉定区","上海市嘉定区双单路1068号",121.262736335041,31.3345090814888,2022-05-06
"嘉定区","上海市嘉定区铜川路2395弄",121.379406817388,31.2600856494333,2022-05-06
"嘉定区","上海市嘉定区五四村",121.333613088931,31.2531504626494,2022-05-06
"嘉定区","上海市嘉定区永乐村",121.298530665544,31.2995041924452,2022-05-06
"嘉定区","上海市嘉定区园区路301弄",121.212968143686,31.3289109683163,2022-05-06
"金山区","上海市金山区中一东路203号",121.427136034897,30.8003948783874,2022-05-06
"金山区","上海市金山区已对相关居住地落实终末消毒措施等",121.348480045121,30.7478523765703,2022-05-06
"松江区","上海市松江区仓吉一村",121.215641860206,31.0063548163007,2022-05-06
"松江区","上海市松江区场东路333弄",121.364865137623,31.1040754347679,2022-05-06
"松江区","上海市松江区范家村",121.196488010461,30.9503297598134,2022-05-06
"松江区","上海市松江区鼓浪路57号",121.289947715719,31.1224087252684,2022-05-06
