"district","address","lng","lat","date"
"浦东新区","上海市浦东新区光明村",121.66490052541417,31.29664029270497,"2022-03-28"
"浦东新区","上海市浦东新区通济路328弄",121.7525324736763,31.05774885424886,"2022-03-28"
"浦东新区","上海市浦东新区工农南路201弄",121.77485958763513,31.060910455271795,"2022-03-28"
"浦东新区","上海市浦东新区佳乐路225弄",121.58962611690005,31.28158489894264,"2022-03-28"
"浦东新区","上海市浦东新区松林路333弄",121.54064564964631,31.23286465076705,"2022-03-28"
"浦东新区","上海市浦东新区五莲路1047弄",121.60139041568928,31.277745809783077,"2022-03-28"
"浦东新区","上海市浦东新区微山二村",121.51989685846848,31.214418673428547,"2022-03-28"
"浦东新区","上海市浦东新区环龙路263弄",121.53236327284431,31.208913890879952,"2022-03-28"
"浦东新区","上海市浦东新区张杨路1050弄",121.5370397614987,31.236817818967825,"2022-03-28"
"浦东新区","上海市浦东新区羽山路1445弄",121.56713227743855,31.24677788561909,"2022-03-28"
"浦东新区","上海市浦东新区北洋泾路601号",121.55725531852579,31.24957562761426,"2022-03-28"
"浦东新区","上海市浦东新区陈春东路99弄",121.56589701753178,31.181856496573577,"2022-03-28"
"浦东新区","上海市浦东新区下南路370弄",121.53688426481492,31.18970225553777,"2022-03-28"
"浦东新区","上海市浦东新区沪南路2518弄",121.53688426481492,31.18970225553777,"2022-03-28"
"浦东新区","上海市浦东新区浦电路328号",121.53347627337116,31.226282793962028,"2022-03-28"
"浦东新区","上海市浦东新区御衡路68弄",121.58833740781544,31.159592610343985,"2022-03-28"
"浦东新区","上海市浦东新区浦三路741弄",121.52688172279186,31.19210877143124,"2022-03-28"
"浦东新区","上海市浦东新区下南路551弄",121.54679904238965,31.179016875274282,"2022-03-28"
"浦东新区","上海市浦东新区浦东南路1700弄",121.5250607676926,31.22378497774176,"2022-03-28"
"浦东新区","上海市浦东新区东明路560号",121.51612945499019,31.185246551145298,"2022-03-28"
"浦东新区","上海市浦东新区浦电路29弄",121.52179830174146,31.22198277216662,"2022-03-28"
"浦东新区","上海市浦东新区成山路300弄",121.50788786125835,31.176840044371215,"2022-03-28"
"浦东新区","上海市浦东新区东建新村",121.52686142108733,31.222713416923376,"2022-03-28"
"浦东新区","上海市浦东新区齐河路438弄",121.51495483070534,31.185495627621506,"2022-03-28"
"浦东新区","上海市浦东新区五莲路108弄",121.58877362497108,31.277157873113886,"2022-03-28"
"浦东新区","上海市浦东新区昌里东路80弄",121.51274787372843,31.180374404948385,"2022-03-28"
"浦东新区","上海市浦东新区峨山路500弄",121.53072871613834,31.219497888809606,"2022-03-28"
"浦东新区","上海市浦东新区下南路339弄",121.55064127471694,31.17679107417024,"2022-03-28"
"浦东新区","上海市浦东新区上南路3300号",121.50504580228588,31.164360930441298,"2022-03-28"
"浦东新区","上海市浦东新区下南路320弄",121.547891741212,31.175548813657176,"2022-03-28"
"浦东新区","上海市浦东新区云台路183弄",121.51061853034757,31.18339896227592,"2022-03-28"
"浦东新区","上海市浦东新区下南路500弄",121.5437208188986,31.177967587760506,"2022-03-28"
"浦东新区","上海市浦东新区德州路230弄",121.49751620550124,31.171941661770408,"2022-03-28"
"浦东新区","上海市浦东新区杨莲路311弄",121.53688426481492,31.18970225553777,"2022-03-28"
"浦东新区","上海市浦东新区新浦路673弄",121.53688426481492,31.18970225553777,"2022-03-28"
"浦东新区","上海市浦东新区崂山路644弄",121.53173832170101,31.22877274659365,"2022-03-28"
"浦东新区","上海市浦东新区浦电路53弄",121.52290115141605,31.22214582440724,"2022-03-28"
"浦东新区","上海市浦东新区昌里东路71弄",121.51070692360975,31.18266438072873,"2022-03-28"
"浦东新区","上海市浦东新区下南路276弄",121.53688426481492,31.18970225553777,"2022-03-28"
"浦东新区","上海市浦东新区博华路999弄",121.55711392523853,31.17680629046571,"2022-03-28"
"浦东新区","上海市浦东新区东明路355弄",121.51669511796983,31.18945566158956,"2022-03-28"
"浦东新区","上海市浦东新区下南路526弄",121.54440200396682,31.17804189176027,"2022-03-28"
"浦东新区","上海市浦东新区蓝村路471弄",121.5336015869898,31.217902204702717,"2022-03-28"
"浦东新区","上海市浦东新区德州路255弄",121.49763226657313,31.176228764666757,"2022-03-28"
"浦东新区","上海市浦东新区下南路50弄",121.53688426481492,31.18970225553777,"2022-03-28"
"浦东新区","上海市浦东新区洪山路237弄",121.50688247773158,31.178985516539065,"2022-03-28"
"浦东新区","上海市浦东新区板泉路2101弄",121.53960469322134,31.168815850763366,"2022-03-28"
"浦东新区","上海市浦东新区上南路929弄",121.50767882556616,31.18609371739358,"2022-03-28"
"浦东新区","上海市浦东新区昌里路80弄",121.53688426481492,31.18970225553777,"2022-03-28"
"浦东新区","上海市浦东新区下南路501弄",121.53688426481492,31.18970225553777,"2022-03-28"
"浦东新区","上海市浦东新区三旋路506弄",121.52553031198265,31.139159418419815,"2022-03-28"
"浦东新区","上海市浦东新区上南路6500弄",121.58485970786411,31.120077939878794,"2022-03-28"
"浦东新区","上海市浦东新区云莲路398弄",121.53688426481492,31.18970225553777,"2022-03-28"
"浦东新区","上海市浦东新区博兴路616弄",121.59050564782487,31.26885013299071,"2022-03-28"
"浦东新区","上海市浦东新区东明路660弄",121.52969618510942,31.207201251711854,"2022-03-28"
"浦东新区","上海市浦东新区莱阳路350弄",121.58832150780792,31.280456057381212,"2022-03-28"
"浦东新区","上海市浦东新区张杨路1734弄",121.55451521722871,31.242822359690496,"2022-03-28"
"浦东新区","上海市浦东新区东靖路669弄",121.58962611690005,31.28158489894264,"2022-03-28"
"浦东新区","上海市浦东新区德平路100弄",121.56868266291822,31.253939981179144,"2022-03-28"
"浦东新区","上海市浦东新区周园路1800弄",121.6027341010711,31.099526610695357,"2022-03-28"
"浦东新区","上海市浦东新区金高路988弄",121.61620527015982,31.292764484741046,"2022-03-28"
"浦东新区","上海市浦东新区浦城路580弄",121.52108055563897,31.230158967011022,"2022-03-28"
"浦东新区","上海市浦东新区卫民村",121.74780819516877,31.10401135310868,"2022-03-28"
"浦东新区","上海市浦东新区高青路4567弄",121.53688426481492,31.18970225553777,"2022-03-28"
"浦东新区","上海市浦东新区潍坊路168弄",121.53400923803024,31.231918712480383,"2022-03-28"
"浦东新区","上海市浦东新区南码头路1120弄",121.52017057215737,31.191446543590878,"2022-03-28"
"浦东新区","上海市浦东新区五星村陈家队陈家宅",121.57857947438275,31.194413133383005,"2022-03-28"
"浦东新区","上海市浦东新区崂山路502号",121.52356526867958,31.242727884421647,"2022-03-28"
"浦东新区","上海市浦东新区康沈路400弄",121.58485970786411,31.120077939878794,"2022-03-28"
"浦东新区","上海市浦东新区南团公路858弄",121.76883132884932,31.029976482139237,"2022-03-28"
"浦东新区","上海市浦东新区立新村",121.76391813669305,31.177471711327076,"2022-03-28"
"浦东新区","上海市浦东新区鹿溪村",121.70279338741936,31.124679790400943,"2022-03-28"
"浦东新区","上海市浦东新区国展路1776号工地生活区",121.49656676797295,31.188922647488646,"2022-03-28"
"浦东新区","上海市浦东新区懿行路971弄",121.51939497518005,31.131133547765522,"2022-03-28"
"浦东新区","上海市浦东新区上南路2779号",121.5037289762388,31.173002834929044,"2022-03-28"
"浦东新区","上海市浦东新区潍坊路606号",121.52801879790638,31.229204895697556,"2022-03-28"
"浦东新区","上海市浦东新区张杨路1000弄",121.5362208661958,31.235578129821725,"2022-03-28"
"浦东新区","上海市浦东新区成山路475弄",121.51349724018485,31.178313077688014,"2022-03-28"
"浦东新区","上海市浦东新区绿林路320弄",121.55483474449859,31.176162646734344,"2022-03-28"
"浦东新区","上海市浦东新区赵家厍",121.54343515774643,31.176791383130574,"2022-03-28"
"浦东新区","上海市浦东新区浦电路218弄",121.53039158208045,31.226031741548418,"2022-03-28"
"浦东新区","上海市浦东新区杨思路855弄",121.50659726573217,31.168965631905674,"2022-03-28"
"浦东新区","上海市浦东新区上南路5588号",121.53410068553116,31.12914416758575,"2022-03-28"
"浦东新区","上海市浦东新区张杨路310弄",121.51973938551258,31.230805867990643,"2022-03-28"
"浦东新区","上海市浦东新区耀华路200弄",121.50079502061267,31.177528559599587,"2022-03-28"
"浦东新区","上海市浦东新区联勤村张家队张家宅",121.69194760601408,31.236233793114234,"2022-03-28"
"浦东新区","上海市浦东新区林展路267弄",121.5139930149958,31.13367888524202,"2022-03-28"
"浦东新区","上海市浦东新区上南路5600号",121.53381924641488,31.131871701189322,"2022-03-28"
"浦东新区","上海市浦东新区杨高南路5055弄",121.5375261041018,31.15615318813709,"2022-03-28"
"浦东新区","上海市浦东新区南新村吴家宅",121.52662561589096,31.360191454559764,"2022-03-28"
"浦东新区","上海市浦东新区庆利路185弄",121.73121218053302,31.241479088382583,"2022-03-28"
"浦东新区","上海市浦东新区成山路350弄",121.51029540985564,31.177370295777077,"2022-03-28"
"浦东新区","上海市浦东新区成山路1728弄",121.53553420146397,31.181824984316307,"2022-03-28"
"浦东新区","上海市浦东新区成山路210号",121.50084200199082,31.176626707125713,"2022-03-28"
"浦东新区","上海市浦东新区康士路15弄",121.56951673958423,31.15566839870212,"2022-03-28"
"浦东新区","上海市浦东新区昌里路98弄",121.50956463832325,31.18067199914861,"2022-03-28"
"浦东新区","上海市浦东新区天花庵村",121.53193954213525,31.128535900177152,"2022-03-28"
"浦东新区","上海市浦东新区祝西村",121.7577816320933,31.111643333887514,"2022-03-28"
"浦东新区","上海市浦东新区耀华路421弄",121.48966977636323,31.181385819746097,"2022-03-28"
"浦东新区","上海市浦东新区五星村徐家队奚家宅",121.56739566061408,31.191014451882285,"2022-03-28"
"浦东新区","上海市浦东新区莱阳路451弄",121.5892918574198,31.282158997327386,"2022-03-28"
"浦东新区","上海市浦东新区东方路1523号",121.53351732593298,31.214995423414116,"2022-03-28"
"浦东新区","上海市浦东新区康沈路465弄",121.58485970786411,31.120077939878794,"2022-03-28"
"浦东新区","上海市浦东新区巨野路大陆家宅",121.5531859945656,31.244897858469482,"2022-03-28"
"浦东新区","上海市浦东新区南码头路1696弄",121.52143736258755,31.18262993380266,"2022-03-28"
"浦东新区","上海市浦东新区康桥路90弄",121.58485970786411,31.120077939878794,"2022-03-28"
"浦东新区","上海市浦东新区高科西路961号",121.51874496131303,31.192336823853758,"2022-03-28"
"浦东新区","上海市浦东新区崂山路640号",121.53127344859959,31.22908284735866,"2022-03-28"
"浦东新区","上海市浦东新区曹路镇顾家宅",121.6735742040963,31.287578000463697,"2022-03-28"
"浦东新区","上海市浦东新区新浦路587弄",121.532965137536,31.19272295943645,"2022-03-28"
"浦东新区","上海市浦东新区上南路1251弄",121.50260627401242,31.178521236106434,"2022-03-28"
"浦东新区","上海市浦东新区一六村金桥队南赵家宅",121.60272673496593,31.173188295681612,"2022-03-28"
"浦东新区","上海市浦东新区浦电路330弄",121.53452881793721,31.22662717934152,"2022-03-28"
"浦东新区","上海市浦东新区昌里东路550弄",121.52139900494227,31.18353589919409,"2022-03-28"
"浦东新区","上海市浦东新区卫行村朱家队朱家宅",121.58720141066752,31.166665202015878,"2022-03-28"
"浦东新区","上海市浦东新区上南路3521号",121.51158546639851,31.161595328123152,"2022-03-28"
"浦东新区","上海市浦东新区上南新村",121.51009481823526,31.17883266186427,"2022-03-28"
"浦东新区","上海市浦东新区羽山路780号",121.55724938970943,31.241251078454592,"2022-03-28"
"浦东新区","上海市浦东新区三灶村",121.71252634795889,31.075053958120254,"2022-03-28"
"浦东新区","上海市浦东新区蓝村路470弄",121.53160402502728,31.2174828969005,"2022-03-28"
"浦东新区","上海市浦东新区齐河路909弄",121.52327511599987,31.1892696151779,"2022-03-28"
"浦东新区","上海市浦东新区浦电路305弄",121.53191394042821,31.225381642362095,"2022-03-28"
"浦东新区","上海市浦东新区牌楼村",121.56557758009242,31.05914827465531,"2022-03-28"
"浦东新区","上海市浦东新区昌里路340弄",121.50096839357609,31.178239082858738,"2022-03-28"
"浦东新区","上海市浦东新区通济路47弄",121.75218590741055,31.04888457635155,"2022-03-28"
"浦东新区","上海市浦东新区昌里东路650弄",121.52139900494227,31.18353589919409,"2022-03-28"
"浦东新区","上海市浦东新区御桥村姚家队姚家宅",121.56411783363872,31.162329302205315,"2022-03-28"
"浦东新区","上海市浦东新区浦电路155号",121.52805140639641,31.22442999276585,"2022-03-28"
"浦东新区","上海市浦东新区沪南路2000号",121.56787580490915,31.17000814528788,"2022-03-28"
"浦东新区","上海市浦东新区芳华路916弄",121.57459800470143,31.202853893456744,"2022-03-28"
"浦东新区","上海市浦东新区光辉村",121.71870938478405,31.06985788920638,"2022-03-28"
"浦东新区","上海市浦东新区浦电路331弄",121.53518233519571,31.225922581402024,"2022-03-28"
"浦东新区","上海市浦东新区康桥路1633弄",121.58485970786411,31.120077939878794,"2022-03-28"
"浦东新区","上海市浦东新区周市路66号",121.58929985233884,31.11634893399854,"2022-03-28"
"浦东新区","上海市浦东新区龙居路179号",121.56974095663954,31.25818806294194,"2022-03-28"
"浦东新区","上海市浦东新区浦东南路1475弄",121.52575174429087,31.228549414736456,"2022-03-28"
"浦东新区","上海市浦东新区黄路村",121.7711685401252,31.03629734180501,"2022-03-28"
"浦东新区","上海市浦东新区鹤驰路99弄",121.59974166575626,31.084967271555595,"2022-03-28"
"浦东新区","上海市浦东新区苗圃路266号",121.55469514782236,31.247507179020907,"2022-03-28"
"浦东新区","上海市浦东新区南泉路1300弄",121.52893030850737,31.217418043380952,"2022-03-28"
"浦东新区","上海市浦东新区御山路360弄",121.57468244541937,31.162035666910167,"2022-03-28"
"浦东新区","上海市浦东新区川沙路326弄",121.67276932235937,31.286348319613808,"2022-03-28"
"浦东新区","上海市浦东新区南新村",121.52662561589096,31.360191454559764,"2022-03-28"
"浦东新区","上海市浦东新区南新村西钟家宅",121.54865494157326,31.173251634963325,"2022-03-28"
"浦东新区","上海市浦东新区京浦路82弄",121.57334019732636,31.15969157298491,"2022-03-28"
"浦东新区","上海市浦东新区耀华路579弄",121.48605966617973,31.178810494440008,"2022-03-28"
"浦东新区","上海市浦东新区康山路608弄",121.55045460683195,31.227348292436346,"2022-03-28"
"浦东新区","上海市浦东新区海阳路815弄",121.50842495812276,31.164245363887332,"2022-03-28"
"浦东新区","上海市浦东新区秀沿路2501弄",121.60721008793567,31.144675483422116,"2022-03-28"
"浦东新区","上海市浦东新区德州路380弄",121.4933411509825,31.171454327607343,"2022-03-28"
"浦东新区","上海市浦东新区新陈路303弄",121.53688426481492,31.18970225553777,"2022-03-28"
"浦东新区","上海市浦东新区南泉路1350弄",121.52736042979814,31.21516844771695,"2022-03-28"
"浦东新区","上海市浦东新区康桥路1055号",121.57392292811068,31.155309382505635,"2022-03-28"
"浦东新区","上海市浦东新区新浦路543弄",121.536926664835,31.1758010055361,"2022-03-28"
"浦东新区","上海市浦东新区高青路2861弄",121.53688426481492,31.18970225553777,"2022-03-28"
"浦东新区","上海市浦东新区浦电路56号",121.52421097068016,31.223451621735556,"2022-03-28"
"浦东新区","上海市浦东新区汤巷中心村",121.61845687292059,31.14980584074975,"2022-03-28"
"浦东新区","上海市浦东新区秀沿西路68弄",121.5437560324746,31.137587866279553,"2022-03-28"
"浦东新区","上海市浦东新区环桥路1136弄",121.58485970786411,31.120077939878794,"2022-03-28"
"浦东新区","上海市浦东新区永泰路775弄",121.52441470636981,31.147980346490257,"2022-03-28"
"浦东新区","上海市浦东新区霍山路201弄",121.51805569149523,31.2366490029875,"2022-03-28"
"浦东新区","上海市浦东新区北蔡镇黄家队黄家宅",121.56095445078532,31.188175725858915,"2022-03-28"
"浦东新区","上海市浦东新区黄楼村谢家宅",121.6743784570194,31.172326027521734,"2022-03-28"
"浦东新区","上海市浦东新区浦三路635弄",121.52513218298063,31.195144302174068,"2022-03-28"
"浦东新区","上海市浦东新区花木路500弄",121.54909843500354,31.21781187340708,"2022-03-28"
"浦东新区","上海市浦东新区高宝路379弄",121.58962611690005,31.28158489894264,"2022-03-28"
"浦东新区","上海市浦东新区南码头路1136弄",121.51972788720205,31.18987494042182,"2022-03-28"
"浦东新区","上海市浦东新区幸福村幸福公寓",121.7847326838342,31.033064596329563,"2022-03-28"
"浦东新区","上海市浦东新区团结村",121.61492958650511,31.224092084192744,"2022-03-28"
"浦东新区","上海市浦东新区英雄村",121.75968460248563,31.034120375692826,"2022-03-28"
"浦东新区","上海市浦东新区通济路365弄",121.75222103115598,31.0577992012623,"2022-03-28"
"浦东新区","上海市浦东新区听悦路960号",121.7466090471435,31.06677252719299,"2022-03-28"
"浦东新区","上海市浦东新区靖海路547弄",121.7738753233877,31.062525639698123,"2022-03-28"
"浦东新区","上海市浦东新区西门路121弄",121.75187203946534,31.052024741561482,"2022-03-28"
"浦东新区","上海市浦东新区西门村",121.74801911730252,31.060393930804395,"2022-03-28"
"浦东新区","上海市浦东新区栖山路400弄",121.55757897800103,31.25201788165849,"2022-03-28"
"浦东新区","上海市浦东新区扶栏村",121.75840155272573,31.000752946608475,"2022-03-28"
"浦东新区","上海市浦东新区羽山路1446弄",121.56858295100662,31.245994404064763,"2022-03-28"
"浦东新区","上海市浦东新区洋泾镇路117号",121.55745303556854,31.2483270002024,"2022-03-28"
"浦东新区","上海市浦东新区桃林路189号",121.54194855195796,31.24653699912155,"2022-03-28"
"浦东新区","上海市浦东新区迎春路1355弄",121.56908249870071,31.235478938541977,"2022-03-28"
"浦东新区","上海市浦东新区博山路50弄",121.56288293305415,31.252223638107505,"2022-03-28"
"浦东新区","上海市浦东新区羽山路998弄",121.56311577384234,31.243262702719594,"2022-03-28"
"浦东新区","上海市浦东新区栖山路99号",121.54961451151902,31.24906407675105,"2022-03-28"
"浦东新区","上海市浦东新区浦东大道2894号",121.5828239679174,31.278944432984467,"2022-03-28"
"浦东新区","上海市浦东新区金桥路1250弄",121.58962611690005,31.28158489894264,"2022-03-28"
"浦东新区","上海市浦东新区德平路1189弄",121.57681313625848,31.2458715286161,"2022-03-28"
"浦东新区","上海市浦东新区成山路648弄",121.51511598671382,31.177611823719104,"2022-03-28"
"浦东新区","上海市浦东新区昌里东路320弄",121.51746343867251,31.182139411291217,"2022-03-28"
"浦东新区","上海市浦东新区东园三村",121.5202451315147,31.23624027716434,"2022-03-28"
"浦东新区","上海市浦东新区羽山路308弄",121.5483964092475,31.237966021999146,"2022-03-28"
"浦东新区","上海市浦东新区浦东南路3905弄",121.50819768682872,31.188934282771708,"2022-03-28"
"浦东新区","上海市浦东新区齐河路26号",121.50705333543958,31.183896738214404,"2022-03-28"
"浦东新区","上海市浦东新区东明路383弄",121.51666089252988,31.18856805701816,"2022-03-28"
"浦东新区","上海市浦东新区东环龙路299号",121.5319931709742,31.206857978720016,"2022-03-28"
"浦东新区","上海市浦东新区崂山路571弄",121.52954349184849,31.232309393717138,"2022-03-28"
"浦东新区","上海市浦东新区果园村",121.73744013263371,30.983664773262714,"2022-03-28"
"浦东新区","上海市浦东新区华夏二路350弄",121.69105999033968,31.198575884956675,"2022-03-28"
"浦东新区","上海市浦东新区严杨路165弄",121.53577251722662,31.201033280595517,"2022-03-28"
"浦东新区","上海市浦东新区御北路235号工地生活区",121.56552717232037,31.16483088712021,"2022-03-28"
"浦东新区","上海市浦东新区华夏二路728弄",121.69233774009709,31.193374057652374,"2022-03-28"
"浦东新区","上海市浦东新区德州路300弄",121.53688426481492,31.18970225553777,"2022-03-28"
"浦东新区","上海市浦东新区南阜村东汤家宅队",121.52616765974199,31.136051601892248,"2022-03-28"
"浦东新区","上海市浦东新区历城路100弄",121.49791550230043,31.179897773390458,"2022-03-28"
"浦东新区","上海市浦东新区五莲路758弄",121.59711537976729,31.275933456115435,"2022-03-28"
"浦东新区","上海市浦东新区荷泽路287弄",121.59958661822523,31.27447507574718,"2022-03-28"
"浦东新区","上海市浦东新区长岛路1267弄",121.60152282592145,31.268319782291993,"2022-03-28"
"浦东新区","上海市浦东新区长岛路1201弄",121.59672973721186,31.2693476089323,"2022-03-28"
"浦东新区","上海市浦东新区博兴路916弄",121.59799500052266,31.270420178729555,"2022-03-28"
"浦东新区","上海市浦东新区海霞路493弄",121.74986360800614,31.175400665094735,"2022-03-28"
"浦东新区","上海市浦东新区通源东路16号",121.89533439381701,31.01137820165791,"2022-03-28"
"浦东新区","上海市浦东新区连民村",121.691012110656,31.096250888207003,"2022-03-28"
"浦东新区","上海市浦东新区会龙村",121.72001938370924,31.100736018736946,"2022-03-28"
"浦东新区","上海市浦东新区吉灿路17弄",121.71289573118457,31.116515338861625,"2022-03-28"
"浦东新区","上海市浦东新区锦绣路300弄",121.57156047445,31.231704265536017,"2022-03-28"
"浦东新区","上海市浦东新区华夏东路860弄",121.67234154927552,31.20033012373384,"2022-03-28"
"浦东新区","上海市浦东新区永泰路133弄",121.50921573646319,31.141593889142552,"2022-03-28"
"浦东新区","上海市浦东新区瓦南村",121.65954446864147,31.10478087123219,"2022-03-28"
"浦东新区","上海市浦东新区千汇路580弄",121.77444169591189,31.118038783714734,"2022-03-28"
"浦东新区","上海市浦东新区星火村",121.70831760698351,31.261823069883153,"2022-03-28"
"浦东新区","上海市浦东新区千汇路280弄",121.7739199600717,31.114844939105055,"2022-03-28"
"浦东新区","上海市浦东新区金星村",121.77908746251785,31.11921989828282,"2022-03-28"
"浦东新区","上海市浦东新区三八村",121.76362501960516,31.114776845647906,"2022-03-28"
"浦东新区","上海市浦东新区华星村",121.72164513702121,31.206376231189314,"2022-03-28"
"浦东新区","上海市浦东新区祝城路77弄",121.768478474445,31.11489270497404,"2022-03-28"
"浦东新区","上海市浦东新区红三村",121.80061481508116,31.09108977429165,"2022-03-28"
"浦东新区","上海市浦东新区先进村",121.8100085754601,31.103827765483793,"2022-03-28"
"浦东新区","上海市浦东新区星光村",121.75520080036313,31.125544273851506,"2022-03-28"
"浦东新区","上海市浦东新区千汇一村",121.77526077087589,31.115783248008558,"2022-03-28"
"浦东新区","上海市浦东新区南祝路258弄",121.76188598996839,31.125974889673685,"2022-03-28"
"浦东新区","上海市浦东新区金亭公路619号",121.77451993832182,31.118119704680012,"2022-03-28"
"浦东新区","上海市浦东新区美容新村",121.84401114579323,31.04521323475574,"2022-03-28"
"浦东新区","上海市浦东新区千汇路1000弄",121.77126178423713,31.126797320222785,"2022-03-28"
"浦东新区","上海市浦东新区永春东路70号",121.74758092387474,30.978099330359562,"2022-03-28"
"浦东新区","上海市浦东新区千汇三村",121.77195931846562,31.119653248138686,"2022-03-28"
"浦东新区","上海市浦东新区杨思北街",121.49914393508531,31.1698540400458,"2022-03-28"
"浦东新区","上海市浦东新区洪山路300弄",121.50718206261917,31.175607516880994,"2022-03-28"
"浦东新区","上海市浦东新区成山路668弄",121.51947303792888,31.175870831284065,"2022-03-28"
"浦东新区","上海市浦东新区南码头路1127弄",121.52173613900017,31.19123316235805,"2022-03-28"
"浦东新区","上海市浦东新区杨高南路2828号",121.52553121028816,31.18218034619194,"2022-03-28"
"浦东新区","上海市浦东新区东明路511弄",121.51733183691529,31.186186319019924,"2022-03-28"
"浦东新区","上海市浦东新区昌里东路333弄",121.51739750304807,31.182775599417102,"2022-03-28"
"浦东新区","上海市浦东新区洪山路121弄",121.50500277345195,31.18470970220126,"2022-03-28"
"浦东新区","上海市浦东新区德州路223弄",121.53688426481492,31.18970225553777,"2022-03-28"
"浦东新区","上海市浦东新区德州路465弄",121.53688426481492,31.18970225553777,"2022-03-28"
"浦东新区","上海市浦东新区济阳路65弄",121.48830893334616,31.173016198002603,"2022-03-28"
"浦东新区","上海市浦东新区耀华路550弄",121.48745123124523,31.17598769660649,"2022-03-28"
"浦东新区","上海市浦东新区牛肚村",121.83549413159204,31.058898708361337,"2022-03-28"
"浦东新区","上海市浦东新区康悦路325弄",121.53853463169786,31.365243165209964,"2022-03-28"
"浦东新区","上海市浦东新区东滨村纪家宅",121.7721910812872,31.212951380741515,"2022-03-28"
"浦东新区","上海市浦东新区晚霞路551号",121.75692851135047,31.18402517865204,"2022-03-28"
"浦东新区","上海市浦东新区卫东村周家宅",121.76222833419824,31.18234339049649,"2022-03-28"
"浦东新区","上海市浦东新区航昌路376弄",121.61521767308216,31.084972297071307,"2022-03-28"
"浦东新区","上海市浦东新区瑞和路269弄",121.59563991296716,31.09350693638289,"2022-03-28"
"浦东新区","上海市浦东新区王楼村",121.62415069256504,31.074255122839745,"2022-03-28"
"浦东新区","上海市浦东新区瑞和路168弄",121.59600543347916,31.091793375409306,"2022-03-28"
"浦东新区","上海市浦东新区航瑞路388弄",121.59820906672569,31.08068473877126,"2022-03-28"
"浦东新区","上海市浦东新区鹤沙路188弄",121.61309398902603,31.08766639874782,"2022-03-28"
"浦东新区","上海市浦东新区沈庄西街",121.59121056073482,31.09208075432571,"2022-03-28"
"浦东新区","上海市浦东新区百曲村",121.5546630711292,31.117902747608948,"2022-03-28"
"浦东新区","上海市浦东新区浦电路311号",121.53317174780328,31.22577026650125,"2022-03-28"
"浦东新区","上海市浦东新区浦东南路1466弄",121.52242513932632,31.226964847164993,"2022-03-28"
"浦东新区","上海市浦东新区潍坊西路100弄",121.52290528362141,31.228227886947543,"2022-03-28"
"浦东新区","上海市浦东新区潍坊路335弄",121.53827061970847,31.233788347881376,"2022-03-28"
"浦东新区","上海市浦东新区源深路600弄2支弄",121.5413468669274,31.236006465120855,"2022-03-28"
"浦东新区","上海市浦东新区北张家浜路28弄",121.52616676143647,31.22157977251237,"2022-03-28"
"浦东新区","上海市浦东新区福山路102弄",121.53400762108032,31.237370810745112,"2022-03-28"
"浦东新区","上海市浦东新区张杨路951弄",121.5329836426295,31.23691438435045,"2022-03-28"
"浦东新区","上海市浦东新区张杨路1269弄",121.53869048770383,31.238534367635964,"2022-03-28"
"浦东新区","上海市浦东新区松林路111号",121.53713013103301,31.23825633180723,"2022-03-28"
"浦东新区","上海市浦东新区东昌路490弄",121.5197235753356,31.23752233486166,"2022-03-28"
"浦东新区","上海市浦东新区张杨路981弄",121.58962611690005,31.28158489894264,"2022-03-28"
"浦东新区","上海市浦东新区钦殿街58号",121.5381968688261,31.239063961079975,"2022-03-28"
"浦东新区","上海市浦东新区福山路100弄",121.53377469046157,31.238417889095363,"2022-03-28"
"浦东新区","上海市浦东新区东方路573弄",121.53133354523821,31.237684588126452,"2022-03-28"
"浦东新区","上海市浦东新区杨思镇后长街",121.5022120077241,31.168464918558183,"2022-03-28"
"浦东新区","上海市浦东新区商城路1177弄",121.53330308006883,31.240919559981307,"2022-03-28"
"浦东新区","上海市浦东新区唐港路1059弄",121.87066926010736,30.982972671195526,"2022-03-28"
"浦东新区","上海市浦东新区齐河路259弄",121.51082792536195,31.18675451565345,"2022-03-28"
"浦东新区","上海市浦东新区祝家港路155弄",121.59218143675373,31.11641857211224,"2022-03-28"
"浦东新区","上海市浦东新区成山路226弄",121.50372008301424,31.176390428994402,"2022-03-28"
"浦东新区","上海市浦东新区成山路558号",121.51510601552268,31.177956542566324,"2022-03-28"
"浦东新区","上海市浦东新区云台路453弄",121.53688426481492,31.18970225553777,"2022-03-28"
"浦东新区","上海市浦东新区川沙镇郭家宅",121.75475425269413,31.117472257717917,"2022-03-28"
"浦东新区","上海市浦东新区其成村",121.69209061625129,31.120092933510254,"2022-03-28"
"浦东新区","上海市浦东新区新陈路150弄",121.53688426481492,31.18970225553777,"2022-03-28"
"浦东新区","上海市浦东新区齐河路27弄",121.50659987081814,31.184567437874225,"2022-03-28"
"浦东新区","上海市浦东新区环桥路1488弄",121.58485970786411,31.120077939878794,"2022-03-28"
"浦东新区","上海市浦东新区陈行村",121.71962493775982,31.172006469530608,"2022-03-28"
"浦东新区","上海市浦东新区华路村",121.74277930126281,31.20013653127087,"2022-03-28"
"浦东新区","上海市浦东新区浦东大道2511弄",121.56640626692538,31.265127505972,"2022-03-28"
"浦东新区","上海市浦东新区金沪路1218弄",121.61069129127848,31.246915347325004,"2022-03-28"
"浦东新区","上海市浦东新区永乐村",121.76223767657554,31.081001669420488,"2022-03-28"
"浦东新区","上海市浦东新区鹤立西路88弄",121.59123174816858,31.06555502677004,"2022-03-28"
"浦东新区","上海市浦东新区航昌路199弄",121.61501636281737,31.08492173263943,"2022-03-28"
"浦东新区","上海市浦东新区梓康路258号",121.57369188393352,31.128319748302257,"2022-03-28"
"浦东新区","上海市浦东新区秀龙村",121.5691399004228,31.132605675883436,"2022-03-28"
"浦东新区","上海市浦东新区沿江村",121.60803796629367,31.060273364197414,"2022-03-28"
"浦东新区","上海市浦东新区周市路1321号",121.58970166439343,31.119318594332626,"2022-03-28"
"浦东新区","上海市浦东新区沈西村",121.57207196960738,31.096648242037833,"2022-03-28"
"浦东新区","上海市浦东新区施镇路385弄",121.76379129595504,31.15034837509582,"2022-03-28"
"浦东新区","上海市浦东新区迅建村",121.69922513827262,31.284090892321522,"2022-03-28"
"浦东新区","上海市浦东新区龚华路50弄",121.69183253307827,31.27058283787956,"2022-03-28"
"浦东新区","上海市浦东新区群乐村付家圈",121.68863528410715,31.287960888558967,"2022-03-28"
"浦东新区","上海市浦东新区民建村",121.6677989081421,31.282249806545646,"2022-03-28"
"浦东新区","上海市浦东新区民区路176弄",121.65798465095395,31.27767937775435,"2022-03-28"
"浦东新区","上海市浦东新区民春路501弄",121.65277879086253,31.290487771739045,"2022-03-28"
"浦东新区","上海市浦东新区海松路398弄",121.68749075305689,31.283934428831106,"2022-03-28"
"浦东新区","上海市浦东新区建新村周家宅",121.6826391846586,31.30114306940128,"2022-03-28"
"浦东新区","上海市浦东新区古棕路168弄",121.9238777819049,30.890266510779377,"2022-03-28"
"浦东新区","上海市浦东新区民区路260弄",121.66203439185404,31.279504351019632,"2022-03-28"
"浦东新区","上海市浦东新区启明村",121.69918588232184,31.284123295970193,"2022-03-28"
"浦东新区","上海市浦东新区海鸣路98弄",121.6775482178419,31.28862783374773,"2022-03-28"
"浦东新区","上海市浦东新区顾唐路138弄",121.65277879086253,31.290487771739045,"2022-03-28"
"浦东新区","上海市浦东新区顾东村",121.66813478457229,31.299381001669992,"2022-03-28"
"浦东新区","上海市浦东新区海容路99弄",121.68083502787236,31.286961889101804,"2022-03-28"
"浦东新区","上海市浦东新区永和村",121.70205399215409,31.270096557168518,"2022-03-28"
"浦东新区","上海市浦东新区康沈路1758弄",121.58452158567016,31.119686481592485,"2022-03-28"
"浦东新区","上海市浦东新区北庄村",121.66391957579727,31.100195748827556,"2022-03-28"
"浦东新区","上海市浦东新区康沈路1527弄",121.58264879834296,31.124953139907806,"2022-03-28"
"浦东新区","上海市浦东新区金银花路凌霄花路南侧工地生活区",121.63052982948305,31.104958814154898,"2022-03-28"
"浦东新区","上海市浦东新区韵浦路167弄",121.58300075444176,31.117705592645105,"2022-03-28"
"浦东新区","上海市浦东新区繁荣东路159号",121.59366840186439,31.11370372953176,"2022-03-28"
"浦东新区","上海市浦东新区周星路500弄",121.58569980317705,31.10805931117418,"2022-03-28"
"浦东新区","上海市浦东新区瑞阳路693弄",121.59767502410001,31.09454387106959,"2022-03-28"
"浦东新区","上海市浦东新区周南村",121.58997088655478,31.111919735760996,"2022-03-28"
"浦东新区","上海市浦东新区周东路418弄",121.59321448809021,31.122845151798387,"2022-03-28"
"浦东新区","上海市浦东新区周泰路32弄",121.6074340354993,31.107255809071958,"2022-03-28"
"浦东新区","上海市浦东新区年家浜路339弄",121.58328012745537,31.120638189977118,"2022-03-28"
"浦东新区","上海市浦东新区周东路508弄",121.59240646228399,31.124977793103845,"2022-03-28"
"浦东新区","上海市浦东新区年家浜路28弄",121.59212753842314,31.1211568569416,"2022-03-28"
"浦东新区","上海市浦东新区周阳路258弄",121.60918483293825,31.09951184569445,"2022-03-28"
"浦东新区","上海市浦东新区坦南村",121.65884962932951,31.072493887859476,"2022-03-28"
"浦东新区","上海市浦东新区唐陆路1190号",121.6422064536545,31.24833734246851,"2022-03-28"
"浦东新区","上海市浦东新区金湘路201弄",121.61976462608202,31.261871069580963,"2022-03-28"
"浦东新区","上海市浦东新区佳乐路255弄",121.62239890699003,31.274493516866418,"2022-03-28"
"浦东新区","上海市浦东新区碧云路1198号",121.59600767924293,31.24888038701341,"2022-03-28"
"浦东新区","上海市浦东新区碧云路86弄",121.58007685983733,31.241368402522173,"2022-03-28"
"浦东新区","上海市浦东新区长岛路1398弄",121.60597842125094,31.269798784217294,"2022-03-28"
"浦东新区","上海市浦东新区博兴路1268弄",121.60326809236506,31.273380572816723,"2022-03-28"
"浦东新区","上海市浦东新区东后老街",121.65477796977497,31.027548018802232,"2022-03-28"
"浦东新区","上海市浦东新区新环北路1333弄",121.64154835503788,31.035528578829364,"2022-03-28"
"浦东新区","上海市浦东新区仁义村",121.64729337809639,31.064314697494762,"2022-03-28"
"浦东新区","上海市浦东新区众安村",121.65674471985852,31.003942768973364,"2022-03-28"
"浦东新区","上海市浦东新区新卫村",121.64761515113007,31.044082628274037,"2022-03-28"
"浦东新区","上海市浦东新区王桥村",121.70182842764055,31.21255135341995,"2022-03-28"
"浦东新区","上海市浦东新区坦西村",121.65331067755497,31.091888312065223,"2022-03-28"
"浦东新区","上海市浦东新区合庆镇奚家队杨家宅",121.72998850876732,31.243208518641033,"2022-03-28"
"浦东新区","上海市浦东新区合庆镇庆丰村邬家宅",121.72371950410485,31.24705219137166,"2022-03-28"
"浦东新区","上海市浦东新区庆利路425号",121.73217049285107,31.23750581619761,"2022-03-28"
"浦东新区","上海市浦东新区前哨路231弄",121.72927472471318,31.244442779758597,"2022-03-28"
"浦东新区","上海市浦东新区博兴路799弄",121.59697731021042,31.27188533546996,"2022-03-28"
"浦东新区","上海市浦东新区荷泽路418弄",121.59969513353084,31.272904635194184,"2022-03-28"
"浦东新区","上海市浦东新区张杨北路512弄",121.59555906547125,31.27139929302512,"2022-03-28"
"浦东新区","上海市浦东新区川沙路4850弄",121.65277879086253,31.290487771739045,"2022-03-28"
"浦东新区","上海市浦东新区南桥路983弄",121.69942851464009,31.193460242298354,"2022-03-28"
"浦东新区","上海市浦东新区新德路558弄",121.69840094296723,31.203004624055815,"2022-03-28"
"浦东新区","上海市浦东新区绣川路1130号",121.71632465314671,31.191722787773212,"2022-03-28"
"浦东新区","上海市浦东新区妙栏路353弄",121.6960583418583,31.192565030175434,"2022-03-28"
"浦东新区","上海市浦东新区城南路627弄",121.70162621907025,31.19559058416537,"2022-03-28"
"浦东新区","上海市浦东新区江晖路296弄",121.74378702038389,31.179845869758992,"2022-03-28"
"浦东新区","上海市浦东新区新东路5号",121.74713293891692,31.19873751074223,"2022-03-28"
"浦东新区","上海市浦东新区南桥路1060弄",121.69740876453146,31.193551137667953,"2022-03-28"
"浦东新区","上海市浦东新区妙境路124弄",121.69510892276482,31.202324712849943,"2022-03-28"
"浦东新区","上海市浦东新区华夏二路1255弄",121.69800191565969,31.18281197716778,"2022-03-28"
"浦东新区","上海市浦东新区城南路677号",121.70060454627023,31.195847741710327,"2022-03-28"
"浦东新区","上海市浦东新区妙境路600弄",121.6977133799299,31.195320915495213,"2022-03-28"
"浦东新区","上海市浦东新区小湾村",121.69607693678236,31.23979022711445,"2022-03-28"
"浦东新区","上海市浦东新区妙境路395弄",121.69777841724881,31.199178678989814,"2022-03-28"
"浦东新区","上海市浦东新区川环南路921弄",121.70144377322117,31.191838474918793,"2022-03-28"
"浦东新区","上海市浦东新区新吉村",121.72502842506343,31.11674713037451,"2022-03-28"
"浦东新区","上海市浦东新区银峰路676弄",121.65277879086253,31.290487771739045,"2022-03-28"
"浦东新区","上海市浦东新区妙南路265弄",121.69484221585888,31.1919764806927,"2022-03-28"
"浦东新区","上海市浦东新区华夏二路200弄",121.6906064358877,31.200057534311252,"2022-03-28"
"浦东新区","上海市浦东新区五莲路1168号",121.60292939268898,31.278456344054472,"2022-03-28"
"浦东新区","上海市浦东新区柳埠路135弄",121.58893424199627,31.268891029980523,"2022-03-28"
"浦东新区","上海市浦东新区金桥路2552弄",121.60918438378549,31.23991303336551,"2022-03-28"
"浦东新区","上海市浦东新区瑞浦路77弄",121.59264092002209,31.103960025909874,"2022-03-28"
"浦东新区","上海市浦东新区川化新村",121.69419992741926,31.224799243530995,"2022-03-28"
"浦东新区","上海市浦东新区桂江路77弄",121.43505962847846,31.17217887803817,"2022-03-28"
"浦东新区","上海市浦东新区康安路御北路交界口工地生活区",121.56378599958333,31.16393929723239,"2022-03-28"
"浦东新区","上海市浦东新区莲安西路125弄",121.55974578072166,31.18532718248633,"2022-03-28"
"浦东新区","上海市浦东新区御青路56弄",121.57846907263557,31.165031924344618,"2022-03-28"
"浦东新区","上海市浦东新区杨南路689弄",121.50710462868419,31.15691772109531,"2022-03-28"
"浦东新区","上海市浦东新区闵家浜路70弄",121.55045460683195,31.227348292436346,"2022-03-28"
"浦东新区","上海市浦东新区张家桥村",121.69320765915295,31.043286160191865,"2022-03-28"
"浦东新区","上海市浦东新区新安村",121.68776015487933,31.029332219409053,"2022-03-28"
"浦东新区","上海市浦东新区南六公路699弄1支弄",121.7157792918716,31.07790894046874,"2022-03-28"
"浦东新区","上海市浦东新区闵家浜路60弄",121.72851160467837,31.080777521701723,"2022-03-28"
"浦东新区","上海市浦东新区永业路218弄",121.62288156654054,31.272262037844655,"2022-03-28"
"浦东新区","上海市浦东新区永宁路136弄",121.61639696855566,31.271543122962676,"2022-03-28"
"浦东新区","上海市浦东新区佳林路115弄",121.61585178694166,31.274977922870395,"2022-03-28"
"浦东新区","上海市浦东新区韵涛路36弄",121.58485970786411,31.120077939878794,"2022-03-28"
"浦东新区","上海市浦东新区顾三村",121.6826582287354,31.301055132650703,"2022-03-28"
"浦东新区","上海市浦东新区上川路中虹家园",121.67887025406094,31.28887802375613,"2022-03-28"
"浦东新区","上海市浦东新区永丰村陈家宅",121.68324625952225,31.257492423349778,"2022-03-28"
"浦东新区","上海市浦东新区日新村杨薛家宅",121.67495543864845,31.26547221132191,"2022-03-28"
"浦东新区","上海市浦东新区永春南路407弄",121.74527161547412,30.97455495339307,"2022-03-28"
"浦东新区","上海市浦东新区永春西二路86弄",121.74365856269597,30.98034918526593,"2022-03-28"
"浦东新区","上海市浦东新区柴场村",121.73266366257604,31.186753897798436,"2022-03-28"
"浦东新区","上海市浦东新区赵桥村",121.6538308862758,31.297234123668435,"2022-03-28"
"浦东新区","上海市浦东新区严楼村",121.75404881337712,31.02288184548314,"2022-03-28"
"浦东新区","上海市浦东新区浦东大道2970弄",121.58527436568751,31.2829352319847,"2022-03-28"
"浦东新区","上海市浦东新区五莲路100弄",121.58579735915542,31.281678100479343,"2022-03-28"
"浦东新区","上海市浦东新区兰城路115弄",121.58550415223696,31.27245247181405,"2022-03-28"
"浦东新区","上海市浦东新区寿光路75弄",121.58957799109862,31.279647069122593,"2022-03-28"
"浦东新区","上海市浦东新区柳埠路142弄",121.5889156470722,31.269330401417204,"2022-03-28"
"浦东新区","上海市浦东新区浦东大道3080弄",121.58432557540789,31.288610244045692,"2022-03-28"
"浦东新区","上海市浦东新区莱阳路201弄",121.58640533232457,31.27945497158419,"2022-03-28"
"浦东新区","上海市浦东新区浦东大道2920弄",121.58360261913344,31.280936343289373,"2022-03-28"
"浦东新区","上海市浦东新区东波路258号",121.58768344140417,31.289948980623233,"2022-03-28"
"浦东新区","上海市浦东新区长岛路85弄",121.58469343151421,31.274539040952714,"2022-03-28"
"浦东新区","上海市浦东新区张杨北路555弄",121.59349026788176,31.27206427314543,"2022-03-28"
"浦东新区","上海市浦东新区向东新村",121.58494558587087,31.279319100846607,"2022-03-28"
"浦东新区","上海市浦东新区长岛路99号",121.58323161895783,31.273668138186082,"2022-03-28"
"浦东新区","上海市浦东新区长岛路259弄",121.5832523698151,31.273179327236935,"2022-03-28"
"浦东新区","上海市浦东新区博兴路250弄",121.58638727638383,31.274900995229025,"2022-03-28"
"浦东新区","上海市浦东新区莱阳路218号",121.58962611690005,31.28158489894264,"2022-03-28"
"浦东新区","上海市浦东新区博兴路456弄",121.58962611690005,31.28158489894264,"2022-03-28"
"浦东新区","上海市浦东新区川周公路8288弄",121.71119496936254,31.18350886710539,"2022-03-28"
"浦东新区","上海市浦东新区翔川路458弄",121.70152318342825,31.18903143816163,"2022-03-28"
"浦东新区","上海市浦东新区川周公路8682号",121.71611894118493,31.190439793852903,"2022-03-28"
"浦东新区","上海市浦东新区华戴路299弄",121.70431242203674,31.187521193350097,"2022-03-28"
"浦东新区","上海市浦东新区华戴路599弄",121.70598300079365,31.18210388287232,"2022-03-28"
"浦东新区","上海市浦东新区民生路818弄",121.55276262317874,31.237661739919705,"2022-03-28"
"浦东新区","上海市浦东新区羽山路100弄",121.54443048025149,31.23549321900508,"2022-03-28"
"浦东新区","上海市浦东新区区巨野路1700弄",121.55045460683195,31.227348292436346,"2022-03-28"
"浦东新区","上海市浦东新区苗圃路218弄",121.55407971871747,31.248664744062587,"2022-03-28"
"浦东新区","上海市浦东新区栖山路450弄",121.55795312224595,31.253811250753607,"2022-03-28"
"浦东新区","上海市浦东新区巨野路482弄",121.55494415810973,31.242174152454698,"2022-03-28"
"浦东新区","上海市浦东新区巨野路197弄",121.55197768382412,31.248084805613694,"2022-03-28"
"浦东新区","上海市浦东新区栖山路465弄",121.5573284405943,31.253880941167854,"2022-03-28"
"浦东新区","上海市浦东新区灵山路701弄",121.55204514656792,31.236214804107753,"2022-03-28"
"浦东新区","上海市浦东新区沈家弄路900弄",121.55137033946883,31.24494602122636,"2022-03-28"
"浦东新区","上海市浦东新区浦东大道1700弄",121.55042379495296,31.25138193238156,"2022-03-28"
"浦东新区","上海市浦东新区栖山路130弄",121.55126640552133,31.24930711778625,"2022-03-28"
"浦东新区","上海市浦东新区北项湾",121.5601669961753,31.367679309466983,"2022-03-28"
"浦东新区","上海市浦东新区季景路370弄",121.59585865035882,31.342088287628954,"2022-03-28"
"浦东新区","上海市浦东新区新德路341弄",121.7051139800433,31.203572332618545,"2022-03-28"
"浦东新区","上海市浦东新区进贤路155弄",121.6983223412351,31.198003203865806,"2022-03-28"
"浦东新区","上海市浦东新区川沙路4650弄",121.70311273502816,31.20415787499188,"2022-03-28"
"浦东新区","上海市浦东新区新虹村赵家宅",121.65503362752312,31.248713367963926,"2022-03-28"
"浦东新区","上海市浦东新区川沙路4028号",121.69813396656967,31.215202033387943,"2022-03-28"
"浦东新区","上海市浦东新区虹四村",121.66187045109847,31.24657551321714,"2022-03-28"
"浦东新区","上海市浦东新区周秀路168弄",121.61309686360366,31.104055414085327,"2022-03-28"
"浦东新区","上海市浦东新区红桥村",121.6399521559772,31.108110249652228,"2022-03-28"
"浦东新区","上海市浦东新区姚桥村",121.60491842074917,31.120351998352223,"2022-03-28"
"浦东新区","上海市浦东新区梅林村",121.5686535578197,31.092572579867824,"2022-03-28"
"浦东新区","上海市浦东新区康达路118弄",121.58485970786411,31.120077939878794,"2022-03-28"
"浦东新区","上海市浦东新区瑞福路196弄",121.60927699908358,31.102197878158577,"2022-03-28"
"浦东新区","上海市浦东新区瑞安路211弄",121.59732225952624,31.09677571959406,"2022-03-28"
"浦东新区","上海市浦东新区祝家港路399弄",121.59834659729927,31.11752350025074,"2022-03-28"
"浦东新区","上海市浦东新区瑞阳路81弄",121.59474385322095,31.10537166826629,"2022-03-28"
"浦东新区","上海市浦东新区周市路39弄",121.58821829250482,31.11620471105953,"2022-03-28"
"浦东新区","上海市浦东新区周汇路158弄",121.58485970786411,31.120077939878794,"2022-03-28"
"浦东新区","上海市浦东新区安阁苑",121.59751862911072,31.093266351677208,"2022-03-28"
"浦东新区","上海市浦东新区城丰路70弄",121.69583511293908,31.197620178960314,"2022-03-28"
"浦东新区","上海市浦东新区新春村朱家宅",121.6912997480803,31.171772110862882,"2022-03-28"
"浦东新区","上海市浦东新区城丰路212弄",121.69319589135075,31.19656878299049,"2022-03-28"
"浦东新区","上海市浦东新区芙蓉路81弄",121.6751705828181,31.17059065309083,"2022-03-28"
"浦东新区","上海市浦东新区创新西路199弄",121.66081045059668,31.207582255485885,"2022-03-28"
"浦东新区","上海市浦东新区民丰村李家宅",121.64861595329873,31.214212833818383,"2022-03-28"
"浦东新区","上海市浦东新区民丰村龚家宅",121.64474219044806,31.207675762451128,"2022-03-28"
"浦东新区","上海市浦东新区唐镇新街",121.66245812256308,31.216518273368063,"2022-03-28"
"浦东新区","上海市浦东新区吕三村南蒋家宅",121.64495697529549,31.219218638333935,"2022-03-28"
"浦东新区","上海市浦东新区民丰村北黄家宅",121.65243986019361,31.21196594073653,"2022-03-28"
"浦东新区","上海市浦东新区行南路900弄",121.59295703373105,31.335887101737764,"2022-03-28"
"浦东新区","上海市浦东新区北新园路460弄",121.6347431518165,31.326191717177842,"2022-03-28"
"浦东新区","上海市浦东新区高宝路68弄",121.62729152795012,31.29737066259963,"2022-03-28"
"浦东新区","上海市浦东新区陆凌村宋家宅",121.57010962122082,31.352399705849844,"2022-03-28"
"浦东新区","上海市浦东新区清溪路260弄",121.58022328363546,31.348955343285247,"2022-03-28"
"浦东新区","上海市浦东新区望三村东唐家宅",121.77095995358577,31.159674808829035,"2022-03-28"
"浦东新区","上海市浦东新区航城三路86弄",121.75078428132332,31.15442207275794,"2022-03-28"
"浦东新区","上海市浦东新区航城三路288弄",121.75372398610472,31.15627486796063,"2022-03-28"
"浦东新区","上海市浦东新区施湾二路766弄",121.75309490275609,31.152146859432357,"2022-03-28"
"浦东新区","上海市浦东新区航城五路151弄",121.75421535921869,31.148331664371444,"2022-03-28"
"浦东新区","上海市浦东新区金高路1620号",121.6161564023401,31.277844261808408,"2022-03-28"
"浦东新区","上海市浦东新区金高路2131弄",121.61704653326993,31.267471971131776,"2022-03-28"
"浦东新区","上海市浦东新区祥安路149弄",121.81950662910876,30.965455197561468,"2022-03-28"
"浦东新区","上海市浦东新区博兴路1676弄",121.60817944941148,31.281497329533256,"2022-03-28"
"浦东新区","上海市浦东新区长岛路1338弄",121.60322771994883,31.26832387201498,"2022-03-28"
"浦东新区","上海市浦东新区荷泽路828弄",121.60370669644675,31.266175585318496,"2022-03-28"
"浦东新区","上海市浦东新区凌河路38弄",121.60075360691324,31.282569682663706,"2022-03-28"
"浦东新区","上海市浦东新区营前村",121.7544008593065,31.19550926663265,"2022-03-28"
"浦东新区","上海市浦东新区晚霞路715弄",121.76062899106826,31.184636677841034,"2022-03-28"
"浦东新区","上海市浦东新区大沟村",121.76496609990099,31.17838792208536,"2022-03-28"
"浦东新区","上海市浦东新区清溪路299弄",121.57943744597533,31.34797696565905,"2022-03-28"
"浦东新区","上海市浦东新区冬融路25弄",121.59625992343014,31.34027610421222,"2022-03-28"
"浦东新区","上海市浦东新区秋霞路300弄",121.59359420182928,31.34069964153498,"2022-03-28"
"浦东新区","上海市浦东新区春晖路446弄",121.58694494444443,31.34463914803764,"2022-03-28"
"浦东新区","上海市浦东新区行泰路150弄",121.61433778283515,31.295245646775623,"2022-03-28"
"浦东新区","上海市浦东新区荷泽路25弄",121.5969184711995,31.27946639058096,"2022-03-28"
"浦东新区","上海市浦东新区长岛路1203弄",121.60099758668976,31.270094010785566,"2022-03-28"
"浦东新区","上海市浦东新区双桥路220弄",121.58962611690005,31.28158489894264,"2022-03-28"
"浦东新区","上海市浦东新区平度路388弄",121.59895412131566,31.259062505588115,"2022-03-28"
"浦东新区","上海市浦东新区双桥路180弄",121.60015829985178,31.29039265033769,"2022-03-28"
"浦东新区","上海市浦东新区荷泽路58弄",121.5968908033898,31.278780862523867,"2022-03-28"
"浦东新区","上海市浦东新区台儿庄路663弄",121.60033796095378,31.264978881782035,"2022-03-28"
"浦东新区","上海市浦东新区东陆路1018弄",121.59902095524562,31.277911928226455,"2022-03-28"
"浦东新区","上海市浦东新区博兴路760弄",121.59481931088379,31.27043152166808,"2022-03-28"
"浦东新区","上海市浦东新区东陆路898弄",121.59898160946427,31.280897766199242,"2022-03-28"
"浦东新区","上海市浦东新区金工路172弄",121.59656480832024,31.262466587897183,"2022-03-28"
"浦东新区","上海市浦东新区长岛路1560弄",121.60831428506853,31.270698813371908,"2022-03-28"
"浦东新区","上海市浦东新区金工路133弄",121.58962611690005,31.28158489894264,"2022-03-28"
"浦东新区","上海市浦东新区五莲路959弄",121.59865768049737,31.27732391544589,"2022-03-28"
"浦东新区","上海市浦东新区向城路19号",121.53642505103822,31.23045184850981,"2022-03-28"
"浦东新区","上海市浦东新区向城路29号",121.53626093062155,31.230963732765602,"2022-03-28"
"浦东新区","上海市浦东新区崂山路551弄",121.52875567791624,31.232572857538436,"2022-03-28"
"浦东新区","上海市浦东新区潍坊西路1弄",121.55045460683195,31.227348292436346,"2022-03-28"
"浦东新区","上海市浦东新区张杨路1338号",121.53919246082282,31.23813383213902,"2022-03-28"
"浦东新区","上海市浦东新区潍坊西路2弄",121.55045460683195,31.227348292436346,"2022-03-28"
"浦东新区","上海市浦东新区张杨路1308号",121.53785093137421,31.237263516392908,"2022-03-28"
"浦东新区","上海市浦东新区潍坊路89弄",121.52638702594753,31.229708372361436,"2022-03-28"
"浦东新区","上海市浦东新区潍坊路126弄",121.53066547543045,31.229645611618768,"2022-03-28"
"浦东新区","上海市浦东新区福山路519号",121.53880088945101,31.228370239363002,"2022-03-28"
"浦东新区","上海市浦东新区崂山路645弄",121.53134881643189,31.227805460283697,"2022-03-28"
"浦东新区","上海市浦东新区浦电路48弄",121.52301829045456,31.224774384963634,"2022-03-28"
"浦东新区","上海市浦东新区浦东南路1200号",121.52264360722634,31.23222393957297,"2022-03-28"
"浦东新区","上海市浦东新区商城路48弄",121.60194206510296,31.034311835001294,"2022-03-28"
"浦东新区","上海市浦东新区海桥村",121.61706297226075,31.016067923499705,"2022-03-28"
"浦东新区","上海市浦东新区福善村",121.61855559669614,31.03197716526471,"2022-03-28"
"浦东新区","上海市浦东新区环镇东路185弄",121.61084795575943,31.0264618393061,"2022-03-28"
"浦东新区","上海市浦东新区丰桥村",121.59938485880771,31.018896066472166,"2022-03-28"
"浦东新区","上海市浦东新区航鹤路1858弄",121.590976180251,31.05615119264956,"2022-03-28"
"浦东新区","上海市浦东新区鹤东村",121.60297826050872,31.06114895730399,"2022-03-28"
"浦东新区","上海市浦东新区莱阳路301弄",121.5859471965145,31.280357685263912,"2022-03-28"
"浦东新区","上海市浦东新区博兴路465弄",121.58987225260978,31.272066665151705,"2022-03-28"
"浦东新区","上海市浦东新区利津路555弄",121.59369957306559,31.28038854711578,"2022-03-28"
"浦东新区","上海市浦东新区寿光路161弄",121.59052532071554,31.280396185422553,"2022-03-28"
"浦东新区","上海市浦东新区利津路53弄",121.58491028246432,31.28569254492477,"2022-03-28"
"浦东新区","上海市浦东新区周东路191弄",121.59391561554075,31.118618136099798,"2022-03-28"
"浦东新区","上海市浦东新区周东南路388弄",121.59594542138694,31.103748864755293,"2022-03-28"
"浦东新区","上海市浦东新区高博路210弄",121.5866368256545,31.30248517448778,"2022-03-28"
"浦东新区","上海市浦东新区凌河路618弄",121.60815285956838,31.276965751274,"2022-03-28"
"浦东新区","上海市浦东新区民义村",121.70506789697062,31.13432390227659,"2022-03-28"
"浦东新区","上海市浦东新区灵山路1840弄",121.578033843616,31.248054473360007,"2022-03-28"
"浦东新区","上海市浦东新区灵山路1726弄",121.57499685234785,31.246511528869256,"2022-03-28"
"浦东新区","上海市浦东新区栖山路1861弄",121.57710095334389,31.267784875846075,"2022-03-28"
"浦东新区","上海市浦东新区万德路45弄",121.56391661320447,31.25764761918562,"2022-03-28"
"浦东新区","上海市浦东新区栖山路1578弄",121.57205490180269,31.263750369559776,"2022-03-28"
"浦东新区","上海市浦东新区德平路1065弄",121.57423419096989,31.249263047832805,"2022-03-28"
"浦东新区","上海市浦东新区银山路72弄",121.5849090248366,31.24824734927878,"2022-03-28"
"浦东新区","上海市浦东新区张杨路2999弄",121.57370068732752,31.253982428223043,"2022-03-28"
"浦东新区","上海市浦东新区栖山路1855号",121.57779749943631,31.26719232371363,"2022-03-28"
"浦东新区","上海市浦东新区德平路1134弄",121.57628601058522,31.24564090516471,"2022-03-28"
"浦东新区","上海市浦东新区金台路200弄",121.59422157839744,31.257084483190823,"2022-03-28"
"浦东新区","上海市浦东新区栖山路1689弄",121.57390154843955,31.265103198293538,"2022-03-28"
"浦东新区","上海市浦东新区居家桥路1030弄",121.57717353642909,31.251094982007487,"2022-03-28"
"浦东新区","上海市浦东新区金台路115弄",121.59090395648799,31.25565343726163,"2022-03-28"
"浦东新区","上海市浦东新区金台路1490弄",121.59235849276976,31.25619559038973,"2022-03-28"
"浦东新区","上海市浦东新区羽山路1950弄",121.57434423339485,31.25075130413623,"2022-03-28"
"浦东新区","上海市浦东新区博山东路459弄",121.57368038562298,31.25988214826509,"2022-03-28"
"浦东新区","上海市浦东新区栖山路1558弄",121.57216036286955,31.26303980059529,"2022-03-28"
"浦东新区","上海市浦东新区云山路839弄",121.58155223680693,31.260050767960063,"2022-03-28"
"浦东新区","上海市浦东新区栖山路1899弄",121.58012761409864,31.267992295212288,"2022-03-28"
"浦东新区","上海市浦东新区德平路1060弄",121.57348671095504,31.24824966471357,"2022-03-28"
"浦东新区","上海市浦东新区德平路58弄",121.56502817644252,31.258310922203265,"2022-03-28"
"浦东新区","上海市浦东新区博山东路20弄",121.5660388599718,31.253391023400393,"2022-03-28"
"浦东新区","上海市浦东新区灵山路1671弄",121.57231100870358,31.245771344870743,"2022-03-28"
"浦东新区","上海市浦东新区罗山四村",121.5680724439853,31.255873077185406,"2022-03-28"
"浦东新区","上海市浦东新区德平路1066弄",121.57397278406648,31.24683569519886,"2022-03-28"
"浦东新区","上海市浦东新区川周路8828弄",121.71626186159158,31.193206090036565,"2022-03-28"
"浦东新区","上海市浦东新区妙川路800弄",121.71007352476387,31.184302294282435,"2022-03-28"
"浦东新区","上海市浦东新区妙栏路200弄",121.69443097159643,31.190669781053366,"2022-03-28"
"浦东新区","上海市浦东新区长桥村南乔家宅",121.73538103674373,31.14259088659535,"2022-03-28"
"浦东新区","上海市浦东新区六团周家宅",121.47873641017075,31.124012372204763,"2022-03-28"
"浦东新区","上海市浦东新区普庆路115弄",121.72634336466895,31.160583313604086,"2022-03-28"
"浦东新区","上海市浦东新区凌空路55弄",121.72371240749132,31.208434161489265,"2022-03-28"
"浦东新区","上海市浦东新区庆星村顾家宅",121.72570709487623,31.240436443995055,"2022-03-28"
"浦东新区","上海市浦东新区东风村",121.705700034558,31.232450813592735,"2022-03-28"
"浦东新区","上海市浦东新区创业路798号",121.70320642829286,31.22134908917077,"2022-03-28"
"浦东新区","上海市浦东新区合庆庆星村西圈夏家宅",121.72911930835588,31.238801827751818,"2022-03-28"
"浦东新区","上海市浦东新区合庆镇前哨村马家宅",121.74420383414054,31.247222609396808,"2022-03-28"
"浦东新区","上海市浦东新区庆丰村",121.72371950410485,31.24705219137166,"2022-03-28"
"浦东新区","上海市浦东新区庆滨路155弄",121.72951141871098,31.238551812388327,"2022-03-28"
"浦东新区","上海市浦东新区海塘村南海唐宅",121.76536467805578,31.218434771543873,"2022-03-28"
"浦东新区","上海市浦东新区前哨村三队顾家宅",121.74420383414054,31.247222609396808,"2022-03-28"
"浦东新区","上海市浦东新区博兴路986弄",121.59726297136258,31.27067103482398,"2022-03-28"
"浦东新区","上海市浦东新区勤益村顾家宅",121.71681036693595,31.215195470671564,"2022-03-28"
"浦东新区","上海市浦东新区康弘路580弄",121.60607678570427,31.132845541712022,"2022-03-28"
"浦东新区","上海市浦东新区德爱路380弄",121.58962611690005,31.28158489894264,"2022-03-28"
"浦东新区","上海市浦东新区潍坊路335弄2支弄",121.53788695342516,31.235615027407125,"2022-03-28"
"浦东新区","上海市浦东新区浦电路57号",121.52301191248543,31.22317632034983,"2022-03-28"
"浦东新区","上海市浦东新区浦东南路1550弄",121.52482810656551,31.226487912239136,"2022-03-28"
"浦东新区","上海市浦东新区潍坊路335弄3支弄",121.53788695342516,31.235615027407125,"2022-03-28"
"浦东新区","上海市浦东新区源深路600弄",121.54036717493821,31.237760542935803,"2022-03-28"
"浦东新区","上海市浦东新区永新村",121.79691199976904,31.075899412449523,"2022-03-28"
"浦东新区","上海市浦东新区踊跃村",121.6587103021449,31.312294243269257,"2022-03-28"
"浦东新区","上海市浦东新区高宝路300弄",121.58962611690005,31.28158489894264,"2022-03-28"
"浦东新区","上海市浦东新区高东二路118弄",121.63203026917635,31.32990867036808,"2022-03-28"
"浦东新区","上海市浦东新区德平路155弄",121.56795404731908,31.25660183659443,"2022-03-28"
"浦东新区","上海市浦东新区金浜村金家浜",121.56892062404782,31.263373864370728,"2022-03-28"
"浦东新区","上海市浦东新区德平路764弄",121.57177624743349,31.25020703558526,"2022-03-28"
"浦东新区","上海市浦东新区云山路1395弄",121.58422676180179,31.251544007243965,"2022-03-28"
"浦东新区","上海市浦东新区德平路730弄",121.57150001848917,31.251636158254726,"2022-03-28"
"浦东新区","上海市浦东新区板泉路2000弄",121.53688426481492,31.18970225553777,"2022-03-28"
"浦东新区","上海市浦东新区新村路59弄",121.50318639971077,31.170014556678424,"2022-03-28"
"浦东新区","上海市浦东新区长清路967弄",121.50066126292222,31.158099737357915,"2022-03-28"
"浦东新区","上海市浦东新区鹤鸣村",121.60056208817852,31.050200132685855,"2022-03-28"
"浦东新区","上海市浦东新区严中路300弄",121.5388766166055,31.196156020936083,"2022-03-28"
"浦东新区","上海市浦东新区牡丹路258弄",121.5556305533499,31.213972712771053,"2022-03-28"
"浦东新区","上海市浦东新区丁香路901弄",121.55712829812667,31.233140000844234,"2022-03-28"
"浦东新区","上海市浦东新区新川路995弄",121.69338516432171,31.19502715183379,"2022-03-28"
"浦东新区","上海市浦东新区严民路251弄",121.5373999820082,31.194882895313757,"2022-03-28"
"浦东新区","上海市浦东新区芳华路310弄",121.56401821155765,31.201334527828102,"2022-03-28"
"浦东新区","上海市浦东新区芳华路630弄",121.55655904192501,31.200205103357757,"2022-03-28"
"浦东新区","上海市浦东新区海阳路1125弄",121.51526025457873,31.165597159209877,"2022-03-28"
"浦东新区","上海市浦东新区东三街15弄",121.5137983521918,31.206974419328482,"2022-03-28"
"浦东新区","上海市浦东新区黄楼村张家宅",121.65798824417598,31.17533578243895,"2022-03-28"
"浦东新区","上海市浦东新区药师新村",121.68918414877375,31.2090166621391,"2022-03-28"
"浦东新区","上海市浦东新区合庆镇庆丰村龚家宅",121.72371950410485,31.24705219137166,"2022-03-28"
"浦东新区","上海市浦东新区祝潘公路301弄",121.76684274994189,31.114088797527916,"2022-03-28"
"浦东新区","上海市浦东新区运通路728弄",121.70893240727456,31.209195951774223,"2022-03-28"
"浦东新区","上海市浦东新区妙明北路116弄",121.69625605890106,31.20782795236584,"2022-03-28"
"浦东新区","上海市浦东新区妙境路162弄",121.69502043967206,31.20233359303947,"2022-03-28"
"浦东新区","上海市浦东新区妙境北路451号",121.69277665216926,31.21367406618473,"2022-03-28"
"浦东新区","上海市浦东新区妙境北路323号",121.69346223893447,31.210985663557818,"2022-03-28"
"浦东新区","上海市浦东新区妙境北路65号",121.69461898693966,31.206975886417457,"2022-03-28"
"浦东新区","上海市浦东新区跃进新村",121.70929756846435,31.214192913832104,"2022-03-28"
"浦东新区","上海市浦东新区利川路501弄",121.69032203236324,31.210117874968198,"2022-03-28"
"浦东新区","上海市浦东新区东川公路5979号",121.72629072396606,31.240583563458838,"2022-03-28"
"浦东新区","上海市浦东新区祝城路85弄",121.77100010784207,31.116464173068866,"2022-03-28"
"浦东新区","上海市浦东新区广益路9弄",121.55045460683195,31.227348292436346,"2022-03-28"
"浦东新区","上海市浦东新区栖山路100弄",121.5504374491967,31.247552793436665,"2022-03-28"
"浦东新区","上海市浦东新区崮山路1445弄",121.56092607592225,31.250388688666035,"2022-03-28"
"浦东新区","上海市浦东新区苗圃路400弄",121.55772495264641,31.245613659451667,"2022-03-28"
"浦东新区","上海市浦东新区灵山路1390弄",121.56966576846834,31.243150012150576,"2022-03-28"
"浦东新区","上海市浦东新区园艺村",121.76325833129599,30.985653590349312,"2022-03-28"
"浦东新区","上海市浦东新区镇南村",121.5858938371672,31.345267831413143,"2022-03-28"
"浦东新区","上海市浦东新区丁香路999弄",121.5605138319327,31.233326037303364,"2022-03-28"
"浦东新区","上海市浦东新区牡丹路340弄",121.55639375371118,31.21414133803395,"2022-03-28"
"浦东新区","上海市浦东新区唐陆路139号",121.60213861434853,31.244250205910852,"2022-03-28"
"浦东新区","上海市浦东新区佳林路962弄",121.61936416148566,31.26943966522605,"2022-03-28"
"浦东新区","上海市浦东新区唐四村",121.66768949453099,31.221019816280922,"2022-03-28"
"浦东新区","上海市浦东新区前进村顾家宅",121.75866170200142,31.124503585038568,"2022-03-28"
"浦东新区","上海市浦东新区中界村沈家队沈家宅",121.57417373500905,31.19544617406339,"2022-03-28"
"浦东新区","上海市浦东新区新虹村东包家宅",121.65488720372498,31.245149014624616,"2022-03-28"
"浦东新区","上海市浦东新区荷泽路825弄",121.6037865558066,31.266989301015624,"2022-03-28"
"浦东新区","上海市浦东新区南泉路1261号",121.52920123744919,31.2170771756318,"2022-03-28"
"浦东新区","上海市浦东新区南泉路1200弄",121.52883140507072,31.21929877720649,"2022-03-28"
"浦东新区","上海市浦东新区南泉路1250弄",121.52793112328862,31.217747714972386,"2022-03-28"
"浦东新区","上海市浦东新区川沙路688号",121.67719239902941,31.279919137246495,"2022-03-28"
"浦东新区","上海市浦东新区龚路支路473弄",121.69548118056815,31.26946975904926,"2022-03-28"
"浦东新区","上海市浦东新区新星村",121.70827942899935,31.261838735382085,"2022-03-28"
"浦东新区","上海市浦东新区航梅路526弄",121.58752462099001,31.028592642453045,"2022-03-28"
"浦东新区","上海市浦东新区航头路1027弄",121.60163601241571,31.03862919719137,"2022-03-28"
"浦东新区","上海市浦东新区清溪路430号",121.5771385025142,31.347004206020664,"2022-03-28"
"浦东新区","上海市浦东新区张杨北路4555弄",121.59351344416393,31.337557107580846,"2022-03-28"
"浦东新区","上海市浦东新区和龙路241号",121.57822338607859,31.348630220828166,"2022-03-28"
"浦东新区","上海市浦东新区和龙路295弄",121.57754094338267,31.349205602767256,"2022-03-28"
"浦东新区","上海市浦东新区云台路98号",121.50642425209092,31.187899934606254,"2022-03-28"
"浦东新区","上海市浦东新区成山路963弄",121.52224161551062,31.179266740683868,"2022-03-28"
"浦东新区","上海市浦东新区行德路141弄",121.61784243195176,31.3000275778643,"2022-03-28"
"浦东新区","上海市浦东新区东高路26弄",121.58267206445566,31.294097375993264,"2022-03-28"
"浦东新区","上海市浦东新区高博路188弄",121.58962611690005,31.28158489894264,"2022-03-28"
"浦东新区","上海市浦东新区洲海路1088弄",121.65277879086253,31.290487771739045,"2022-03-28"
"浦东新区","上海市浦东新区民生路423弄",121.54973704039058,31.246115041047304,"2022-03-28"
"浦东新区","上海市浦东新区商城路918弄",121.52874947960822,31.23782785243076,"2022-03-28"
"浦东新区","上海市浦东新区北中路354弄",121.56641390252221,31.1901497991136,"2022-03-28"
"浦东新区","上海市浦东新区银城中路8号",121.51408275571626,31.247190733222787,"2022-03-28"
"浦东新区","上海市浦东新区昌邑路607弄",121.58962611690005,31.28158489894264,"2022-03-28"
"浦东新区","上海市浦东新区浦明路233弄",121.5171928690529,31.23258212082952,"2022-03-28"
"浦东新区","上海市浦东新区江绣路633弄",121.70463769846191,31.195684720898104,"2022-03-28"
"浦东新区","上海市浦东新区江绣路300弄",121.7420841124283,31.17716111032305,"2022-03-28"
"浦东新区","上海市浦东新区双桥路1108弄",121.58962611690005,31.28158489894264,"2022-03-28"
"浦东新区","上海市浦东新区南桥路1152弄",121.69498378880726,31.192894248671443,"2022-03-28"
"浦东新区","上海市浦东新区城丰路288弄",121.69127351755941,31.196028214917238,"2022-03-28"
"浦东新区","上海市浦东新区城丰路245号",121.69305898959104,31.195732986208398,"2022-03-28"
"浦东新区","上海市浦东新区新德西路99弄",121.6847062754676,31.197659253750228,"2022-03-28"
"浦东新区","上海市浦东新区祝家港路225号",121.59245074874563,31.115531590460794,"2022-03-28"
"浦东新区","上海市浦东新区浦电路108弄",121.52672191424165,31.22443470201538,"2022-03-28"
"浦东新区","上海市浦东新区卫行村顾家宅",121.58720141066752,31.166665202015878,"2022-03-28"
"浦东新区","上海市浦东新区年家浜路159弄",121.59957853347564,31.12028537733041,"2022-03-28"
"浦东新区","上海市浦东新区上南路7718弄",121.58485970786411,31.120077939878794,"2022-03-28"
"浦东新区","上海市浦东新区祝家港路138弄",121.59479110409077,31.11633571743616,"2022-03-28"
"浦东新区","上海市浦东新区年家浜路366弄",121.58287014082062,31.121614001803096,"2022-03-28"
"浦东新区","上海市浦东新区川周公路4293弄",121.5884997316211,31.12640218041496,"2022-03-28"
"浦东新区","上海市浦东新区康沈路1602弄",121.58159948767674,31.123776425290853,"2022-03-28"
"浦东新区","上海市浦东新区沈梅东路300弄",121.59944531476852,31.097618118483165,"2022-03-28"
"浦东新区","上海市浦东新区周园路1680弄",121.58485970786411,31.120077939878794,"2022-03-28"
"浦东新区","上海市浦东新区周市路148号",121.5910256768846,31.11830457829532,"2022-03-28"
"浦东新区","上海市浦东新区周邓公路6600弄",121.60942890254532,31.121067591709107,"2022-03-28"
"浦东新区","上海市浦东新区周康路869弄",121.58121707902114,31.10748746882412,"2022-03-28"
"浦东新区","上海市浦东新区年家浜路461弄",121.57688931256573,31.120015183003662,"2022-03-28"
"浦东新区","上海市浦东新区川周公路4003弄",121.59466489216663,31.1322307297464,"2022-03-28"
"浦东新区","上海市浦东新区关岳路229弄",121.59444804121651,31.127375227553234,"2022-03-28"
"浦东新区","上海市浦东新区窑港路188号",121.67226797805424,31.111944856137065,"2022-03-28"
"浦东新区","上海市浦东新区陈春路620弄",121.55290760968805,31.178078194108803,"2022-03-28"
"浦东新区","上海市浦东新区环林东路271弄",121.53316411220645,31.155298952705344,"2022-03-28"
"浦东新区","上海市浦东新区世博家园大道站路94弄",121.5456103147083,31.165459346349106,"2022-03-28"
"浦东新区","上海市浦东新区灵山路785弄",121.55683212680005,31.238343247038493,"2022-03-28"
"浦东新区","上海市浦东新区浦东大道1851弄",121.5524974433922,31.253101686701353,"2022-03-28"
"浦东新区","上海市浦东新区民生路369弄",121.54866670937545,31.246602604284895,"2022-03-28"
"浦东新区","上海市浦东新区桃林路815弄",121.54647421511724,31.2393110419102,"2022-03-28"
"浦东新区","上海市浦东新区杨高中路2168弄",121.55818928676452,31.235569021210537,"2022-03-28"
"浦东新区","上海市浦东新区灵山路600弄",121.55040475087615,31.234124986355546,"2022-03-28"
"浦东新区","上海市浦东新区苗圃路600弄",121.55970697392362,31.240613049073794,"2022-03-28"
"浦东新区","上海市浦东新区羽山路851弄",121.55980785363239,31.243560405850435,"2022-03-28"
"浦东新区","上海市浦东新区博山路199号",121.56058138450703,31.25000181495597,"2022-03-28"
"浦东新区","上海市浦东新区高青路2878弄",121.53438374159735,31.16614786788632,"2022-03-28"
"浦东新区","上海市浦东新区南码头路260弄",121.51478334418348,31.201976454318665,"2022-03-28"
"浦东新区","上海市浦东新区兰陵路24弄",121.52266157333655,31.20071560861141,"2022-03-28"
"浦东新区","上海市浦东新区华丰路51弄",121.51521084777569,31.199322311123414,"2022-03-28"
"浦东新区","上海市浦东新区东方路3521号",121.51853251205992,31.19510808365999,"2022-03-28"
"浦东新区","上海市浦东新区沪南公路3150弄",121.57177489997522,31.127929792678614,"2022-03-28"
"浦东新区","上海市浦东新区西泰林路901弄",121.54507097208011,31.149459936767588,"2022-03-28"
"浦东新区","上海市浦东新区东波路585弄",121.59286001673597,31.289979530718124,"2022-03-28"
"浦东新区","上海市浦东新区金桥路715号",121.58433922965163,31.266823780473572,"2022-03-28"
"浦东新区","上海市浦东新区寿光路78弄",121.59210202654666,31.279390855434528,"2022-03-28"
"浦东新区","上海市浦东新区龙阳路1629号",121.55447075110595,31.206934576271852,"2022-03-28"
"浦东新区","上海市浦东新区民丰村龚家祠堂",121.64722348992773,31.216866323408446,"2022-03-28"
"浦东新区","上海市浦东新区潍坊路333弄",121.52609220207916,31.229300465379932,"2022-03-28"
"浦东新区","上海市浦东新区鹤韵路549弄",121.60366501507109,31.080751851766777,"2022-03-28"
"浦东新区","上海市浦东新区周秀路118弄",121.61180608841637,31.10575986233398,"2022-03-28"
"浦东新区","上海市浦东新区东陆路429弄",121.59239119109031,31.286284671095828,"2022-03-28"
"浦东新区","上海市浦东新区金家村陈家宅",121.74039403064216,31.255172867012874,"2022-03-28"
"浦东新区","上海市浦东新区新川路922弄",121.69452547333607,31.19679906404236,"2022-03-28"
"浦东新区","上海市浦东新区益江路126弄",121.64142600582741,31.20611006828356,"2022-03-28"
"浦东新区","上海市浦东新区浦电路221号",121.53004456666196,31.22498830738765,"2022-03-28"
"浦东新区","上海市浦东新区浦东大道2311号",121.56053197770399,31.260264841221478,"2022-03-28"
"浦东新区","上海市浦东新区杨南路1899弄",121.5254800068741,31.16142174137021,"2022-03-28"
"浦东新区","上海市浦东新区浦电路307号",121.53236327284431,31.225631306922903,"2022-03-28"
"浦东新区","上海市浦东新区浦电路489号工地生活区",121.54141801272378,31.228541386204874,"2022-03-28"
"浦东新区","上海市浦东新区秀沿路1028弄2支弄",121.58442906020262,31.1376254206398,"2022-03-28"
"浦东新区","上海市浦东新区东三里桥路160弄",121.5161398753341,31.20602821937022,"2022-03-28"
"浦东新区","上海市浦东新区大同路668弄",121.50574171956445,30.834282337208627,"2022-03-28"
"浦东新区","上海市浦东新区牡丹路145弄",121.55178149390075,31.21356574093363,"2022-03-28"
"浦东新区","上海市浦东新区临沂路81弄",121.52588604096461,31.20134163205489,"2022-03-28"
"浦东新区","上海市浦东新区芳华路713弄",121.53688426481492,31.18970225553777,"2022-03-28"
"浦东新区","上海市浦东新区华夏东路2026弄",121.6970084795962,31.205438982299057,"2022-03-28"
"浦东新区","上海市浦东新区唐陆公路3312号",121.66240197846871,31.214750826263753,"2022-03-28"
"浦东新区","上海市浦东新区直属村",121.76027317225576,31.2235614795779,"2022-03-28"
"浦东新区","上海市浦东新区浦东南路1533号",121.5276446536615,31.227372301137734,"2022-03-28"
"浦东新区","上海市浦东新区中林街33弄",121.50622500792882,31.14256685616822,"2022-03-28"
"浦东新区","上海市浦东新区康杉路359弄",121.53688426481492,31.18970225553777,"2022-03-28"
"浦东新区","上海市浦东新区北蔡镇北中路周家宅",121.56763721496571,31.19052327819073,"2022-03-28"
"浦东新区","上海市浦东新区鹏飞路426弄",121.56156916124581,31.177710999067397,"2022-03-28"
"浦东新区","上海市浦东新区红旗村江湖宅",121.50020627118141,31.126931789483034,"2022-03-28"
"浦东新区","上海市浦东新区五莲路1424弄",121.60692101322256,31.281810881647033,"2022-03-28"
"浦东新区","上海市浦东新区栖山路401弄",121.55603344337112,31.253987830572694,"2022-03-28"
"浦东新区","上海市浦东新区高宝路229弄",121.62728721608367,31.297669581878687,"2022-03-28"
"浦东新区","上海市浦东新区北张家浜路58号",121.52762345365146,31.222173076955738,"2022-03-28"
"浦东新区","上海市浦东新区利津路385弄",121.59099567348056,31.28276487908113,"2022-03-28"
"浦东新区","上海市浦东新区创新中路593弄",121.67577702886787,31.216838837693654,"2022-03-28"
"浦东新区","上海市浦东新区砖桥路180弄",121.7061387561894,31.126102142531188,"2022-03-28"
"浦东新区","上海市浦东新区三林路910号",121.51694835029308,31.147433857979856,"2022-03-28"
"浦东新区","上海市浦东新区航瑞路175弄",121.59887381280308,31.07695788211063,"2022-03-28"
"浦东新区","上海市浦东新区大瞿家宅",121.53261120516505,31.1270776188598,"2022-03-28"
"浦东新区","上海市浦东新区华绣路393号",121.53908098110902,31.191578062798534,"2022-03-28"
"浦东新区","上海市浦东新区张杨路370弄",121.52153842195742,31.232164345489466,"2022-03-28"
"浦东新区","上海市浦东新区营房村",121.572398952813,31.14248533811398,"2022-03-28"
"浦东新区","上海市浦东新区长岛路800弄",121.59383476804486,31.265307536930138,"2022-03-28"
"浦东新区","上海市浦东新区徳品路1189弄",121.55045460683195,31.227348292436346,"2022-03-28"
"浦东新区","上海市浦东新区瑞意路399弄",121.59268628445034,31.102791860761887,"2022-03-28"
"浦东新区","上海市浦东新区尚博路799弄",121.530770397514,31.156164699441437,"2022-03-28"
"浦东新区","上海市浦东新区陈春东路88弄",121.56599583113788,31.181447145347832,"2022-03-28"
"浦东新区","上海市浦东新区杨高南路2772弄",121.52587669858731,31.183477278169004,"2022-03-28"
"浦东新区","上海市浦东新区源深路600弄3支弄",121.5413468669274,31.236006465120855,"2022-03-28"
"浦东新区","上海市浦东新区五星村家务队顾家宅",121.57836549801027,31.179988450201478,"2022-03-28"
"浦东新区","上海市浦东新区浦三路629弄",121.52345657371288,31.194339846293705,"2022-03-28"
"浦东新区","上海市浦东新区高科西路2111弄",121.5423303317997,31.194181224726066,"2022-03-28"
"浦东新区","上海市浦东新区玉盘北路281弄",121.68004128512374,31.23174247696057,"2022-03-28"
"浦东新区","上海市浦东新区御水路199弄",121.58063821095053,31.166554813951443,"2022-03-28"
"浦东新区","上海市浦东新区浦三路32号",121.51820364241273,31.202600075552493,"2022-03-28"
"浦东新区","上海市浦东新区昌里东路675弄",121.52415096387209,31.186762393304466,"2022-03-28"
"浦东新区","上海市浦东新区新浦路251弄",121.54134201607764,31.17422589586613,"2022-03-28"
"浦东新区","上海市浦东新区东书房路560弄",121.54307367960921,31.167733309908424,"2022-03-28"
"浦东新区","上海市浦东新区下南路225弄",121.55278588929146,31.17539958371751,"2022-03-28"
"浦东新区","上海市浦东新区东书房路390弄",121.5416177958692,31.16966648705868,"2022-03-28"
"浦东新区","上海市浦东新区博华路980弄",121.55642681135393,31.17727104282873,"2022-03-28"
"浦东新区","上海市浦东新区鹤沙村",121.55045460683195,31.227348292436346,"2022-03-28"
"浦东新区","上海市浦东新区东陆路1350弄",121.58962611690005,31.28158489894264,"2022-03-28"
"浦东新区","上海市浦东新区南陈路108弄",121.55439200384833,30.973936816687655,"2022-03-28"
"浦东新区","上海市浦东新区龙东大道2895弄",121.64040094940998,31.230898116632318,"2022-03-28"
"浦东新区","上海市浦东新区东沟路585弄",121.58962611690005,31.28158489894264,"2022-03-28"
"浦东新区","上海市浦东新区南曹路901弄",121.67039869411853,31.20845261563489,"2022-03-28"
"浦东新区","上海市浦东新区德平路215弄",121.56986806686919,31.254518494140477,"2022-03-28"
"浦东新区","上海市浦东新区夹浦路25号",121.54965502509752,31.25245486274387,"2022-03-28"
"浦东新区","上海市浦东新区杨高中路10弄1支弄",121.60672473346864,31.263505745537014,"2022-03-28"
"浦东新区","上海市浦东新区博华路930弄",121.55674921320147,31.18032002999115,"2022-03-28"
"浦东新区","上海市浦东新区海阳路443弄",121.49848817206303,31.160355415698852,"2022-03-28"
"浦东新区","上海市浦东新区浦兴路1293号",121.58962611690005,31.28158489894264,"2022-03-28"
"浦东新区","上海市浦东新区瑞浦路8弄",121.55045460683195,31.227348292436346,"2022-03-28"
"浦东新区","上海市浦东新区康沈路1620弄",121.58089557547913,31.12344000863689,"2022-03-28"
"浦东新区","上海市浦东新区周东路243弄",121.5923400775068,31.122621335648045,"2022-03-28"
"浦东新区","上海市浦东新区福山路307号",121.535684847298,31.235608774888448,"2022-03-28"
"浦东新区","上海市浦东新区南塘村顾家宅",121.5746809183,31.34539427690696,"2022-03-28"
"浦东新区","上海市浦东新区浦东北路2300号",121.58493534518804,31.326820833493066,"2022-03-28"
"浦东新区","上海市浦东新区下沙街54号",121.60428277977032,31.055126905464185,"2022-03-28"
"浦东新区","上海市浦东新区上浦路165弄",121.49894576888981,31.151980517688706,"2022-03-28"
"浦东新区","上海市浦东新区临江村太保队",121.48517950644107,31.129345634527656,"2022-03-28"
"浦东新区","上海市浦东新区德州路420弄",121.49035248855083,31.172388749436156,"2022-03-28"
"浦东新区","上海市浦东新区高科西路2907弄",121.56493636961942,31.19557081466723,"2022-03-28"
"浦东新区","上海市浦东新区新德路939弄",121.69204776707845,31.2009453389289,"2022-03-28"
"浦东新区","上海市浦东新区勤奋村",121.73213698605554,31.263033858586162,"2022-03-28"
"浦东新区","上海市浦东新区青艺路181弄",121.68634199997072,31.202505250798463,"2022-03-28"
"浦东新区","上海市浦东新区川环南路1049弄",121.70053001685642,31.19008909703861,"2022-03-28"
"浦东新区","上海市浦东新区城丰路650号",121.68453622623457,31.19349522582827,"2022-03-28"
"浦东新区","上海市浦东新区佳林路919弄",121.61825789825012,31.270835776924955,"2022-03-28"
"浦东新区","上海市浦东新区板泉路2076号",121.53770693300095,31.172555441216627,"2022-03-28"
"浦东新区","上海市浦东新区栏杆村",121.67290191225264,31.179777437248575,"2022-03-28"
"浦东新区","上海市浦东新区霞玉路436弄",121.69608699780407,31.26229102730043,"2022-03-28"
"浦东新区","上海市浦东新区金口路411弄",121.58648546117607,31.253118048256365,"2022-03-28"
"浦东新区","上海市浦东新区华夏西路85弄",121.5426709692491,31.162542440219312,"2022-03-28"
"浦东新区","上海市浦东新区中界村高桥队秦家宅",121.57878347956407,31.18006375668571,"2022-03-28"
"浦东新区","上海市浦东新区北蔡大街",121.55976940615656,31.193659563295135,"2022-03-28"
"浦东新区","上海市浦东新区樱花路831号",121.56769820990984,31.21437960563036,"2022-03-28"
"浦东新区","上海市浦东新区瑞和路900弄",121.60939719236082,31.093720075982464,"2022-03-28"
"浦东新区","上海市浦东新区潍坊路716号",121.52839779300106,31.229747279368976,"2022-03-28"
"浦东新区","上海市浦东新区金港路333号",121.61945030898407,31.260379286098438,"2022-03-28"
"浦东新区","上海市浦东新区万德路67弄",121.56710955030915,31.254592197175523,"2022-03-28"
"浦东新区","上海市浦东新区羽山路951弄",121.5597862044696,31.24280939250238,"2022-03-28"
"浦东新区","上海市浦东新区莱阳路111弄",121.58953781346843,31.332463488478048,"2022-03-28"
"浦东新区","上海市浦东新区南洋泾路287弄",121.56068693540446,31.244845682121518,"2022-03-28"
"浦东新区","上海市浦东新区海霞路135弄",121.74219603149518,31.173374837467996,"2022-03-28"
"浦东新区","上海市浦东新区航鹤路1700弄",121.59218161641483,31.05361961150756,"2022-03-28"
"浦东新区","上海市浦东新区沪东路67号",121.58681675624815,31.277393434011163,"2022-03-28"
"浦东新区","上海市浦东新区龚路公路141号",121.65277879086253,31.290487771739045,"2022-03-28"
"浦东新区","上海市浦东新区灵山路1820号",121.57764074512482,31.2479728154882,"2022-03-28"
"浦东新区","上海市浦东新区高桥村汤家宅",121.82634578827842,30.92227747900876,"2022-03-28"
"浦东新区","上海市浦东新区川沙镇邱家宅",121.66171225949816,31.17469552725319,"2022-03-28"
"浦东新区","上海市浦东新区金桥路1520弄",121.59608789792497,31.255719421902956,"2022-03-28"
"浦东新区","上海市浦东新区龙居路180弄",121.56897173763133,31.258551238155807,"2022-03-28"
"浦东新区","上海市浦东新区博山东路111弄",121.57015076361317,31.257144215743075,"2022-03-28"
"浦东新区","上海市浦东新区展凌路58弄",121.76684274994189,31.114088797527916,"2022-03-28"
"浦东新区","上海市浦东新区花墙村",121.55274169266035,31.156328175262196,"2022-03-28"
"浦东新区","上海市浦东新区联勤村麦家宅",121.55391344236757,31.16926349405447,"2022-03-28"
"浦东新区","上海市浦东新区联勤村李家宅",121.55718596934042,31.173231011079945,"2022-03-28"
"浦东新区","上海市浦东新区金桥路1498弄",121.59570477062498,31.256519645967902,"2022-03-28"
"浦东新区","上海市浦东新区玉兰路81弄",121.55440795955082,31.209925615352685,"2022-03-28"
"浦东新区","上海市浦东新区康桥路787号",121.55549535837065,31.152378949324266,"2022-03-28"
"浦东新区","上海市浦东新区广兰路1155弄",121.62985277662017,31.208677076437183,"2022-03-28"
"浦东新区","上海市浦东新区圆洲路189弄",121.65277879086253,31.290487771739045,"2022-03-28"
"浦东新区","上海市浦东新区沈家弄路936弄",121.55367107954098,31.2460098406675,"2022-03-28"
"浦东新区","上海市浦东新区杨高北路446弄",121.5932037084241,31.353026794950427,"2022-03-28"
"浦东新区","上海市浦东新区盛朱村",121.70474253071492,31.27496750639308,"2022-03-28"
"浦东新区","上海市浦东新区石家街97弄",121.58701923431009,31.35022421205629,"2022-03-28"
"浦东新区","上海市浦东新区秀浦路168号",121.55854178184664,31.130017496994444,"2022-03-28"
"浦东新区","上海市浦东新区崮山路264号",121.55989498926687,31.25184685494811,"2022-03-28"
"浦东新区","上海市浦东新区横沔江路250号",121.63945440489412,31.181170330222866,"2022-03-28"
"浦东新区","上海市浦东新区鹤沙路588弄",121.60146802928533,31.08802188513857,"2022-03-28"
"浦东新区","上海市浦东新区周秀路26弄",121.61314920892717,31.104936638727523,"2022-03-28"
"浦东新区","上海市浦东新区成山路608弄",121.51511598671382,31.177611823719104,"2022-03-28"
"浦东新区","上海市浦东新区崂山路648弄",121.52538835394101,31.24229048586412,"2022-03-28"
"浦东新区","上海市浦东新区联勤村张家宅冯家队",121.64193938742638,31.3298699592958,"2022-03-28"
"浦东新区","上海市浦东新区南塘村姚家宅",121.5746809183,31.34539427690696,"2022-03-28"
"浦东新区","上海市浦东新区莱阳路880弄",121.59082230051713,31.28833690890775,"2022-03-28"
"浦东新区","上海市浦东新区胡巷村金家宅",121.52500489308987,31.158715770519464,"2022-03-28"
"浦东新区","上海市浦东新区申江南路7688号",121.65964328224757,31.039235029231232,"2022-03-28"
"浦东新区","上海市浦东新区申江南路7777弄",121.66149190515655,31.03835134237949,"2022-03-28"
"浦东新区","上海市浦东新区蔡路村东蔡家宅",121.75183443079128,31.230186868212748,"2022-03-28"
"浦东新区","上海市浦东新区崮山路157弄",121.56297644665774,31.24999139569425,"2022-03-28"
"浦东新区","上海市浦东新区五星村秦家宅",121.57878347956407,31.18006375668571,"2022-03-28"
"浦东新区","上海市浦东新区沿南村",121.60561972786081,31.138641778105654,"2022-03-28"
"浦东新区","上海市浦东新区长青路693弄",121.52969618510942,31.207201251711854,"2022-03-28"
"浦东新区","上海市浦东新区洪山路1617号",121.51486850354584,31.160361364227473,"2022-03-28"
"浦东新区","上海市浦东新区妙境路404弄",121.69668131672947,31.198907553432047,"2022-03-28"
"浦东新区","上海市浦东新区周市路380弄",121.58786804318648,31.122608042683122,"2022-03-28"
"浦东新区","上海市浦东新区康沈路2262弄",121.58731262088966,31.107124171661162,"2022-03-28"
"浦东新区","上海市浦东新区周汇路158号",121.58485970786411,31.120077939878794,"2022-03-28"
"浦东新区","上海市浦东新区瑞安路80弄",121.59296026763089,31.09521536386751,"2022-03-28"
"浦东新区","上海市浦东新区浦东南路599弄",121.51939111246637,31.240719953646924,"2022-03-28"
"浦东新区","上海市浦东新区里仁村",121.57510536765346,31.11385058423264,"2022-03-28"
"浦东新区","上海市浦东新区瑞意路428弄",121.59434554455783,31.10013653462386,"2022-03-28"
"浦东新区","上海市浦东新区周东路123弄",121.58979311189437,31.127351193232567,"2022-03-28"
"浦东新区","上海市浦东新区海关村",121.80692487230546,30.94492162890332,"2022-03-28"
"浦东新区","上海市浦东新区张杨路1698弄",121.55169444809684,31.241769773219296,"2022-03-28"
"浦东新区","上海市浦东新区巨野路246弄",121.55144328187623,31.246137192542857,"2022-03-28"
"浦东新区","上海市浦东新区民生路260号",121.54619681837576,31.248510613846285,"2022-03-28"
"浦东新区","上海市浦东新区南团公路105号",121.77053218050193,31.044232144159917,"2022-03-28"
"浦东新区","上海市浦东新区杨高北路5291弄",121.61256156335027,31.27061038496563,"2022-03-28"
"浦东新区","上海市浦东新区施镇路358弄",121.7628900979013,31.149661499198338,"2022-03-28"
"浦东新区","上海市浦东新区邓二村储家宅",121.7679602419963,31.147181976158844,"2022-03-28"
"浦东新区","上海市浦东新区逸仙路1511弄",121.49288705754722,31.32395152581918,"2022-03-28"
"浦东新区","上海市浦东新区沈庄村",121.58911480140377,31.0850414945296,"2022-03-28"
"浦东新区","上海市浦东新区鹤沙路688弄",121.59652680999716,31.08766578024054,"2022-03-28"
"浦东新区","上海市浦东新区航春路169弄",121.61227841745352,31.08697444117796,"2022-03-28"
"浦东新区","上海市浦东新区鹤永路751弄",121.61042602166138,31.07756872557462,"2022-03-28"
"浦东新区","上海市浦东新区新镇村石家观音堂",121.48808202137435,31.13219386872014,"2022-03-28"
"浦东新区","上海市浦东新区唐镇路127弄",121.65660494352117,31.21335549848134,"2022-03-28"
"浦东新区","上海市浦东新区创新中路199弄",121.66869568653271,31.214145121289572,"2022-03-28"
"浦东新区","上海市浦东新区清溪路365弄",121.57808163346913,31.347103664355974,"2022-03-28"
"浦东新区","上海市浦东新区夏碧路80弄",121.59488147362508,31.347587462107846,"2022-03-28"
"浦东新区","上海市浦东新区浦电路300号",121.5316105826575,31.225676082809564,"2022-03-28"
"浦东新区","上海市浦东新区建港村",121.84800016124085,31.036517804975315,"2022-03-28"
"浦东新区","上海市浦东新区康沈公路1300弄",121.57853779300709,31.143909537196446,"2022-03-28"
"浦东新区","上海市浦东新区祝城路54号",121.76766263338084,31.114362641592223,"2022-03-28"
"浦东新区","上海市浦东新区耀华路212号",121.49552996218813,31.181859817717722,"2022-03-28"
"浦东新区","上海市浦东新区芳华路371弄",121.56442550327588,31.203020685498792,"2022-03-28"
"浦东新区","上海市浦东新区环桥路1137弄",121.58485970786411,31.120077939878794,"2022-03-28"
"浦东新区","上海市浦东新区浦东南路1288号",121.52355987884653,31.230896186745355,"2022-03-28"
"浦东新区","上海市浦东新区普新路707号",121.76684274994189,31.114088797527916,"2022-03-28"
"浦东新区","上海市浦东新区永利村龚家宅",121.70205902266495,31.270195403071813,"2022-03-28"
"浦东新区","上海市浦东新区新华村顾家宅",121.66710927900209,31.27121495272235,"2022-03-28"
"浦东新区","上海市浦东新区周浦中大街108弄",121.58371973820961,31.12283598070511,"2022-03-28"
"浦东新区","上海市浦东新区张家浜路112号",121.60687923332306,31.23593609903305,"2022-03-28"
"浦东新区","上海市浦东新区张杨路1328号",121.53888766576328,31.23799010516559,"2022-03-28"
"浦东新区","上海市浦东新区康新公路79号",121.64730146284599,31.034815583857995,"2022-03-28"
"浦东新区","上海市浦东新区笋心路19弄29支弄",121.64845434813749,31.02693251862357,"2022-03-28"
"浦东新区","上海市浦东新区庆利路425弄",121.73224478271673,31.237548888222076,"2022-03-28"
"浦东新区","上海市浦东新区前哨路15号",121.72394255336297,31.244089507727676,"2022-03-28"
"浦东新区","上海市浦东新区北海塘村",121.77034317702262,31.217844300036056,"2022-03-28"
"浦东新区","上海市浦东新区奚家村",121.71794366916734,31.25361962114071,"2022-03-28"
"浦东新区","上海市浦东新区勤益村赵家宅",121.71681036693595,31.215195470671564,"2022-03-28"
"浦东新区","上海市浦东新区前哨路25号",121.72411179412106,31.244102320369137,"2022-03-28"
"浦东新区","上海市浦东新区临沂北路210弄",121.52554279842924,31.21062431115841,"2022-03-28"
"浦东新区","上海市浦东新区南泉路1241弄",121.53036589054287,31.218280745927764,"2022-03-28"
"浦东新区","上海市浦东新区沪南公路4789弄",121.59647003708892,31.076126819346666,"2022-03-28"
"浦东新区","上海市浦东新区顾高公路1018号",121.63928570311934,31.298593332825014,"2022-03-28"
"浦东新区","上海市浦东新区民雨路390号",121.66992555660643,31.280979086686646,"2022-03-28"
"浦东新区","上海市浦东新区川沙路777弄",121.65277879086253,31.290487771739045,"2022-03-28"
"浦东新区","上海市浦东新区航头镇海桥村",121.61706297226075,31.016067923499705,"2022-03-28"
"浦东新区","上海市浦东新区民生路423号",121.54954965386119,31.246153400950913,"2022-03-28"
"浦东新区","上海市浦东新区严中路140弄",121.53610588309053,31.199272348787943,"2022-03-28"
"浦东新区","上海市浦东新区荣成路17弄",121.52461934036498,31.246467534780766,"2022-03-28"
"浦东新区","上海市浦东新区张杨路560号",121.52512293043388,31.233119390143212,"2022-03-28"
"浦东新区","上海市浦东新区祝桥镇共和村李家宅",121.74016397460105,31.17659805099963,"2022-03-28"
"浦东新区","上海市浦东新区新营村张朱家宅",121.75788215247987,31.202247879870665,"2022-03-28"
"浦东新区","上海市浦东新区共和村陈家宅",121.68324625952225,31.257492423349778,"2022-03-28"
"浦东新区","上海市浦东新区张杨北路558弄",121.59459626162567,31.273627937729422,"2022-03-28"
"浦东新区","上海市浦东新区东葛路423号",121.57982147158084,31.300957167927464,"2022-03-28"
"浦东新区","上海市浦东新区东靖路221号",121.58365957170278,31.298003907494145,"2022-03-28"
"浦东新区","上海市浦东新区临江村",121.48517950644107,31.129345634527656,"2022-03-28"
"浦东新区","上海市浦东新区荷泽路567弄",121.60116790541446,31.27214128028449,"2022-03-28"
"浦东新区","上海市浦东新区东陆路1456弄",121.58962611690005,31.28158489894264,"2022-03-28"
"浦东新区","上海市浦东新区博华路96号",121.55360056255846,31.190436009639722,"2022-03-28"
"浦东新区","上海市浦东新区中界村沈家队姚家宅",121.57417373500905,31.19544617406339,"2022-03-28"
"浦东新区","上海市浦东新区中界村沈家队杨家宅",121.57417373500905,31.19544617406339,"2022-03-28"
"浦东新区","上海市浦东新区华夏一路55弄",121.69299574888313,31.203054970492868,"2022-03-28"
"浦东新区","上海市浦东新区新德路201弄",121.69740310520673,31.202564477671565,"2022-03-28"
"浦东新区","上海市浦东新区界龙村孙家宅",121.69261199276927,31.176436773231853,"2022-03-28"
"浦东新区","上海市浦东新区华夏东路1152弄",121.68058413114343,31.202613202750292,"2022-03-28"
"浦东新区","上海市浦东新区新德路908弄",121.69147312104373,31.20310423584524,"2022-03-28"
"浦东新区","上海市浦东新区华夏二路1500弄",121.6970799847148,31.178171884998676,"2022-03-28"
"浦东新区","上海市浦东新区新川路1100弄",121.69123848364451,31.194889459453602,"2022-03-28"
"浦东新区","上海市浦东新区川环南路1223号",121.69558143146305,31.189947227022987,"2022-03-28"
"浦东新区","上海市浦东新区勤昌村杨家宅",121.74440496474422,31.209984837533348,"2022-03-28"
"浦东新区","上海市浦东新区浦东南路1299号",121.52421420457999,31.230766807032126,"2022-03-28"
"浦东新区","上海市浦东新区潍坊路280号",121.54108698714336,31.234311638397287,"2022-03-28"
"浦东新区","上海市浦东新区潍坊路274号",121.54069559543267,31.23404516895025,"2022-03-28"
"浦东新区","上海市浦东新区东陆路1168号",121.60268568240411,31.278413445190008,"2022-03-28"
"浦东新区","上海市浦东新区利津路1313弄",121.59914510106708,31.28850478291173,"2022-03-28"
"浦东新区","上海市浦东新区凌河路777弄",121.58962611690005,31.28158489894264,"2022-03-28"
"浦东新区","上海市浦东新区五莲路1769弄",121.60380012021979,31.290088693222955,"2022-03-28"
"浦东新区","上海市浦东新区长岛路1280弄",121.59964231316687,31.26688312097201,"2022-03-28"
"浦东新区","上海市浦东新区永泰路136弄",121.51114125432383,31.140667892100943,"2022-03-28"
"浦东新区","上海市浦东新区东明路1628弄",121.52969618510942,31.207201251711854,"2022-03-28"
"浦东新区","上海市浦东新区古莲路2弄",121.55045460683195,31.227348292436346,"2022-03-28"
"浦东新区","上海市浦东新区钱堂村新立宅",121.59951870632868,31.16388174546565,"2022-03-28"
"浦东新区","上海市浦东新区孙耀路128弄",121.64091451067004,31.190213049707157,"2022-03-28"
"浦东新区","上海市浦东新区金杨路1155弄",121.59556571293203,31.26379227197009,"2022-03-28"
"浦东新区","上海市浦东新区年家浜路213弄",121.58715990895296,31.121407649283842,"2022-03-28"
"浦东新区","上海市浦东新区东八灶63弄",121.55045460683195,31.227348292436346,"2022-03-28"
"浦东新区","上海市浦东新区年家浜路129弄",121.57872113716168,31.120414136710504,"2022-03-28"
"浦东新区","上海市浦东新区周康路169弄",121.57922212214459,31.115998887693095,"2022-03-28"
"浦东新区","上海市浦东新区年家浜路275号",121.58648177812347,31.121361509725986,"2022-03-28"
"浦东新区","上海市浦东新区文康路2号",121.58745886502668,31.125892816243162,"2022-03-28"
"浦东新区","上海市浦东新区福山路309号",121.53600697965388,31.235613869533328,"2022-03-28"
"浦东新区","上海市浦东新区源深路600弄1支弄",121.5413468669274,31.236006465120855,"2022-03-28"
"浦东新区","上海市浦东新区张杨路1338号",121.53919246082282,31.23813383213902,"2022-03-28"
"浦东新区","上海市浦东新区新德路835弄",121.69450741739533,31.201966570243894,"2022-03-28"
"浦东新区","上海市浦东新区小云台街343号",121.58424580587858,31.128784663553457,"2022-03-28"
"浦东新区","上海市浦东新区康沈路1929弄",121.58702570210977,31.11734851809284,"2022-03-28"
"浦东新区","上海市浦东新区横桥路69弄",121.58617042543372,31.11424083016227,"2022-03-28"
"浦东新区","上海市浦东新区窑港村",121.67260286634837,31.108271567533365,"2022-03-28"
"浦东新区","上海市浦东新区华鹏路300弄",121.53191420991986,31.178718348958242,"2022-03-28"
"浦东新区","上海市浦东新区秀沿西路218弄",121.54052186314703,31.13576460720778,"2022-03-28"
"浦东新区","上海市浦东新区卫行村张家队张家宅",121.58495924011461,31.172225069869427,"2022-03-28"
"浦东新区","上海市浦东新区联勤村冯桥队",121.55718596934042,31.173231011079945,"2022-03-28"
"浦东新区","上海市浦东新区秀沿路836弄",121.58485970786411,31.120077939878794,"2022-03-28"
"浦东新区","上海市浦东新区康沈路633弄",121.58485970786411,31.120077939878794,"2022-03-28"
"浦东新区","上海市浦东新区康达路688弄",121.58485970786411,31.120077939878794,"2022-03-28"
"浦东新区","上海市浦东新区康达路508弄",121.58485970786411,31.120077939878794,"2022-03-28"
"浦东新区","上海市浦东新区民生路999弄",121.55633006385051,31.236670230436616,"2022-03-28"
"浦东新区","上海市浦东新区灵山路866弄",121.55939086021466,31.237932984824816,"2022-03-28"
"浦东新区","上海市浦东新区康沈路2866弄",121.58783363808544,31.100143955727145,"2022-03-28"
"浦东新区","上海市浦东新区上南路6392弄",121.58485970786411,31.120077939878794,"2022-03-28"
"浦东新区","上海市浦东新区康沈路1938弄",121.58268131700241,31.11475775473791,"2022-03-28"
"浦东新区","上海市浦东新区瑞安路120弄",121.58485970786411,31.120077939878794,"2022-03-28"
"浦东新区","上海市浦东新区建设路85弄",121.65120603757566,31.079289813706403,"2022-03-28"
"浦东新区","上海市浦东新区川周公路4058弄",121.59137826179726,31.132164580808443,"2022-03-28"
"浦东新区","上海市浦东新区瑞和路555弄",121.60129025462491,31.094585694557914,"2022-03-28"
"浦东新区","上海市浦东新区年家浜东路129弄",121.59892537553935,31.120365137063242,"2022-03-28"
"浦东新区","上海市浦东新区关岳路39弄",121.58874128597272,31.12524194512442,"2022-03-28"
"浦东新区","上海市浦东新区年家浜路428弄",121.5800648225435,31.120667404196045,"2022-03-28"
"浦东新区","上海市浦东新区东八灶643弄",121.58932572353751,31.120954831437075,"2022-03-28"
"浦东新区","上海市浦东新区蓝靛路1688弄",121.64602586902181,31.103753943832537,"2022-03-28"
"浦东新区","上海市浦东新区川周公路4005弄",121.59668922363336,31.13136406677863,"2022-03-28"
"浦东新区","上海市浦东新区周市路1321号",121.58970166439343,31.119318594332626,"2022-03-28"
"浦东新区","上海市浦东新区沈梅东路355弄",121.59898556200851,31.09928248540869,"2022-03-28"
"浦东新区","上海市浦东新区上南路7788弄",121.58485970786411,31.120077939878794,"2022-03-28"
"浦东新区","上海市浦东新区川周公路4055号",121.5929834712528,31.131506660425025,"2022-03-28"
"浦东新区","上海市浦东新区建设路105号",121.65908902774791,31.117886679935264,"2022-03-28"
"浦东新区","上海市浦东新区康沈路1997号",121.58753764641992,31.11415611856716,"2022-03-28"
"浦东新区","上海市浦东新区利津路185弄",121.58734837344896,31.284879686517,"2022-03-28"
"浦东新区","上海市浦东新区博兴路341号",121.58837262139143,31.273367213042526,"2022-03-28"
"浦东新区","上海市浦东新区东波路192弄",121.5853275453737,31.28957713270723,"2022-03-28"
"浦东新区","上海市浦东新区浦东大道2748弄",121.56868841207348,31.265697229843504,"2022-03-28"
"浦东新区","上海市浦东新区东波路49弄",121.58337804275595,31.290723839031642,"2022-03-28"
"浦东新区","上海市浦东新区浦东大道2778弄",121.5813748214687,31.275651133477883,"2022-03-28"
"浦东新区","上海市浦东新区环桥路1132号",121.6114010424619,31.141793706732127,"2022-03-28"
"浦东新区","上海市浦东新区新虹村秋家宅",121.64741941035945,31.246864021108088,"2022-03-28"
"浦东新区","上海市浦东新区东窑新村",121.61740369954069,31.031492818488015,"2022-03-28"
"浦东新区","上海市浦东新区红旗村毛家塘队毛家塘",121.50789055617487,31.133660107274697,"2022-03-28"
"浦东新区","上海市浦东新区耀华路435号",121.4898049713425,31.179156367452133,"2022-03-28"
"浦东新区","上海市浦东新区环镇东路200弄",121.61055241324665,31.02659962387937,"2022-03-28"
"浦东新区","上海市浦东新区东灶路115弄",121.58799847714653,31.121701257095324,"2022-03-28"
"浦东新区","上海市浦东新区瑞安路699弄",121.60095105446435,31.096582454583743,"2022-03-28"
"浦东新区","上海市浦东新区瑞浦路287弄",121.5908505971407,31.100446829005506,"2022-03-28"
"浦东新区","上海市浦东新区关岳路181弄",121.59338911868134,31.12613470853981,"2022-03-28"
"浦东新区","上海市浦东新区康沈路2868号",121.58823158742636,31.09968840712423,"2022-03-28"
"浦东新区","上海市浦东新区周浦顾家宅",121.56642584998549,31.113469457162935,"2022-03-28"
"浦东新区","上海市浦东新区繁荣东路150弄",121.59321448809021,31.11201697090244,"2022-03-28"
"浦东新区","上海市浦东新区周市路38弄",121.5900581120198,31.117763713742548,"2022-03-28"
"浦东新区","上海市浦东新区韵浦路267弄",121.58829177389553,31.117504641765283,"2022-03-28"
"浦东新区","上海市浦东新区周东路491号",121.59102495824018,31.124344922646635,"2022-03-28"
"浦东新区","上海市浦东新区康桥路1100号",121.57610940372196,31.155473246104624,"2022-03-28"
"浦东新区","上海市浦东新区浦东大道2250弄",121.55930570085232,31.257870032659223,"2022-03-28"
"浦东新区","上海市浦东新区一六村南赵家宅",121.60272673496593,31.173188295681612,"2022-03-28"
"浦东新区","上海市浦东新区上南路6620弄",121.58485970786411,31.120077939878794,"2022-03-28"
"浦东新区","上海市浦东新区和龙路371弄",121.57735930600855,31.35036930823437,"2022-03-28"
"浦东新区","上海市浦东新区欣河村",121.83376677992689,31.027842228944344,"2022-03-28"
"浦东新区","上海市浦东新区周祝公路2558号",121.71072803015844,31.123254835988078,"2022-03-28"
"浦东新区","上海市浦东新区中大街134弄",121.5834410139722,31.123819240464343,"2022-03-28"
"浦东新区","上海市浦东新区东方路1381号",121.53500833341843,31.217463904088724,"2022-03-28"
"浦东新区","上海市浦东新区绣川路581号",121.7060164177586,31.189184430666064,"2022-03-28"
"浦东新区","上海市浦东新区上川路538号",121.65282469427407,31.27863766097976,"2022-03-28"
"浦东新区","上海市浦东新区南桥路297弄",121.71286069726968,31.197050503739646,"2022-03-28"
"浦东新区","上海市浦东新区合庆镇凤家宅",121.72998850876732,31.243208518641033,"2022-03-28"
"浦东新区","上海市浦东新区高桥村东顾家宅",121.73339488326117,31.16931432209637,"2022-03-28"
"浦东新区","上海市浦东新区道新村东杜家宅",121.76613901740538,31.16709130336095,"2022-03-28"
"浦东新区","上海市浦东新区新德西路511弄",121.6741505569115,31.19703598574109,"2022-03-28"
"浦东新区","上海市浦东新区秀沿路505弄",121.56827887459148,31.141943685548398,"2022-03-28"
"浦东新区","上海市浦东新区秀浦路1011号",121.58485970786411,31.120077939878794,"2022-03-28"
"浦东新区","上海市浦东新区已对相关居住地落实终末消毒措施",121.55045460683195,31.227348292436346,"2022-03-28"
"黄浦区","上海市黄浦区顺昌路580号",121.48612596112638,31.217293586262826,"2022-03-28"
"黄浦区","上海市黄浦区制造局路27号",121.4890731218435,31.216272522083234,"2022-03-28"
"黄浦区","上海市黄浦区陆家浜路468弄",121.50449810541643,31.21610714338139,"2022-03-28"
"黄浦区","上海市黄浦区西藏南路1717弄",121.49862291788953,31.205351804857617,"2022-03-28"
"黄浦区","上海市黄浦区西藏南路1739弄",121.49815948207694,31.204502959505437,"2022-03-28"
"黄浦区","上海市黄浦区中山南路1891号",121.49773404458742,31.207437863869796,"2022-03-28"
"黄浦区","上海市黄浦区中山南路1711弄",121.50028954410219,31.209655061393807,"2022-03-28"
"黄浦区","上海市黄浦区南车站路318弄",121.4986737619814,31.213084182331045,"2022-03-28"
"黄浦区","上海市黄浦区车站支路9弄",121.49158559252436,31.23724715206362,"2022-03-28"
"黄浦区","上海市黄浦区制造局路455弄",121.49101040750632,31.210925129406952,"2022-03-28"
"黄浦区","上海市黄浦区海南西弄52号",121.50396055939926,31.216539968628,"2022-03-28"
"黄浦区","上海市黄浦区斜土东路68弄",121.49727096809701,31.21408003382973,"2022-03-28"
"黄浦区","上海市黄浦区丽园路875号",121.48247937973917,31.212645009844376,"2022-03-28"
"黄浦区","上海市黄浦区海潮路240弄",121.50372691013612,31.213442050793024,"2022-03-28"
"黄浦区","上海市黄浦区海潮路256弄",121.50354920089032,31.212886788443296,"2022-03-28"
"黄浦区","上海市黄浦区普育东路200弄",121.50230875522753,31.21362364824667,"2022-03-28"
"黄浦区","上海市黄浦区普育东路7号",121.50278943850591,31.21707277483961,"2022-03-28"
"黄浦区","上海市黄浦区瞿溪路57号",121.50273796560019,31.212925669714345,"2022-03-28"
"黄浦区","上海市黄浦区海潮路93弄",121.50591203828914,31.214961528834515,"2022-03-28"
"黄浦区","上海市黄浦区西藏南路1374弄",121.493515512082,31.211693925657812,"2022-03-28"
"黄浦区","上海市黄浦区瞿溪路120弄",121.5017221617295,31.212085926699476,"2022-03-28"
"黄浦区","上海市黄浦区中山南路1358弄",121.50624378251398,31.216168060220113,"2022-03-28"
"黄浦区","上海市黄浦区国货路236号",121.50191969911116,31.214328570399072,"2022-03-28"
"黄浦区","上海市黄浦区延安东路8号",121.49044630158957,31.236362496278794,"2022-03-28"
"黄浦区","上海市黄浦区瞿溪路1200弄",121.47791751486785,31.202302396543868,"2022-03-28"
"黄浦区","上海市黄浦区中山南路1726弄",121.49944953861981,31.209989701935054,"2022-03-28"
"黄浦区","上海市黄浦区建国中路18号",121.47639722262277,31.21607950302831,"2022-03-28"
"黄浦区","上海市黄浦区静修路114弄",121.49302979829275,31.2257417798045,"2022-03-28"
"黄浦区","上海市黄浦区复兴东路451弄",121.51830479161315,31.200364100830058,"2022-03-28"
"黄浦区","上海市黄浦区庄家街10号",121.49478965065126,31.226526141233773,"2022-03-28"
"黄浦区","上海市黄浦区西仓桥街1号",121.49634140155528,31.226028035972696,"2022-03-28"
"黄浦区","上海市黄浦区瑞金二路410弄",121.47339849916935,31.213301683132133,"2022-03-28"
"黄浦区","上海市黄浦区大兴街115弄",121.49755806653802,31.21960883215968,"2022-03-28"
"黄浦区","上海市黄浦区打浦路339弄",121.4785522575412,31.20529674944314,"2022-03-28"
"黄浦区","上海市黄浦区中山南一路500弄2号",121.49230783015439,31.204962632650165,"2022-03-28"
"黄浦区","上海市黄浦区斜土路468号",121.48394927704514,31.209353852998927,"2022-03-28"
"黄浦区","上海市黄浦区中山南路1586弄",121.501523995534,31.211132057209905,"2022-03-28"
"黄浦区","上海市黄浦区国货路8号",121.5041924120514,31.213402056068396,"2022-03-28"
"黄浦区","上海市黄浦区斜土路330弄",121.48571839991651,31.21017856406608,"2022-03-28"
"黄浦区","上海市黄浦区蒙自西路28弄3号",121.48257010859568,31.212915864005417,"2022-03-28"
"黄浦区","上海市黄浦区斜土路486弄",121.48399823469545,31.20840937579005,"2022-03-28"
"黄浦区","上海市黄浦区五里桥路269弄",121.48593902374974,31.209584102620525,"2022-03-28"
"黄浦区","上海市黄浦区斜土路810弄",121.47650097690915,31.207091014222403,"2022-03-28"
"黄浦区","上海市黄浦区永年路149弄",121.48509928775901,31.217075940321728,"2022-03-28"
"黄浦区","上海市黄浦区四牌楼路114号",121.5019153872447,31.229196790025323,"2022-03-28"
"黄浦区","上海市黄浦区复兴中路485弄",121.47845595919053,31.221353875778686,"2022-03-28"
"黄浦区","上海市黄浦区四川中路126弄5号",121.49635837952943,31.240157410378494,"2022-03-28"
"黄浦区","上海市黄浦区鲁班路168弄",121.48069247041873,31.2107777316744,"2022-03-28"
"黄浦区","上海市黄浦区制造局路646弄",121.49150896706436,31.207551446812154,"2022-03-28"
"黄浦区","上海市黄浦区迎勋路100弄",121.49798655826626,31.21884195383174,"2022-03-28"
"黄浦区","上海市黄浦区吾园路142号",121.49158559252436,31.23724715206362,"2022-03-28"
"黄浦区","上海市黄浦区尚文路133弄",121.49799257691318,31.221508436760633,"2022-03-28"
"黄浦区","上海市黄浦区黄家阙路76弄",121.49405377674357,31.2203405763063,"2022-03-28"
"黄浦区","上海市黄浦区蓬莱路358号",121.49503589415764,31.222353885447635,"2022-03-28"
"黄浦区","上海市黄浦区曹家街40弄",121.49258980825398,31.22466514615,"2022-03-28"
"黄浦区","上海市黄浦区东台路279号",121.48934800332955,31.223834849798063,"2022-03-28"
"黄浦区","上海市黄浦区重庆南路298弄",121.47768700967399,31.217328869718212,"2022-03-28"
"黄浦区","上海市黄浦区陕西南路213号",121.4677398931009,31.21883284359135,"2022-03-28"
"黄浦区","上海市黄浦区瑞金二路129弄",121.47334442117766,31.219376754270964,"2022-03-28"
"黄浦区","上海市黄浦区梦花街191弄",121.49275904901205,31.224085908105117,"2022-03-28"
"黄浦区","上海市黄浦区仪凤弄115弄",121.49294041689451,31.22343031408571,"2022-03-28"
"黄浦区","上海市黄浦区东刘家弄15号",121.50420489849799,31.229570267793346,"2022-03-28"
"黄浦区","上海市黄浦区黄家路55弄",121.50334800487202,31.22150874557353,"2022-03-28"
"黄浦区","上海市黄浦区老道前街30弄",121.4937900078251,31.223733157459154,"2022-03-28"
"黄浦区","上海市黄浦区蓬莱路421弄",121.49367271554624,31.222080356496264,"2022-03-28"
"黄浦区","上海市黄浦区蒙自路490弄",121.48548061844801,31.20723285827842,"2022-03-28"
"黄浦区","上海市黄浦区静修路126弄",121.48653334267514,31.22551241911987,"2022-03-28"
"黄浦区","上海市黄浦区江阴街428弄",121.4943379107764,31.21834992237617,"2022-03-28"
"黄浦区","上海市黄浦区复兴中路565弄",121.47267913611697,31.22108273721575,"2022-03-28"
"黄浦区","上海市黄浦区陆家浜路1011号",121.49542548925731,31.218077153784648,"2022-03-28"
"黄浦区","上海市黄浦区蓬莱路257弄",121.49649483213639,31.22329065621715,"2022-03-28"
"黄浦区","上海市黄浦区永寿路50号",121.48756037536471,31.235196493691447,"2022-03-28"
"黄浦区","上海市黄浦区梦花街163弄",121.49339019846336,31.224326157613344,"2022-03-28"
"黄浦区","上海市黄浦区瑞金南路185弄",121.47544124589905,31.206106516351074,"2022-03-28"
"黄浦区","上海市黄浦区蓬莱路257号",121.49647596772068,31.22332184572052,"2022-03-28"
"黄浦区","上海市黄浦区迎勋北路8弄",121.49158559252436,31.23724715206362,"2022-03-28"
"黄浦区","上海市黄浦区西藏南路688弄",121.4895768915735,31.222731250636816,"2022-03-28"
"黄浦区","上海市黄浦区北孔家路23弄",121.49158559252436,31.23724715206362,"2022-03-28"
"黄浦区","上海市黄浦区河南南路300弄",121.49445999049519,31.230863841833823,"2022-03-28"
"黄浦区","上海市黄浦区河南南路398弄",121.495698843624,31.228571801984344,"2022-03-28"
"黄浦区","上海市黄浦区河南南路368弄",121.49511952640061,31.22978456523602,"2022-03-28"
"黄浦区","上海市黄浦区大境路50号",121.49363238162884,31.231105849432982,"2022-03-28"
"黄浦区","上海市黄浦区张家弄132号",121.4986645992652,31.228621131108184,"2022-03-28"
"黄浦区","上海市黄浦区复兴东路663弄",121.49812238205936,31.227977302939546,"2022-03-28"
"黄浦区","上海市黄浦区昼锦路180弄",121.49724069520134,31.228702960270365,"2022-03-28"
"黄浦区","上海市黄浦区四牌楼路149号",121.50221389416566,31.228537526333675,"2022-03-28"
"黄浦区","上海市黄浦区四牌楼路147号",121.5022120077241,31.228601831767058,"2022-03-28"
"黄浦区","上海市黄浦区四牌楼路95弄",121.50207604918516,31.229580534937064,"2022-03-28"
"黄浦区","上海市黄浦区聚奎新村",121.50270850117947,31.22949600466016,"2022-03-28"
"黄浦区","上海市黄浦区学院路72号",121.50245104682031,31.228808102918983,"2022-03-28"
"黄浦区","上海市黄浦区打浦路316弄",121.4771429060266,31.205298679857936,"2022-03-28"
"黄浦区","上海市黄浦区中山南一路1109弄",121.47688787709231,31.201485415311588,"2022-03-28"
"黄浦区","上海市黄浦区瞿溪路1240弄",121.47755819266386,31.203000917568584,"2022-03-28"
"黄浦区","上海市黄浦区梦花街234号",121.49237466408432,31.223861870250904,"2022-03-28"
"黄浦区","上海市黄浦区黄家阙路68弄",121.49395002245718,31.220714861457605,"2022-03-28"
"黄浦区","上海市黄浦区广东路610号",121.48641853923098,31.23743603638828,"2022-03-28"
"黄浦区","上海市黄浦区河南南路555弄",121.49758088349796,31.226237323571752,"2022-03-28"
"黄浦区","上海市黄浦区丽园路488弄",121.48928602024937,31.21314185831155,"2022-03-28"
"黄浦区","上海市黄浦区中山南一路1048弄",121.47695471102226,31.200510665526632,"2022-03-28"
"黄浦区","上海市黄浦区乔家路19弄3号",121.50429634599891,31.222611123912696,"2022-03-28"
"黄浦区","上海市黄浦区黄家路99弄",121.5020006364376,31.22216574270126,"2022-03-28"
"黄浦区","上海市黄浦区老太平弄209弄",121.5053095447836,31.228614878122094,"2022-03-28"
"黄浦区","上海市黄浦区紫霞路199弄",121.50591715863055,31.22456594330064,"2022-03-28"
"黄浦区","上海市黄浦区曹市弄48号",121.49565482665402,31.22491172460565,"2022-03-28"
"黄浦区","上海市黄浦区静修路10弄",121.49508628909676,31.225386660363835,"2022-03-28"
"黄浦区","上海市黄浦区静修路43号",121.49447041083911,31.225862056909556,"2022-03-28"
"黄浦区","上海市黄浦区静修路12号",121.49489450087036,31.225907990679755,"2022-03-28"
"黄浦区","上海市黄浦区吾园街10弄",121.49934407755293,31.222812390129928,"2022-03-28"
"黄浦区","上海市黄浦区也是园弄68号",121.49158559252436,31.23724715206362,"2022-03-28"
"黄浦区","上海市黄浦区静修路107号",121.49339244422714,31.225406732368153,"2022-03-28"
"黄浦区","上海市黄浦区静修路66号",121.49413947508924,31.225596180996817,"2022-03-28"
"黄浦区","上海市黄浦区龙华东路888弄",121.47773012833846,31.19906060703334,"2022-03-28"
"黄浦区","上海市黄浦区梦花街73弄",121.49469831094699,31.224742037936004,"2022-03-28"
"黄浦区","上海市黄浦区静修路64弄",121.49421972371479,31.22560194525226,"2022-03-28"
"黄浦区","上海市黄浦区静修路47号",121.49440752945341,31.225832643844875,"2022-03-28"
"黄浦区","上海市黄浦区梦花街78弄",121.49490393307822,31.224735784690697,"2022-03-28"
"黄浦区","上海市黄浦区庄家街72号",121.49508287553581,31.225653926468325,"2022-03-28"
"黄浦区","上海市黄浦区梦花街57弄",121.49505489331918,31.22503987720957,"2022-03-28"
"黄浦区","上海市黄浦区静修路83号",121.49380674272832,31.22564427649228,"2022-03-28"
"黄浦区","上海市黄浦区静修路85号",121.49363875959797,31.2255219919096,"2022-03-28"
"黄浦区","上海市黄浦区梦花街68号",121.49506437044231,31.22480503356902,"2022-03-28"
"黄浦区","上海市黄浦区学宫街23弄",121.49502304838884,31.22438537068469,"2022-03-28"
"黄浦区","上海市黄浦区中华路88弄",121.50519860405312,31.22896998531219,"2022-03-28"
"黄浦区","上海市黄浦区建国中路43号",121.4768292177425,31.21596430906671,"2022-03-28"
"黄浦区","上海市黄浦区济南路260弄",121.48654618844394,31.209148542748196,"2022-03-28"
"黄浦区","上海市黄浦区斜土路251弄",121.48710259887683,31.211316361550864,"2022-03-28"
"黄浦区","上海市黄浦区局门路599弄",121.48965782889995,31.206398855387498,"2022-03-28"
"黄浦区","上海市黄浦区四牌楼路71号",121.50207959749193,31.229970376778414,"2022-03-28"
"黄浦区","上海市黄浦区黄家路88弄",121.50359063719026,31.22123451932127,"2022-03-28"
"黄浦区","上海市黄浦区芝罘路45号",121.48251558145122,31.24360941833103,"2022-03-28"
"黄浦区","上海市黄浦区曹市弄42弄",121.49565482665402,31.22491172460565,"2022-03-28"
"黄浦区","上海市黄浦区小桃园街50弄",121.49613326416862,31.22671819692006,"2022-03-28"
"黄浦区","上海市黄浦区文庙路87弄",121.49642467447606,31.224311026235792,"2022-03-28"
"黄浦区","上海市黄浦区高家弄46号",121.49158559252436,31.23724715206362,"2022-03-28"
"黄浦区","上海市黄浦区文庙路31弄",121.4971329883707,31.225044895229654,"2022-03-28"
"黄浦区","上海市黄浦区小桃园街40弄",121.49613326416862,31.226875219404704,"2022-03-28"
"黄浦区","上海市黄浦区庄家街45弄",121.49519562571025,31.22623365108959,"2022-03-28"
"黄浦区","上海市黄浦区瞿溪路1199弄",121.50147369042544,31.212658135634207,"2022-03-28"
"黄浦区","上海市黄浦区西仓桥街112弄",121.49629127610783,31.225973533112793,"2022-03-28"
"黄浦区","上海市黄浦区静修路37弄",121.49472499062064,31.22592482018991,"2022-03-28"
"黄浦区","上海市黄浦区庄家街34号",121.49478544658146,31.226400291200992,"2022-03-28"
"黄浦区","上海市黄浦区庄家街103号",121.4954959164093,31.225397468366708,"2022-03-28"
"黄浦区","上海市黄浦区柳江街16弄",121.49604271497321,31.225163860826832,"2022-03-28"
"黄浦区","上海市黄浦区西仓桥街过街楼",121.49599465562844,31.22603737711122,"2022-03-28"
"黄浦区","上海市黄浦区河南南路612弄",121.49686358654824,31.22596704835115,"2022-03-28"
"黄浦区","上海市黄浦区鲁班路738弄",121.4849409164976,31.19988803425617,"2022-03-28"
"黄浦区","上海市黄浦区斜土路520号",121.48301135626217,31.209060442197963,"2022-03-28"
"黄浦区","上海市黄浦区学宫街53弄",121.4952403484917,31.22386295106886,"2022-03-28"
"黄浦区","上海市黄浦区静修路36弄",121.49462959057549,31.225816586314842,"2022-03-28"
"黄浦区","上海市黄浦区静修路35弄",121.49467702110641,31.226000861746233,"2022-03-28"
"黄浦区","上海市黄浦区静修路23号",121.49488973985116,31.226120289324687,"2022-03-28"
"黄浦区","上海市黄浦区庄家街64号",121.49505592637051,31.225922272603697,"2022-03-28"
"黄浦区","上海市黄浦区庄家街100弄",121.49515413002716,31.225904090942134,"2022-03-28"
"黄浦区","上海市黄浦区西仓桥街155号",121.49573585381101,31.22604308987316,"2022-03-28"
"黄浦区","上海市黄浦区龙华东路385号",121.4858676084617,31.201651592033663,"2022-03-28"
"黄浦区","上海市黄浦区人民路885号",121.49013985963661,31.231159114179373,"2022-03-28"
"黄浦区","上海市黄浦区光启南路307号",121.50177471260183,31.222673812170996,"2022-03-28"
"黄浦区","上海市黄浦区中山南路1701号",121.50055535270259,31.20978593733625,"2022-03-28"
"黄浦区","上海市黄浦区昼锦路84号",121.49914878593506,31.230292593343613,"2022-03-28"
"黄浦区","上海市黄浦区瞿溪路904弄",121.4856468947979,31.20580761302777,"2022-03-28"
"黄浦区","上海市黄浦区陆家浜路431弄",121.5060932305937,31.21778798508135,"2022-03-28"
"黄浦区","上海市黄浦区光启路119弄",121.50109532414464,31.229482186461507,"2022-03-28"
"黄浦区","上海市黄浦区梦花街79号",121.49469238213062,31.224829120123374,"2022-03-28"
"黄浦区","上海市黄浦区重庆南路205弄",121.47758550115135,31.220500929265803,"2022-03-28"
"黄浦区","上海市黄浦区光启南路363号",121.50191439910864,31.221914061620307,"2022-03-28"
"黄浦区","上海市黄浦区南昌路110弄",121.4683930510372,31.223077810739706,"2022-03-28"
"黄浦区","上海市黄浦区陕西南路278弄",121.47295913794441,31.224729840247253,"2022-03-28"
"黄浦区","上海市黄浦区梦花街93弄",121.49447068033076,31.224746515568178,"2022-03-28"
"黄浦区","上海市黄浦区中山南路1667号",121.50157097691218,31.210511890127517,"2022-03-28"
"黄浦区","上海市黄浦区已对相关居住地落实终末消毒措施",121.49158559252436,31.23724715206362,"2022-03-28"
"静安区","上海市静安区淮安路687弄",121.45821668689796,31.24550753230674,"2022-03-28"
"静安区","上海市静安区三泉路517弄",121.44732967326979,31.316627284483552,"2022-03-28"
"静安区","上海市静安区宝昌路632弄",121.47799854202485,31.267667970754843,"2022-03-28"
"静安区","上海市静安区柳营路1025弄",121.45655976238481,31.268273869351653,"2022-03-28"
"静安区","上海市静安区平顺路721弄",121.4578538613025,31.3236286296725,"2022-03-28"
"静安区","上海市静安区大统路938弄",121.46501793757511,31.26044272075746,"2022-03-28"
"静安区","上海市静安区曲沃路66弄",121.45241354347296,31.313334157585302,"2022-03-28"
"静安区","上海市静安区普善路239弄",121.46395694893728,31.26329530663027,"2022-03-28"
"静安区","上海市静安区普善路铁路新村12号",121.46104356450732,31.2620678526503,"2022-03-28"
"静安区","上海市静安区永和路1080弄",121.43278736469097,31.29362410071973,"2022-03-28"
"静安区","上海市静安区康定路758弄",121.44898399269697,31.238355828899195,"2022-03-28"
"静安区","上海市静安区康定东路19号",121.46381241158072,31.243352546336236,"2022-03-28"
"静安区","上海市静安区柳营路650弄",121.46353609280585,31.270435611298645,"2022-03-28"
"静安区","上海市静安区平型关路801弄",121.46559851242621,31.284816499903567,"2022-03-28"
"静安区","上海市静安区平型关路305弄",121.4716473424082,31.276387994540464,"2022-03-28"
"静安区","上海市静安区宝山路499弄",121.48471723842562,31.26366154873471,"2022-03-28"
"静安区","上海市静安区芷江西路270弄",121.467501392988,31.26333705490724,"2022-03-28"
"静安区","上海市静安区康定路710弄",121.44981699139637,31.238730427940016,"2022-03-28"
"静安区","上海市静安区昌化路443弄",121.45656955391487,31.24498160299076,"2022-03-28"
"静安区","上海市静安区洛川东路37号",121.47211410195118,31.278638201072205,"2022-03-28"
"静安区","上海市静安区柳营路319弄",121.46987678224804,31.273721070046967,"2022-03-28"
"静安区","上海市静安区江杨南路466弄",121.47443155050583,31.322721398879402,"2022-03-28"
"静安区","上海市静安区通阁路200弄",121.47688104997043,31.266835432511993,"2022-03-28"
"静安区","上海市静安区武定路600弄",121.45524024142121,31.239251066398463,"2022-03-28"
"静安区","上海市静安区民德路59号",121.47790655554063,31.25587384893405,"2022-03-28"
"静安区","上海市静安区少年村路415弄",121.43746106859828,31.305514578496147,"2022-03-28"
"静安区","上海市静安区普善路390弄",121.46037306927467,31.26632436193742,"2022-03-28"
"静安区","上海市静安区永兴路258弄",121.47976200557149,31.25913589635148,"2022-03-28"
"静安区","上海市静安区谈家桥路163弄",121.45627185546886,31.266914604602174,"2022-03-28"
"静安区","上海市静安区广中西路999弄",121.44226700307665,31.283385801572088,"2022-03-28"
"静安区","上海市静安区万荣路1199弄",121.44819204655937,31.29894238873531,"2022-03-28"
"静安区","上海市静安区平陆路397弄",121.45239378075175,31.292731158358638,"2022-03-28"
"静安区","上海市静安区共和新路2399弄",121.45965442486668,31.28765862079562,"2022-03-28"
"静安区","上海市静安区共和新路2564号",121.45786356300201,31.288808205150243,"2022-03-28"
"静安区","上海市静安区老沪太路205号",121.45918119752403,31.274375231297785,"2022-03-28"
"静安区","上海市静安区高平路598弄",121.43457589096133,31.29377345076367,"2022-03-28"
"静安区","上海市静安区原平路183弄",121.43862608101416,31.28836985111892,"2022-03-28"
"静安区","上海市静安区平型关路121弄",121.45832062084547,31.26603822910109,"2022-03-28"
"静安区","上海市静安区洛川东路161号",121.47104206415557,31.277951432429614,"2022-03-28"
"静安区","上海市静安区新闸路1910弄",121.44770660226179,31.232840257505554,"2022-03-28"
"静安区","上海市静安区康定路1038弄",121.44282916266481,31.237426696387733,"2022-03-28"
"静安区","上海市静安区万航渡路858弄",121.43540062525004,31.233176822197667,"2022-03-28"
"静安区","上海市静安区武宁南路438弄",121.43848792162673,31.238931119164207,"2022-03-28"
"静安区","上海市静安区余姚路566弄",121.43995458503288,31.238947328821215,"2022-03-28"
"静安区","上海市静安区武定西路1320弄",121.43865913865693,31.231223031835018,"2022-03-28"
"静安区","上海市静安区武定西路1398弄",121.43633989349127,31.231854254937183,"2022-03-28"
"静安区","上海市静安区武定路1128弄",121.44641061690253,31.23602113145969,"2022-03-28"
"静安区","上海市静安区华山路251弄",121.45272193175454,31.225976852692988,"2022-03-28"
"静安区","上海市静安区万航渡路212弄",121.44700215108085,31.231608852698663,"2022-03-28"
"静安区","上海市静安区镇宁路404弄",121.44247621842995,31.2288010007761,"2022-03-28"
"静安区","上海市静安区北宝兴路660弄",121.46698001647,31.284469860004588,"2022-03-28"
"静安区","上海市静安区临汾路300弄",121.46855995620095,31.31818688632554,"2022-03-28"
"静安区","上海市静安区万航渡路342号",121.44457960078154,31.231704342730833,"2022-03-28"
"静安区","上海市静安区普善路铁路新村21号",121.45931261962014,31.262430472601366,"2022-03-28"
"静安区","上海市静安区中华新路939弄",121.46199801411167,31.261891982624878,"2022-03-28"
"静安区","上海市静安区万航渡路623弄",121.44039295812175,31.232727940349175,"2022-03-28"
"静安区","上海市静安区万荣路959号",121.44875968581113,31.294333588443067,"2022-03-28"
"静安区","上海市静安区王家宅路16号",121.47947930882749,31.256898957035787,"2022-03-28"
"静安区","上海市静安区愚园路611弄",121.44474201441774,31.22761817767676,"2022-03-28"
"静安区","上海市静安区景凤路521弄",121.46333630966043,31.32504043412283,"2022-03-28"
"静安区","上海市静安区已对相关居住地落实终末消毒措施",121.45343177276851,31.233844930401652,"2022-03-28"
"徐汇区","上海市徐汇区华泾五村",121.45159213291464,31.12733612347853,"2022-03-28"
"徐汇区","上海市徐汇区石龙路569号",121.44235099464184,31.160060306402418,"2022-03-28"
"徐汇区","上海市徐汇区天钥桥南路1199弄",121.46292344844805,31.15883551564822,"2022-03-28"
"徐汇区","上海市徐汇区龙南三村",121.46267803138272,31.16240585890181,"2022-03-28"
"徐汇区","上海市徐汇区华发路99弄",121.4599290368611,31.13210484580459,"2022-03-28"
"徐汇区","上海市徐汇区龙恒路280弄",121.4551861634295,31.172834367346923,"2022-03-28"
"徐汇区","上海市徐汇区钦州北路158弄",121.42857583896854,31.186628936539055,"2022-03-28"
"徐汇区","上海市徐汇区华发路180弄",121.45821354282869,31.13352974325808,"2022-03-28"
"徐汇区","上海市徐汇区天钥新村",121.45293015897174,31.192061894349106,"2022-03-28"
"徐汇区","上海市徐汇区桂林路81号",121.4271328009973,31.167788928124654,"2022-03-28"
"徐汇区","上海市徐汇区天钥桥路380弄",121.4441291005683,31.19371647897656,"2022-03-28"
"徐汇区","上海市徐汇区三江路301弄",121.44576518439361,31.17021925747162,"2022-03-28"
"徐汇区","上海市徐汇区冠生园路230弄",121.43227003054777,31.168835857644595,"2022-03-28"
"徐汇区","上海市徐汇区康健路105弄",121.43383910078205,31.17204416460773,"2022-03-28"
"徐汇区","上海市徐汇区钦州南路8弄",121.44339635276381,31.194556772822725,"2022-03-28"
"徐汇区","上海市徐汇区沪闵路9260弄",121.43914548126003,31.16822066340661,"2022-03-28"
"徐汇区","上海市徐汇区宛平南路65弄",121.45168151431287,31.202488185421306,"2022-03-28"
"徐汇区","上海市徐汇区东安路230弄",121.45903800762575,31.19928385479955,"2022-03-28"
"徐汇区","上海市徐汇区东兰路51弄",121.40842406163264,31.16324851919867,"2022-03-28"
"徐汇区","上海市徐汇区龙吴路2888弄",121.46157679865804,31.11546419311615,"2022-03-28"
"徐汇区","上海市徐汇区龙吴路2418弄",121.46907800898856,31.125376030198847,"2022-03-28"
"徐汇区","上海市徐汇区华发路406弄",121.4546052292562,31.133314452909197,"2022-03-28"
"徐汇区","上海市徐汇区龙吴路2588弄",121.46294896032454,31.12014463833439,"2022-03-28"
"徐汇区","上海市徐汇区桂林西街9弄",121.44339635276381,31.194556772822725,"2022-03-28"
"徐汇区","上海市徐汇区桂林西街111弄",121.42572003592177,31.156982461979297,"2022-03-28"
"徐汇区","上海市徐汇区钦州南路381弄",121.43156441156968,31.166060422146053,"2022-03-28"
"徐汇区","上海市徐汇区桂平路258弄",121.41475774429185,31.164039723049537,"2022-03-28"
"徐汇区","上海市徐汇区浦北路21弄",121.43380748042809,31.164215622471733,"2022-03-28"
"徐汇区","上海市徐汇区桂林路70弄",121.42236576314751,31.16405965369893,"2022-03-28"
"徐汇区","上海市徐汇区桂林西街47弄",121.42304398380753,31.160423398860715,"2022-03-28"
"徐汇区","上海市徐汇区江安路58弄",121.4224288241943,31.153696844358976,"2022-03-28"
"徐汇区","上海市徐汇区桂林路37号",121.42676233980498,31.16394339151781,"2022-03-28"
"徐汇区","上海市徐汇区钦州南路917弄",121.41918513282832,31.162288667646774,"2022-03-28"
"徐汇区","上海市徐汇区梅陇九村",121.42915847992231,31.136743043749814,"2022-03-28"
"徐汇区","上海市徐汇区云锦路50弄",121.46236667869296,31.179907968743272,"2022-03-28"
"徐汇区","上海市徐汇区龙华路3208弄",121.45295153864289,31.177177891717026,"2022-03-28"
"徐汇区","上海市徐汇区龙水北路960弄",121.45279631145077,31.177757883327143,"2022-03-28"
"徐汇区","上海市徐汇区宛平路297弄",121.45127143784758,31.20491661138538,"2022-03-28"
"徐汇区","上海市徐汇区桂林路303弄",121.42490751858799,31.175201150784943,"2022-03-28"
"徐汇区","上海市徐汇区田林东路414弄",121.43218325423551,31.180041744027342,"2022-03-28"
"徐汇区","上海市徐汇区田林六村",121.42684731950624,31.178807868333646,"2022-03-28"
"徐汇区","上海市徐汇区大木桥路600弄",121.46782020161349,31.198070928066223,"2022-03-28"
"徐汇区","上海市徐汇区零陵路677弄",121.45080737322112,31.19344217133077,"2022-03-28"
"徐汇区","上海市徐汇区龙川北路436弄",121.44328631033883,31.153522315882693,"2022-03-28"
"徐汇区","上海市徐汇区长桥四村",121.44602802858583,31.1399378439366,"2022-03-28"
"徐汇区","上海市徐汇区园南二村",121.44934187761214,31.148531004040407,"2022-03-28"
"徐汇区","上海市徐汇区已对相关居住地落实终末消毒措施",121.44339635276381,31.194556772822725,"2022-03-28"
"长宁区","上海市长宁区仙霞西路885弄",121.35597909951855,31.214887176900515,"2022-03-28"
"长宁区","上海市长宁区新中小区",121.43562583044138,31.22270754955371,"2022-03-28"
"长宁区","上海市长宁区新泾一村",121.37762493857865,31.22381284742357,"2022-03-28"
"长宁区","上海市长宁区双流路54弄",121.3874111686349,31.217939032052083,"2022-03-28"
"长宁区","上海市长宁区宣化路57弄",121.43609187133997,31.223474396211007,"2022-03-28"
"长宁区","上海市长宁区新华路593弄",121.42770151821567,31.2107733305861,"2022-03-28"
"长宁区","上海市长宁区东诸安浜路103号",121.44081255662545,31.223642463948327,"2022-03-28"
"长宁区","上海市长宁区金钟路333弄",121.37015759436585,31.22571738468603,"2022-03-28"
"长宁区","上海市长宁区利西路125弄",121.43665205465598,31.2206787300355,"2022-03-28"
"长宁区","上海市长宁区镇宁路405弄住宅",121.44057863787066,31.228985810709954,"2022-03-28"
"长宁区","上海市长宁区兴国路244弄49支弄",121.44200083515405,31.21338530151652,"2022-03-28"
"长宁区","上海市长宁区西诸安浜路425弄",121.43533657606717,31.2230341916394,"2022-03-28"
"长宁区","上海市长宁区天山西路350弄",121.37306774489596,31.223654275771523,"2022-03-28"
"长宁区","上海市长宁区中华新村",121.42539305271613,31.204362269575324,"2022-03-28"
"长宁区","上海市长宁区愚园路1210弄住宅",121.43322564794927,31.226328650326455,"2022-03-28"
"长宁区","上海市长宁区华阳路298弄",121.44529887400338,31.21490369955762,"2022-03-28"
"长宁区","上海市长宁区江苏路285弄",121.43720100915314,31.227312240773507,"2022-03-28"
"长宁区","上海市长宁区东诸安浜路180弄",121.43139023013129,31.225719777878318,"2022-03-28"
"长宁区","上海市长宁区华山路1615号",121.4410726160706,31.20988500142356,"2022-03-28"
"长宁区","上海市长宁区东诸安浜路91弄",121.44261698290335,31.211804878256252,"2022-03-28"
"长宁区","上海市长宁区武夷路491弄",121.42654099732732,31.220824645308458,"2022-03-28"
"长宁区","上海市长宁区长宁路476弄",121.43170104383775,31.229417495649646,"2022-03-28"
"长宁区","上海市长宁区镇宁路255弄",121.43720100915314,31.227312240773507,"2022-03-28"
"长宁区","上海市长宁区玉屏南路725号住宅",121.40758791886395,31.220572574601384,"2022-03-28"
"长宁区","上海市长宁区东诸安浜路158弄",121.44013765969581,31.224872352384875,"2022-03-28"
"长宁区","上海市长宁区新华路393弄",121.43059199585512,31.208403507523855,"2022-03-28"
"长宁区","上海市长宁区长顺路40号",121.42448333872618,31.204959930059736,"2022-03-28"
"长宁区","上海市长宁区新华路370弄",121.43201931347994,31.210397538652007,"2022-03-28"
"长宁区","上海市长宁区仙霞西路1225弄",121.37808154726936,31.21389442236718,"2022-03-28"
"长宁区","上海市长宁区镇宁路545弄",121.4407087125085,31.23047292297345,"2022-03-28"
"长宁区","上海市长宁区云雾山路13号",121.41404574734464,31.220821171137935,"2022-03-28"
"长宁区","上海市长宁区天山西路445弄",121.37033590800958,31.22321005755141,"2022-03-28"
"长宁区","上海市长宁区虹井路888弄",121.37447709641057,31.194406491984235,"2022-03-28"
"长宁区","上海市长宁区哈密路2004弄",121.37747249613359,31.198993655766266,"2022-03-28"
"长宁区","上海市长宁区安顺路231弄住宅",121.42308288043613,31.206853654662805,"2022-03-28"
"长宁区","上海市长宁区虹桥路1077弄",121.41887934963273,31.202746636750568,"2022-03-28"
"长宁区","上海市长宁区定西路1507号",121.42796220647466,31.223590121341328,"2022-03-28"
"长宁区","上海市长宁区安西路380号",121.43175296589622,31.223564413236005,"2022-03-28"
