"district","address","lng","lat","date"
"浦东新区","上海市浦东新区周南村",121.589970886555,31.111919735761,2022-03-26
"浦东新区","上海市浦东新区南祝路258弄",121.761885989968,31.1259748896737,2022-03-26
"浦东新区","上海市浦东新区瓦南村",121.659544468641,31.1047808712322,2022-03-26
"浦东新区","上海市浦东新区下南路309弄",121.529696185109,31.2072012517119,2022-03-26
"浦东新区","上海市浦东新区枣庄路998弄",121.59064021399,31.253395808369,2022-03-26
"浦东新区","上海市浦东新区灵岩南路410弄",121.503068991181,31.1590666619419,2022-03-26
"浦东新区","上海市浦东新区行泰路150弄",121.614337782835,31.2952456467756,2022-03-26
"浦东新区","上海市浦东新区罗山路108弄",121.558879454888,31.2546415897529,2022-03-26
"浦东新区","上海市浦东新区罗山七村",121.569897171968,31.2579176485215,2022-03-26
"浦东新区","上海市浦东新区罗山四村",121.568072443985,31.2558730771854,2022-03-26
"浦东新区","上海市浦东新区林浦路417号",121.525530311983,31.1391594184198,2022-03-26
"浦东新区","上海市浦东新区浦东大道2188号",121.557192976123,31.2558268494299,2022-03-26
"浦东新区","上海市浦东新区浦三路817弄",121.525675029,31.1889618539061,2022-03-26
"浦东新区","上海市浦东新区浦三路628弄",121.522452447814,31.1943233972342,2022-03-26
"浦东新区","上海市浦东新区御青路918弄",121.581132278981,31.1587678403555,2022-03-26
"浦东新区","上海市浦东新区东三里桥124弄",121.515983553976,31.2061194329289,2022-03-26
"浦东新区","上海市浦东新区张江镇中心村",121.664786799937,31.1927150050595,2022-03-26
"浦东新区","上海市浦东新区懿德村吴家队",121.522180979889,31.1256048631317,2022-03-26
"浦东新区","上海市浦东新区御水路555弄",121.582327025309,31.1603052008317,2022-03-26
"浦东新区","上海市浦东新区祥凯路2013弄",121.814006843454,30.9613812936717,2022-03-26
"浦东新区","上海市浦东新区御青路1051弄",121.584859707864,31.1200779398788,2022-03-26
"浦东新区","上海市浦东新区御北路235号",121.56552717232,31.1648308871202,2022-03-26
"浦东新区","上海市浦东新区北中路354弄",121.566413902522,31.1901497991136,2022-03-26
"浦东新区","上海市浦东新区康花路599号",121.555485656671,31.1537075061146,2022-03-26
"浦东新区","上海市浦东新区灵岩南路1333号",121.508521705626,31.1438866661145,2022-03-26
"浦东新区","上海市浦东新区鹏飞路101弄",121.536884264815,31.1897022555378,2022-03-26
"浦东新区","上海市浦东新区牡丹路259弄",121.555825036493,31.2146547012618,2022-03-26
"浦东新区","上海市浦东新区锦绣路3338弄",121.545288092522,31.1854903757833,2022-03-26
"浦东新区","上海市浦东新区莲安西路125弄",121.559745780722,31.1853271824863,2022-03-26
"浦东新区","上海市浦东新区建港村",121.848000161241,31.0365178049753,2022-03-26
"浦东新区","上海市浦东新区东海2村",121.908737022195,30.9608458762568,2022-03-26
"浦东新区","上海市浦东新区板泉路2030号",121.536903578383,31.1722937396233,2022-03-26
"浦东新区","上海市浦东新区夏栎路336弄",121.921718974103,30.9211188350889,2022-03-26
"浦东新区","上海市浦东新区亭园新村",121.906503475375,30.9576055917198,2022-03-26
"浦东新区","上海市浦东新区五星村吴家队吴家宅",121.522180979889,31.1256048631317,2022-03-26
"浦东新区","上海市浦东新区中界村孔家圈",121.580535175309,31.1898025765355,2022-03-26
"浦东新区","上海市浦东新区永泰路258弄",121.515385298706,31.1421411070665,2022-03-26
"浦东新区","上海市浦东新区益丰路55弄",121.628839488005,31.2071079243307,2022-03-26
"浦东新区","上海市浦东新区藿香路238弄",121.602138614349,31.2442502059109,2022-03-26
"浦东新区","上海市浦东新区南新村石家宅",121.699351260366,31.2105046321717,2022-03-26
"浦东新区","上海市浦东新区洪山路1097号",121.510954945761,31.1641566803657,2022-03-26
"浦东新区","上海市浦东新区西泰林路158弄",121.539297472737,31.1598032824448,2022-03-26
"浦东新区","上海市浦东新区御桥村姚家宅",121.564117833639,31.1623293022053,2022-03-26
"浦东新区","上海市浦东新区御青路328弄",121.584859707864,31.1200779398788,2022-03-26
"浦东新区","上海市浦东新区浦东大道1695弄",121.550783925632,31.2536836006242,2022-03-26
"浦东新区","上海市浦东新区韩荡村孟将堂南宅",121.769168283246,31.1423234608201,2022-03-26
"浦东新区","上海市浦东新区新德西路511弄",121.674150556911,31.1970359857411,2022-03-26
"浦东新区","上海市浦东新区鹤驰路88弄",121.600970727355,31.0863948938048,2022-03-26
"浦东新区","上海市浦东新区跃进路48弄",121.584859707864,31.1200779398788,2022-03-26
"浦东新区","上海市浦东新区金桥路301弄",121.578617113384,31.2728790178052,2022-03-26
"浦东新区","上海市浦东新区阳光二村",121.557040084526,31.2526465719219,2022-03-26
"浦东新区","上海市浦东新区新浦路673弄",121.536884264815,31.1897022555378,2022-03-26
"浦东新区","上海市浦东新区华安路24弄",121.521983622168,31.2173589031085,2022-03-26
"浦东新区","上海市浦东新区利津路385弄",121.590995673481,31.2827648790811,2022-03-26
"浦东新区","上海市浦东新区潍坊十村",121.532048955746,31.2306588875402,2022-03-26
"浦东新区","上海市浦东新区三林路519弄",121.508639832801,31.1463737863662,2022-03-26
"浦东新区","上海市浦东新区友谊村",121.779989810403,31.0402704731906,2022-03-26
"浦东新区","上海市浦东新区运通路728弄",121.708932407275,31.2091959517742,2022-03-26
"浦东新区","上海市浦东新区东林街117弄",121.510236930167,31.1444042775139,2022-03-26
"浦东新区","上海市浦东新区板泉路2000弄",121.536884264815,31.1897022555378,2022-03-26
"浦东新区","上海市浦东新区秀沿路2501弄",121.607210087936,31.1446754834221,2022-03-26
"浦东新区","上海市浦东新区浦三路649号",121.523349675357,31.1938791170833,2022-03-26
"浦东新区","上海市浦东新区兰陵路48号",121.522778353053,31.2008391611211,2022-03-26
"浦东新区","上海市浦东新区东沟四村",121.58094785686,31.2971920819799,2022-03-26
"浦东新区","上海市浦东新区沿南村",121.605619727861,31.1386417781057,2022-03-26
"浦东新区","上海市浦东新区下南路500号",121.54642903035,31.178118126676,2022-03-26
"浦东新区","上海市浦东新区天花庵村",121.531939542135,31.1285359001772,2022-03-26
"浦东新区","上海市浦东新区明通国际公寓",121.499977652429,31.1409880204488,2022-03-26
"浦东新区","上海市浦东新区大团镇镇南村",121.758540161266,30.9657369828418,2022-03-26
"浦东新区","上海市浦东新区东方路1881弄",121.532356805045,31.2009488138369,2022-03-26
"浦东新区","上海市浦东新区凌兆路127弄",121.500027777877,31.1477960721254,2022-03-26
"浦东新区","上海市浦东新区海阳路1065弄",121.512534975323,31.1647564512598,2022-03-26
"浦东新区","上海市浦东新区航城三路518弄",121.758716897814,31.1566564649836,2022-03-26
"浦东新区","上海市浦东新区御桥路347弄",121.536884264815,31.1897022555378,2022-03-26
"浦东新区","上海市浦东新区沪南路2000号",121.567875804909,31.1700081452879,2022-03-26
"浦东新区","上海市浦东新区中界村周家宅",121.574173735009,31.1954461740634,2022-03-26
"浦东新区","上海市浦东新区宣春路201号",121.732443128573,31.0900012347801,2022-03-26
"浦东新区","上海市浦东新区锦绣路1650弄",121.546004042013,31.2188614868018,2022-03-26
"浦东新区","上海市浦东新区芳华路933弄",121.536884264815,31.1897022555378,2022-03-26
"浦东新区","上海市浦东新区崂山新村",121.526081152921,31.2441861427874,2022-03-26
"浦东新区","上海市浦东新区黄路村",121.771168540125,31.036297341805,2022-03-26
"浦东新区","上海市浦东新区新安村",121.687760154879,31.0293322194091,2022-03-26
"浦东新区","上海市浦东新区临江村筠西队庞家宅",121.482806722267,31.124007039641,2022-03-26
"浦东新区","上海市浦东新区永春东路46号",121.748585409096,30.9778560514778,2022-03-26
"浦东新区","上海市浦东新区华州路张家宅",121.734208388731,31.1972533693672,2022-03-26
"浦东新区","上海市浦东新区普庆路301弄",121.730658914169,31.161213390491,2022-03-26
"浦东新区","上海市浦东新区华夏东路2026弄",121.697008479596,31.2054389822991,2022-03-26
"浦东新区","上海市浦东新区罗山路1700弄",121.575072579502,31.2314363219569,2022-03-26
"浦东新区","上海市浦东新区南阜村高树队油车头",121.526881543131,31.1363513458081,2022-03-26
"浦东新区","上海市浦东新区坦直村",121.655537846406,31.0790887807305,2022-03-26
"浦东新区","上海市浦东新区上南路6555弄",121.584859707864,31.1200779398788,2022-03-26
"浦东新区","上海市浦东新区潍坊六村",121.529449978245,31.2280068697259,2022-03-26
"浦东新区","上海市浦东新区前进村西李家宅",121.781723809529,31.0954221604193,2022-03-26
"浦东新区","上海市浦东新区佳林路898弄",121.617268145239,31.2705743499803,2022-03-26
"浦东新区","上海市浦东新区洋泾镇路95号",121.557038198084,31.2480243726405,2022-03-26
"浦东新区","上海市浦东新区祝西村",121.757781632093,31.1116433338875,2022-03-26
"浦东新区","上海市浦东新区艺泰安邦",121.714882513481,31.0670668468966,2022-03-26
"浦东新区","上海市浦东新区星光村",121.755200800363,31.1255442738515,2022-03-26
"浦东新区","上海市浦东新区民耀路391弄",121.652778790863,31.290487771739,2022-03-26
"浦东新区","上海市浦东新区秀浦路800弄",121.584859707864,31.1200779398788,2022-03-26
"浦东新区","上海市浦东新区罗山路5111号",121.597293962903,31.1689189749896,2022-03-26
"浦东新区","上海市浦东新区潍坊五村",121.530908017918,31.2255232271082,2022-03-26
"浦东新区","上海市浦东新区南泉北路1040弄",121.526876422789,31.2317676424559,2022-03-26
"浦东新区","上海市浦东新区南泉路1350弄",121.527360429798,31.215168447717,2022-03-26
"浦东新区","上海市浦东新区凌河路618弄",121.608152859568,31.276965751274,2022-03-26
"浦东新区","上海市浦东新区瑞和路269弄",121.595639912967,31.0935069363829,2022-03-26
"浦东新区","上海市浦东新区利津路215弄",121.589409804933,31.2842053851632,2022-03-26
"浦东新区","上海市浦东新区已对相关居住地落实终末消毒措施",121.550454606832,31.2273482924363,2022-03-26
"黄浦区","上海市黄浦区斜土路60号",121.49029032581,31.2121846795099,2022-03-26
"黄浦区","上海市黄浦区丽园路875号",121.482479379739,31.2126450098444,2022-03-26
"黄浦区","上海市黄浦区蒙自路601弄",121.487528126197,31.2051225486478,2022-03-26
"黄浦区","上海市黄浦区瑞金二路410弄",121.473398499169,31.2133016831321,2022-03-26
"黄浦区","上海市黄浦区瞿溪路130号",121.50040174246,31.2114283955582,2022-03-26
"黄浦区","上海市黄浦区斜土路486弄",121.483998234695,31.2084093757901,2022-03-26
"黄浦区","上海市黄浦区斜土路460弄",121.483998234695,31.2084093757901,2022-03-26
"黄浦区","上海市黄浦区瞿溪路117号",121.501438117527,31.2125793808676,2022-03-26
"黄浦区","上海市黄浦区中山南路1667号",121.501570976912,31.2105118901275,2022-03-26
"黄浦区","上海市黄浦区海潮路256弄",121.50354920089,31.2128867884433,2022-03-26
"黄浦区","上海市黄浦区瞿溪路121号",121.501095863128,31.2123133128033,2022-03-26
"黄浦区","上海市黄浦区打浦路339弄",121.478552257541,31.2052967494431,2022-03-26
"黄浦区","上海市黄浦区局门路241弄",121.487610410982,31.2120270919029,2022-03-26
"黄浦区","上海市黄浦区普育东路200弄",121.502308755228,31.2136236482467,2022-03-26
"黄浦区","上海市黄浦区保屯路211弄",121.498305816045,31.209535149529,2022-03-26
"黄浦区","上海市黄浦区局门路239号",121.487516268564,31.2120959641283,2022-03-26
"黄浦区","上海市黄浦区学院路135号",121.501351071723,31.2294103163563,2022-03-26
"黄浦区","上海市黄浦区瞿溪路1200弄",121.477917514868,31.2023023965439,2022-03-26
"黄浦区","上海市黄浦区新闸路200号",121.476367039558,31.2446758772373,2022-03-26
"黄浦区","上海市黄浦区学院路205号",121.500057421958,31.2288020043398,2022-03-26
"黄浦区","上海市黄浦区学院路127弄",121.500690008699,31.2158898807212,2022-03-26
"黄浦区","上海市黄浦区中山南路1358弄",121.506243782514,31.2161680602201,2022-03-26
"黄浦区","上海市黄浦区县左街20弄",121.501370385292,31.229773603347,2022-03-26
"黄浦区","上海市黄浦区瞿溪路301弄",121.498335460126,31.2103753786943,2022-03-26
"黄浦区","上海市黄浦区静修路126弄",121.486533342675,31.2255124191199,2022-03-26
"黄浦区","上海市黄浦区制造局路567弄",121.491828673995,31.2093086060248,2022-03-26
"黄浦区","上海市黄浦区瑞金二路264号",121.473136463452,31.2140115491108,2022-03-26
"黄浦区","上海市黄浦区丽园路68弄",121.495323980735,31.21622256879,2022-03-26
"黄浦区","上海市黄浦区静修路114弄",121.493029798293,31.2257417798045,2022-03-26
"黄浦区","上海市黄浦区丽园路873号",121.482543249261,31.2127752639244,2022-03-26
"黄浦区","上海市黄浦区顺昌路612弄37号",121.485565328658,31.2203313890076,2022-03-26
"黄浦区","上海市黄浦区方浜西路63弄",121.488941789578,31.2268514421722,2022-03-26
"黄浦区","上海市黄浦区延安中路545弄",121.465342675017,31.2296719356254,2022-03-26
"黄浦区","上海市黄浦区中山南路1711弄",121.500289544102,31.2096550613938,2022-03-26
"黄浦区","上海市黄浦区中山南路1701号",121.500555352703,31.2097859373362,2022-03-26
"黄浦区","上海市黄浦区海潮路222弄",121.503655584679,31.2138987460993,2022-03-26
"黄浦区","上海市黄浦区天柱山路20号",121.500115003342,31.2166718386408,2022-03-26
"黄浦区","上海市黄浦区江阴街54号",121.500125154194,31.2198215311166,2022-03-26
"黄浦区","上海市黄浦区中山南路1586弄",121.501523995534,31.2111320572099,2022-03-26
"黄浦区","上海市黄浦区瞿溪路120弄",121.50172216173,31.2120859266995,2022-03-26
"黄浦区","上海市黄浦区蒙自西路28弄3号",121.482570108596,31.2129158640054,2022-03-26
"黄浦区","上海市黄浦区蓬莱路19号",121.500311732248,31.2252363517947,2022-03-26
"黄浦区","上海市黄浦区丽园路857号",121.483589865011,31.2128633609796,2022-03-26
"黄浦区","上海市黄浦区蓬莱路405弄",121.493879146152,31.2220148113367,2022-03-26
"黄浦区","上海市黄浦区县左街24弄",121.501377571736,31.2296827431334,2022-03-26
"黄浦区","上海市黄浦区黄陂南路783号",121.484188226311,31.2182709407797,2022-03-26
"黄浦区","上海市黄浦区海潮路230弄",121.504837036085,31.2152778520308,2022-03-26
"黄浦区","上海市黄浦区顺昌路550弄",121.485579971037,31.2177418472914,2022-03-26
"黄浦区","上海市黄浦区普育东路101弄",121.502876214818,31.2152174750717,2022-03-26
"黄浦区","上海市黄浦区四牌楼路108号",121.501399849713,31.2294814916917,2022-03-26
"黄浦区","上海市黄浦区乔家路204号",121.501695841378,31.2234012090634,2022-03-26
"黄浦区","上海市黄浦区天柱山路88弄",121.499124441856,31.2161387213167,2022-03-26
"黄浦区","上海市黄浦区陆家浜路418号",121.505629970359,31.2166838829652,2022-03-26
"黄浦区","上海市黄浦区海潮路240弄",121.503726910136,31.213442050793,2022-03-26
"黄浦区","上海市黄浦区瑞金二路386号",121.473178593981,31.2130029571952,2022-03-26
"黄浦区","上海市黄浦区陆家浜路388号",121.50605567734,31.21668264765,2022-03-26
"黄浦区","上海市黄浦区海潮路93弄",121.505912038289,31.2149615288345,2022-03-26
"黄浦区","上海市黄浦区打浦路500弄",121.479751585228,31.2021083448416,2022-03-26
"黄浦区","上海市黄浦区瞿溪路888号",121.485457082844,31.205837804546,2022-03-26
"黄浦区","上海市黄浦区学院路125号",121.501312444586,31.228927681309,2022-03-26
"黄浦区","上海市黄浦区大兴街115弄",121.497558066538,31.2196088321597,2022-03-26
"黄浦区","上海市黄浦区重庆南路12号丙",121.477781421583,31.2270133279505,2022-03-26
"黄浦区","上海市黄浦区中山南路1726弄",121.49944953862,31.2099897019351,2022-03-26
"黄浦区","上海市黄浦区方斜支路35弄",121.492374664084,31.2216165212118,2022-03-26
"黄浦区","上海市黄浦区复兴东路663弄",121.498122382059,31.2279773029395,2022-03-26
"黄浦区","上海市黄浦区河南南路1001弄",121.49979358963,31.219506535756,2022-03-26
"黄浦区","上海市黄浦区曹市弄15弄",121.491202555055,31.2273683640199,2022-03-26
"黄浦区","上海市黄浦区巡道街53弄",121.504287812097,31.2257333650333,2022-03-26
"黄浦区","上海市黄浦区蓬莱路284号",121.496021425133,31.2228381756439,2022-03-26
"黄浦区","上海市黄浦区打浦路594号",121.480572816125,31.2011092000077,2022-03-26
"黄浦区","上海市黄浦区盛家街65号",121.499658574312,31.2294999416885,2022-03-26
"黄浦区","上海市黄浦区蒙自西路6号",121.483052902892,31.2133338796934,2022-03-26
"黄浦区","上海市黄浦区中山南一路247弄",121.492960718599,31.2063049610685,2022-03-26
"黄浦区","上海市黄浦区广西北路433号",121.483240424167,31.2422795115217,2022-03-26
"黄浦区","上海市黄浦区顺昌路582号",121.486130362823,31.2173049356471,2022-03-26
"黄浦区","上海市黄浦区中山南路200弄",121.507902413808,31.2283238436158,2022-03-26
"黄浦区","上海市黄浦区西仓桥街129号",121.496106674326,31.2260856267788,2022-03-26
"黄浦区","上海市黄浦区已对相关居住地落实终末消毒措施",121.491585592524,31.2372471520636,2022-03-26
"静安区","上海市静安区芷江中路363弄",121.477810347021,31.2659920063735,2022-03-26
"静安区","上海市静安区平顺路721弄",121.457853861302,31.3236286296725,2022-03-26
"静安区","上海市静安区陆丰路1号",121.481905811671,31.2650933980531,2022-03-26
"静安区","上海市静安区永和路1080弄",121.432787364691,31.2936241007197,2022-03-26
"静安区","上海市静安区乌鲁木齐北路506号",121.450014438947,31.2240007552554,2022-03-26
"静安区","上海市静安区光复路909号",121.462263732882,31.2454920184377,2022-03-26
"静安区","上海市静安区康定路758弄",121.448983992697,31.2383558288992,2022-03-26
"静安区","上海市静安区江场西路1366弄",121.431977632104,31.301858208091,2022-03-26
"静安区","上海市静安区阳城路283弄",121.431934423609,31.2902536325111,2022-03-26
"静安区","上海市静安区昌平路999弄",121.443925364879,31.2386810269573,2022-03-26
"静安区","上海市静安区大统路938弄",121.465017937575,31.2604427207575,2022-03-26
"静安区","上海市静安区永兴小马路70号",121.470868781023,31.257513568894,2022-03-26
"静安区","上海市静安区中山北路828号",121.464253749078,31.2656894360012,2022-03-26
"静安区","上海市静安区江宁路363弄",121.459294743341,31.2398287439887,2022-03-26
"静安区","上海市静安区中山北路831弄",121.464200030408,31.2668098906245,2022-03-26
"静安区","上海市静安区愚园路611弄",121.444742014418,31.2276181776768,2022-03-26
"静安区","上海市静安区江杨南路466弄",121.474431550506,31.3227213988794,2022-03-26
"静安区","上海市静安区芷江西路393弄",121.464417689833,31.2643917136024,2022-03-26
"静安区","上海市静安区普善路239弄",121.463956948937,31.2632953066303,2022-03-26
"静安区","上海市静安区虬江路888弄",121.482116733805,31.2580348745036,2022-03-26
"静安区","上海市静安区芷江西路593弄",121.461343239225,31.2631274644782,2022-03-26
"静安区","上海市静安区普善路毛家弄4号",121.459262494173,31.2631533932166,2022-03-26
"静安区","上海市静安区万航渡路342号",121.444579600782,31.2317043427308,2022-03-26
"静安区","上海市静安区南京西路778号",121.468193447553,31.2373254229334,2022-03-26
"静安区","上海市静安区普善路铁路新村18号",121.461289071403,31.26237653114,2022-03-26
"静安区","上海市静安区沪太路315弄",121.461028293314,31.2615378493053,2022-03-26
"静安区","上海市静安区大宁路181弄",121.461844224208,31.2832071941961,2022-03-26
"静安区","上海市静安区大统路1033弄",121.466110007584,31.2627958692347,2022-03-26
"静安区","上海市静安区广中西路999弄",121.442267003077,31.2833858015721,2022-03-26
"静安区","上海市静安区止园路400弄",121.474177150385,31.2665367231739,2022-03-26
"静安区","上海市静安区谈家桥路163弄",121.456271855469,31.2669146046022,2022-03-26
"静安区","上海市静安区柳营路1025弄",121.456559762385,31.2682738693517,2022-03-26
"静安区","上海市静安区沪太路607号",121.455450894063,31.2659352889721,2022-03-26
"静安区","上海市静安区柳营路650弄",121.463536092806,31.2704356112986,2022-03-26
"静安区","上海市静安区柳营路768弄",121.462331375286,31.2693247684631,2022-03-26
"静安区","上海市静安区普善路390弄",121.460373069275,31.2663243619374,2022-03-26
"静安区","上海市静安区谈家桥路85弄",121.459246234843,31.2665920512221,2022-03-26
"静安区","上海市静安区昌化路443弄",121.456569553915,31.2449816029908,2022-03-26
"静安区","上海市静安区康定路710弄",121.449816991396,31.23873042794,2022-03-26
"静安区","上海市静安区中华新路893弄",121.46198462936,31.2612283963409,2022-03-26
"静安区","上海市静安区已对相关居住地落实终末消毒措施",121.453431772769,31.2338449304017,2022-03-26
"徐汇区","上海市徐汇区桂林路303弄",121.424907518588,31.1752011507849,2022-03-26
"徐汇区","上海市徐汇区汇成二村",121.441477841686,31.1525364827155,2022-03-26
"徐汇区","上海市徐汇区虹漕南路300弄",121.419905843339,31.1635151128448,2022-03-26
"徐汇区","上海市徐汇区浦北路21弄",121.433807480428,31.1642156224717,2022-03-26
"徐汇区","上海市徐汇区钦州南路451弄",121.429588139448,31.1652821360164,2022-03-26
"徐汇区","上海市徐汇区龙华西路47号",121.458504189576,31.1745288392768,2022-03-26
"徐汇区","上海市徐汇区丰谷路285弄",121.461450946056,31.172860089377,2022-03-26
"徐汇区","上海市徐汇区龙华西路31弄",121.457319100032,31.1746273227092,2022-03-26
"徐汇区","上海市徐汇区丰谷路205弄",121.462727168694,31.176347328833,2022-03-26
"徐汇区","上海市徐汇区机场新村",121.458088049549,31.1737422039756,2022-03-26
"徐汇区","上海市徐汇区龙华西路21弄",121.454790729344,31.1750608803076,2022-03-26
"徐汇区","上海市徐汇区上中路483弄",121.453932937413,31.1471011574927,2022-03-26
"徐汇区","上海市徐汇区汇成三村",121.440343191996,31.1503428895036,2022-03-26
"徐汇区","上海市徐汇区百色路208号",121.45321348453,31.1500702319891,2022-03-26
"徐汇区","上海市徐汇区长桥三村",121.448297956779,31.1410138284795,2022-03-26
"徐汇区","上海市徐汇区龙吴路338弄",121.452778974154,31.1722357295196,2022-03-26
"徐汇区","上海市徐汇区田林十一村",121.431996137198,31.1784792182662,2022-03-26
"徐汇区","上海市徐汇区华发路99弄",121.459929036861,31.1321048458046,2022-03-26
"徐汇区","上海市徐汇区龙吴路1323弄",121.456191996109,31.1473358868488,2022-03-26
"徐汇区","上海市徐汇区华发路333弄",121.455827733225,31.1321893093888,2022-03-26
"徐汇区","上海市徐汇区上中路479号",121.454255968074,31.1475918632557,2022-03-26
"徐汇区","上海市徐汇区园南一村",121.446000181115,31.1470629888059,2022-03-26
"徐汇区","上海市徐汇区石龙路975号",121.436702629256,31.1544593113505,2022-03-26
"徐汇区","上海市徐汇区龙南六村",121.459373884056,31.1623585034551,2022-03-26
"徐汇区","上海市徐汇区龙吴路2588弄",121.462948960325,31.1201446383344,2022-03-26
"徐汇区","上海市徐汇区天钥桥南路1199弄",121.462923448448,31.1588355156482,2022-03-26
"徐汇区","上海市徐汇区龙吴路2418弄",121.469078008989,31.1253760301988,2022-03-26
"徐汇区","上海市徐汇区日晖七村",121.466176122869,31.2037039892407,2022-03-26
"徐汇区","上海市徐汇区罗城路799弄",121.440093463065,31.1546083428313,2022-03-26
"徐汇区","上海市徐汇区梅陇五村",121.429165935858,31.1400780123881,2022-03-26
"徐汇区","上海市徐汇区桂林西街9弄",121.443396352764,31.1945567728227,2022-03-26
"徐汇区","上海市徐汇区龙吟路455弄",121.459304085718,31.1199525806603,2022-03-26
"徐汇区","上海市徐汇区康健路100弄",121.434161322968,31.1710799228616,2022-03-26
"徐汇区","上海市徐汇区钦州南路8弄",121.443396352764,31.1945567728227,2022-03-26
"徐汇区","上海市徐汇区龙州路440450号",121.428639888151,31.1458810653319,2022-03-26
"徐汇区","上海市徐汇区凌云路250弄",121.427201048261,31.140822678891,2022-03-26
"徐汇区","上海市徐汇区漕宝路250号",121.420516960577,31.169855893945,2022-03-26
"徐汇区","上海市徐汇区江安路55弄",121.421627356018,31.1553648535721,2022-03-26
"徐汇区","上海市徐汇区黄石路169弄",121.463303252018,31.1638340045102,2022-03-26
"徐汇区","上海市徐汇区上中路51弄",121.440380381845,31.1418455541501,2022-03-26
"徐汇区","上海市徐汇区梅陇七村",121.430509172087,31.1453318602907,2022-03-26
"徐汇区","上海市徐汇区梅陇九村",121.429158479922,31.1367430437498,2022-03-26
"徐汇区","上海市徐汇区龙吴路988弄",121.45732853224,31.1553440712405,2022-03-26
"徐汇区","上海市徐汇区东泉路50弄",121.449427755619,31.1616930526113,2022-03-26
"徐汇区","上海市徐汇区石龙路999弄",121.435975091624,31.1534222651047,2022-03-26
"徐汇区","上海市徐汇区老沪闵路728弄",121.436331718911,31.1488588318855,2022-03-26
"徐汇区","上海市徐汇区龙南三村",121.462678031383,31.1624058589018,2022-03-26
"徐汇区","上海市徐汇区桂林路70弄",121.422365763148,31.1640596536989,2022-03-26
"徐汇区","上海市徐汇区康健路43号",121.437663726321,31.1725212995508,2022-03-26
"徐汇区","上海市徐汇区龙水北路960弄",121.452796311451,31.1777578833271,2022-03-26
"徐汇区","上海市徐汇区桂林西街151弄",121.427377499418,31.1587542434872,2022-03-26
"徐汇区","上海市徐汇区桂平路67号",121.416167904281,31.1560192242632,2022-03-26
"徐汇区","上海市徐汇区浦北路959弄",121.42047824361,31.1579268394382,2022-03-26
"徐汇区","上海市徐汇区桂平路258弄",121.414757744292,31.1640397230495,2022-03-26
"徐汇区","上海市徐汇区龙华路2373弄",121.458604036234,31.1881678483267,2022-03-26
"徐汇区","上海市徐汇区龙南五村",121.460453018465,31.1614279215894,2022-03-26
"徐汇区","上海市徐汇区龙州路425弄",121.433107303322,31.1354737615493,2022-03-26
"徐汇区","上海市徐汇区桂平路260弄",121.41423079828,31.1649705880071,2022-03-26
"徐汇区","上海市徐汇区浦北路111弄",121.429402045096,31.1617269783463,2022-03-26
"徐汇区","上海市徐汇区田东路258弄",121.446431816913,31.1801827021888,2022-03-26
"徐汇区","上海市徐汇区龙南四村",121.458213273337,31.1634543935241,2022-03-26
"徐汇区","上海市徐汇区天钥桥南路1118弄",121.461017333986,31.1620362076758,2022-03-26
"徐汇区","上海市徐汇区江南新村",121.469298093839,31.1984113244461,2022-03-26
"徐汇区","上海市徐汇区龙吴路1717弄",121.45670573703,31.1382707196565,2022-03-26
"徐汇区","上海市徐汇区柳州路181弄",121.434370358661,31.1650309973474,2022-03-26
"徐汇区","上海市徐汇区华展路55弄",121.459532973962,31.1180969046061,2022-03-26
"徐汇区","上海市徐汇区日晖五村",121.473703923043,31.2034800570458,2022-03-26
"徐汇区","上海市徐汇区康健路105弄",121.433839100782,31.1720441646077,2022-03-26
"徐汇区","上海市徐汇区龙川北路436弄",121.443286310339,31.1535223158827,2022-03-26
"徐汇区","上海市徐汇区罗秀三村",121.45301783359,31.1405420967382,2022-03-26
"徐汇区","上海市徐汇区桂林东街101弄",121.432280450892,31.1623430530595,2022-03-26
"徐汇区","上海市徐汇区园南二村",121.449341877612,31.1485310040404,2022-03-26
"徐汇区","上海市徐汇区上中西路55弄",121.436471585079,31.1407341895892,2022-03-26
"徐汇区","上海市徐汇区田林十三村",121.431878818498,31.1799641976388,2022-03-26
"徐汇区","上海市徐汇区田林八村",121.428402106683,31.1780064390276,2022-03-26
"徐汇区","上海市徐汇区罗秀路717弄",121.441354324679,31.1376876248454,2022-03-26
"徐汇区","上海市徐汇区石龙路79弄",121.453114850585,31.1623511645175,2022-03-26
"徐汇区","上海市徐汇区桂林路567弄",121.421398557605,31.1845685191457,2022-03-26
"徐汇区","上海市徐汇区东泉路12号",121.450825518992,31.1628217051336,2022-03-26
"徐汇区","上海市徐汇区襄阳南路383弄",121.490945280357,31.2344798410555,2022-03-26
"徐汇区","上海市徐汇区华泾四村",121.453733872912,31.1275803304769,2022-03-26
"徐汇区","上海市徐汇区复兴西路40号",121.452122222996,31.2170902235934,2022-03-26
"徐汇区","上海市徐汇区罗秀路887号",121.439491418712,31.1375816072181,2022-03-26
"徐汇区","上海市徐汇区老沪闵路1039弄",121.433693036306,31.1538631830606,2022-03-26
"徐汇区","上海市徐汇区长桥七村",121.44386203434,31.1374483122908,2022-03-26
"徐汇区","上海市徐汇区长桥一村",121.44421255315,31.1439569019531,2022-03-26
"徐汇区","上海市徐汇区龙吴路1343弄",121.457336167837,31.1425782918706,2022-03-26
"徐汇区","上海市徐汇区汇成一村",121.438515858928,31.1532893789645,2022-03-26
"徐汇区","上海市徐汇区龙吴路2888弄",121.461576798658,31.1154641931161,2022-03-26
"徐汇区","上海市徐汇区华泾路1000弄",121.452448128235,31.1262005525971,2022-03-26
"徐汇区","上海市徐汇区梅陇路130号",121.432109323692,31.1475741697686,2022-03-26
"徐汇区","上海市徐汇区东兰路51弄",121.408424061633,31.1632485191987,2022-03-26
"徐汇区","上海市徐汇区凌云路365号",121.425939132636,31.1425820780151,2022-03-26
"徐汇区","上海市徐汇区已对相关居住地落实终末消毒措施",121.443396352764,31.1945567728227,2022-03-26
"长宁区","上海市长宁区虹桥路2388号",121.369648075481,31.1939263021602,2022-03-26
"长宁区","上海市长宁区东诸安浜路103号",121.440812556625,31.2236424639483,2022-03-26
"长宁区","上海市长宁区中华新村",121.425393052716,31.2043622695753,2022-03-26
"长宁区","上海市长宁区中山西路800弄",121.417802011835,31.2134635151362,2022-03-26
"长宁区","上海市长宁区福泉路390弄",121.366218255213,31.2131725879359,2022-03-26
"长宁区","上海市长宁区江苏路261弄",121.437086565031,31.2272998118244,2022-03-26
"长宁区","上海市长宁区愚园路1396号",121.429260168106,31.2255063975258,2022-03-26
"长宁区","上海市长宁区金钟路68弄",121.376952017921,31.2252768818641,2022-03-26
"长宁区","上海市长宁区利西路125弄",121.436652054656,31.2206787300355,2022-03-26
"长宁区","上海市长宁区镇宁路405弄",121.440578637871,31.22898581071,2022-03-26
"长宁区","上海市长宁区新华路261弄",121.433745946501,31.2088853990533,2022-03-26
"长宁区","上海市长宁区金钟路340弄",121.373566484115,31.2257914964187,2022-03-26
"长宁区","上海市长宁区新华路329弄住宅",121.432863091845,31.2092838205571,2022-03-26
"长宁区","上海市长宁区北翟路980弄",121.366313295936,31.2307255845799,2022-03-26
"长宁区","上海市长宁区玉屏南路340弄",121.413634592913,31.219254152679,2022-03-26
"长宁区","上海市长宁区程家桥路43号",121.379059352817,31.1953504153704,2022-03-26
"长宁区","上海市长宁区中山西路1030弄住宅",121.420268938426,31.2044362437801,2022-03-26
"长宁区","上海市长宁区新泾一村",121.377624938579,31.2238128474236,2022-03-26
"长宁区","上海市长宁区定西路1310弄住宅",121.429546278411,31.2222665693493,2022-03-26
"长宁区","上海市长宁区虹桥机场新村",121.425393052716,31.2043622695753,2022-03-26
"长宁区","上海市长宁区新泾二村",121.379192032541,31.2214725372546,2022-03-26
"长宁区","上海市长宁区已对相关居住地落实终末消毒措施",121.430454375451,31.2268479682254,2022-03-26
"普陀区","上海市普陀区梅川路1333弄",121.384232694249,31.250347425068,2022-03-26
"普陀区","上海市普陀区桃浦七村",121.358560919385,31.2936189320931,2022-03-26
"普陀区","上海市普陀区大渡河路1550弄52支弄",121.400147793308,31.2520890397915,2022-03-26
"普陀区","上海市普陀区靖边路199弄",121.373309478909,31.2670268806969,2022-03-26
"普陀区","上海市普陀区定边路377弄",121.371116355837,31.2661373879637,2022-03-26
"普陀区","上海市普陀区祁连山南路2727弄",121.375016079717,31.2656585692924,2022-03-26
"普陀区","上海市普陀区祁连山南路999弄",121.375680915624,31.2493570534177,2022-03-26
"普陀区","上海市普陀区铜川路1653号",121.395602367428,31.2576278627932,2022-03-26
"普陀区","上海市普陀区真南路822弄",121.390804966852,31.2804290532809,2022-03-26
"普陀区","上海市普陀区金迈路358弄",121.335278008363,31.2932537331798,2022-03-26
"普陀区","上海市普陀区靖边路299弄",121.375058300076,31.2686382399983,2022-03-26
"普陀区","上海市普陀区雪松路392弄",121.360706881418,31.289754724988,2022-03-26
"普陀区","上海市普陀区志丹路500弄",121.437807634864,31.2774103314127,2022-03-26
"普陀区","上海市普陀区三源路41弄",121.414370844109,31.2663561544207,2022-03-26
"普陀区","上海市普陀区三源路66弄",121.414071438882,31.2673671034481,2022-03-26
"普陀区","上海市普陀区桃浦路1925弄",121.369826299294,31.268525039867,2022-03-26
"普陀区","上海市普陀区长寿路295弄",121.446316000593,31.2465021637953,2022-03-26
"普陀区","上海市普陀区清峪路81弄",121.38122651486,31.2412438228824,2022-03-26
"普陀区","上海市普陀区真光路798弄",121.382947308895,31.2420191624906,2022-03-26
"普陀区","上海市普陀区古浪路378号",121.392813577972,31.2893632809112,2022-03-26
"普陀区","上海市普陀区西乡路91弄",121.432053449089,31.2755637128216,2022-03-26
"普陀区","上海市普陀区新村路389号",121.43754119745,31.272224846076,2022-03-26
"普陀区","上海市普陀区昌化路994弄",121.451138488632,31.2523540686302,2022-03-26
"普陀区","上海市普陀区大渡河路1262弄",121.402631428382,31.2431244637904,2022-03-26
"普陀区","上海市普陀区岚皋西路45弄",121.430571155167,31.2543542635036,2022-03-26
"普陀区","上海市普陀区甘泉三村",121.432618034102,31.2672621584812,2022-03-26
"普陀区","上海市普陀区宜昌路715弄",121.437864317942,31.2482301378784,2022-03-26
"普陀区","上海市普陀区曹杨七村",121.416892028353,31.246969606438,2022-03-26
"普陀区","上海市普陀区真南路1051弄",121.385292694751,31.2752819291782,2022-03-26
"普陀区","上海市普陀区真南路215号",121.402642836862,31.2742361124627,2022-03-26
"普陀区","上海市普陀区东新路137弄",121.432623693427,31.2466544709226,2022-03-26
"普陀区","上海市普陀区铜川路309号",121.423602460343,31.2589063860333,2022-03-26
"普陀区","上海市普陀区中山北路2584弄",121.428472982988,31.249027879096,2022-03-26
"普陀区","上海市普陀区石泉路135弄",121.431647953982,31.2572742535316,2022-03-26
"普陀区","上海市普陀区梅川路1275号",121.388660262447,31.2485707377816,2022-03-26
"普陀区","上海市普陀区桃浦路873弄",121.392754110147,31.2654625654541,2022-03-26
"普陀区","上海市普陀区桃浦路321弄",121.400029216981,31.2649575835921,2022-03-26
"普陀区","上海市普陀区万镇路600号",121.382957459747,31.251338866728,2022-03-26
"普陀区","上海市普陀区梅岭北路1251弄",121.398517907791,31.2484875367415,2022-03-26
"普陀区","上海市普陀区白玉路669弄",121.428100635354,31.234186277431,2022-03-26
"普陀区","上海市普陀区已对相关居住地落实终末消毒措施",121.403569349165,31.2549733682796,2022-03-26
"虹口区","上海市虹口区广灵二村",121.484946845314,31.2917500305005,2022-03-26
"虹口区","上海市虹口区商业二村",121.487104844641,31.2901004966522,2022-03-26
"虹口区","上海市虹口区广灵四路140弄",121.486110420441,31.2921792655643,2022-03-26
"虹口区","上海市虹口区凉城路847弄",121.477394970553,31.3045160754646,2022-03-26
"虹口区","上海市虹口区车站北路507弄",121.479871688674,31.3026197773295,2022-03-26
"虹口区","上海市虹口区广灵二路186号",121.483242310609,31.2888124482714,2022-03-26
"虹口区","上海市虹口区广灵二路160号",121.483728563381,31.2887198710382,2022-03-26
"虹口区","上海市虹口区水电路120号",121.479174603599,31.2795089803404,2022-03-26
"虹口区","上海市虹口区花园路118弄",121.480143965074,31.2769288700081,2022-03-26
"虹口区","上海市虹口区车站北路491弄",121.480449209287,31.3029974356125,2022-03-26
"虹口区","上海市虹口区曲阳路440号",121.497967244698,31.2800133434598,2022-03-26
"虹口区","上海市虹口区祥德路139弄",121.493313303512,31.2770307949773,2022-03-26
"虹口区","上海市虹口区天宝西路252弄",121.499073058781,31.2790654132163,2022-03-26
"虹口区","上海市虹口区水电路810弄",121.483021776606,31.290360248865,2022-03-26
"虹口区","上海市虹口区天宝西路242弄",121.50108149024,31.2787030892987,2022-03-26
"虹口区","上海市虹口区友谊二村",121.484797007955,31.2905599034751,2022-03-26
"虹口区","上海市虹口区车站北路565弄",121.478608042313,31.3028669986619,2022-03-26
"虹口区","上海市虹口区汶水东路298弄",121.491495672143,31.29663867274,2022-03-26
"虹口区","上海市虹口区飞虹路187弄",121.508557009033,31.2674458892612,2022-03-26
"虹口区","上海市虹口区水电路1324弄5支弄",121.482455574643,31.2983062960363,2022-03-26
"虹口区","上海市虹口区车站北路507弄",121.479871688674,31.3026197773295,2022-03-26
"虹口区","上海市虹口区车站南路406弄",121.479078646236,31.3010179634506,2022-03-26
"虹口区","上海市虹口区新市路228号",121.487197370108,31.2921404616848,2022-03-26
"虹口区","上海市虹口区汶水东路650弄",121.482089604978,31.2939620665675,2022-03-26
"虹口区","上海市虹口区山阴路57弄",121.492247733516,31.2703181693838,2022-03-26
"虹口区","上海市虹口区海伦路306弄",121.498495627999,31.2634641516726,2022-03-26
"虹口区","上海市虹口区四平路327弄",121.497287856241,31.2717911210581,2022-03-26
"虹口区","上海市虹口区乍浦路325号",121.493412745932,31.2555491737159,2022-03-26
"虹口区","上海市虹口区场中路803弄",121.475779188432,31.3128942990771,2022-03-26
"虹口区","上海市虹口区广中路456号",121.476766965171,31.2852632800339,2022-03-26
"虹口区","上海市虹口区大连路975弄",121.512150500564,31.2731188333283,2022-03-26
"虹口区","上海市虹口区四川北路1545弄",121.488676879283,31.2614879973508,2022-03-26
"虹口区","上海市虹口区吴家湾路101弄",121.491288522892,31.2990773823836,2022-03-26
"虹口区","上海市虹口区密云路471弄",121.501706980366,31.288246877091,2022-03-26
"虹口区","上海市虹口区已对相关居住地落实终末消毒措施",121.511586454535,31.2697466989314,2022-03-26
"杨浦区","上海市杨浦区江湾城路88弄",121.517774791362,31.322983605218,2022-03-26
"杨浦区","上海市杨浦区平凉路2767弄",121.563338463778,31.2847027793218,2022-03-26
"杨浦区","上海市杨浦区松花江路1160弄",121.531686309812,31.293086947734,2022-03-26
"杨浦区","上海市杨浦区控江二村",121.532540867844,31.2855664042064,2022-03-26
"杨浦区","上海市杨浦区凤城三村",121.528297991259,31.2878228700411,2022-03-26
"杨浦区","上海市杨浦区殷行路307弄",121.545815487687,31.3342788311406,2022-03-26
"杨浦区","上海市杨浦区本溪路189弄",121.521071931906,31.2812470425923,2022-03-26
"杨浦区","上海市杨浦区军工路2866号",121.549025851918,31.3410077515834,2022-03-26
"杨浦区","上海市杨浦区密云路454弄",121.502959847061,31.2867514258867,2022-03-26
"杨浦区","上海市杨浦区凤城二村",121.525134338914,31.2841340200324,2022-03-26
"杨浦区","上海市杨浦区开鲁路382弄",121.53982450858,31.3308814542866,2022-03-26
"杨浦区","上海市杨浦区眉州路135弄",121.543618591732,31.2642967199544,2022-03-26
"杨浦区","上海市杨浦区市光路1138号",121.54253092342,31.3278783994514,2022-03-26
"杨浦区","上海市杨浦区杭州路740弄",121.545500631606,31.2905116870802,2022-03-26
"杨浦区","上海市杨浦区市光二村",121.548000975162,31.322108912847,2022-03-26
"杨浦区","上海市杨浦区开鲁六村",121.535860016872,31.333697419491,2022-03-26
"杨浦区","上海市杨浦区眉州路135弄",121.543618591732,31.2642967199544,2022-03-26
"杨浦区","上海市杨浦区鞍山五村",121.512357739645,31.280881332354,2022-03-26
"杨浦区","上海市杨浦区双辽路200弄",121.522798924249,31.2784074270024,2022-03-26
"杨浦区","上海市杨浦区已对相关居住地落实终末消毒措施",121.532519937325,31.2655241446571,2022-03-26
"宝山区","上海市宝山区白杨村",121.402885648841,31.347963164987,2022-03-26
"宝山区","上海市宝山区宝安公路2145号",121.355202873727,31.3553998117508,2022-03-26
"宝山区","上海市宝山区新沪路837弄",121.423695255302,31.2779947944459,2022-03-26
"宝山区","上海市宝山区北宗村",121.40980457754,31.3939123805,2022-03-26
"宝山区","上海市宝山区高境二村",121.485191004752,31.3278019009893,2022-03-26
"宝山区","上海市宝山区宝杨路3084号",121.449853552431,31.382401732209,2022-03-26
"宝山区","上海市宝山区丹霞山路257弄",121.370107019766,31.3675569796076,2022-03-26
"宝山区","上海市宝山区电台路568弄",121.39808896691,31.3617968880602,2022-03-26
"宝山区","上海市宝山区段泾村",121.403106003183,31.4271791422314,2022-03-26
"宝山区","上海市宝山区富锦路1500号",121.452222204399,31.4104129960061,2022-03-26
"宝山区","上海市宝山区富联二路55弄",121.416266448396,31.3786327684511,2022-03-26
"宝山区","上海市宝山区东街村",121.450824710517,31.3849289071253,2022-03-26
"宝山区","上海市宝山区高逸路201弄",121.495418931627,31.3313054198757,2022-03-26
"宝山区","上海市宝山区共富二村",121.438082965503,31.3545538710787,2022-03-26
"宝山区","上海市宝山区共和新路4719弄",121.453975337433,31.3253727337059,2022-03-26
"宝山区","上海市宝山区顾北东路155弄",121.418377017192,31.3669299112944,2022-03-26
"宝山区","上海市宝山区高境路477弄",121.478486411747,31.3297647761417,2022-03-26
"宝山区","上海市宝山区蔡家弄村",121.372254778409,31.3787062193081,2022-03-26
"宝山区","上海市宝山区富联路128弄",121.417062526739,31.3596168343045,2022-03-26
"宝山区","上海市宝山区顾陈路388号",121.395784903107,31.3422740300039,2022-03-26
"宝山区","上海市宝山区涵青路100弄",121.418833985204,31.3100180838874,2022-03-26
"宝山区","上海市宝山区呼兰路515弄",121.456625248856,31.3534205159343,2022-03-26
"宝山区","上海市宝山区顾陈路455弄",121.402885648841,31.347963164987,2022-03-26
"宝山区","上海市宝山区呼玛一村",121.45830175643,31.3481438842397,2022-03-26
"宝山区","上海市宝山区虎林路611号",121.462232651511,31.3478607778145,2022-03-26
"宝山区","上海市宝山区沪太路4332号",121.40210942305,31.3450601211867,2022-03-26
"宝山区","上海市宝山区华和路6号",121.417203830196,31.2974738766422,2022-03-26
"宝山区","上海市宝山区顾北路666弄",121.402367506223,31.3455617398212,2022-03-26
"宝山区","上海市宝山区泗塘四村",121.466813919781,31.3410894823061,2022-03-26
"宝山区","上海市宝山区华灵路410弄",121.42858428304,31.2788762272235,2022-03-26
"宝山区","上海市宝山区呼玛三村",121.448102036347,31.3457123945061,2022-03-26
"宝山区","上海市宝山区集贤路85弄",121.359637987691,31.4196285916717,2022-03-26
"宝山区","上海市宝山区菊泉街547弄",121.382158955979,31.3612768558286,2022-03-26
"宝山区","上海市宝山区罗店路840弄",121.496563013525,31.4102794734761,2022-03-26
"宝山区","上海市宝山区共富路228弄",121.435889303447,31.3556260010922,2022-03-26
"宝山区","上海市宝山区兰岗路757号",121.459812616467,31.3817066333893,2022-03-26
"宝山区","上海市宝山区淞南三村",121.496085923468,31.3501755639247,2022-03-26
"宝山区","上海市宝山区羌家村",121.396827296821,31.3663309742464,2022-03-26
"宝山区","上海市宝山区友谊路38号",121.496495191459,31.4130878749044,2022-03-26
"宝山区","上海市宝山区莲花山路517弄",121.454260369771,31.3695614115529,2022-03-26
"宝山区","上海市宝山区联杨路1078弄",121.361703192059,31.3513669347089,2022-03-26
"宝山区","上海市宝山区华灵路1920号",121.409680791041,31.2858196112743,2022-03-26
"宝山区","上海市宝山区罗溪路1001弄",121.349830916947,31.4307248303158,2022-03-26
"宝山区","上海市宝山区菊泉街577弄",121.381912730439,31.3634482370867,2022-03-26
"宝山区","上海市宝山区美丹路1058弄",121.342643484731,31.4004969815832,2022-03-26
"宝山区","上海市宝山区淞南五村",121.491637424752,31.3448847930404,2022-03-26
"宝山区","上海市宝山区沪太路5018号",121.404727803951,31.3485112582606,2022-03-26
"宝山区","上海市宝山区美秀路358弄",121.35745797988,31.3903608946128,2022-03-26
"宝山区","上海市宝山区泗塘五村",121.466571377294,31.3401410930935,2022-03-26
"宝山区","上海市宝山区牡丹江路1900号",121.481799991282,31.4192018697485,2022-03-26
"宝山区","上海市宝山区南大路160弄",121.407964219042,31.3063878067251,2022-03-26
"宝山区","上海市宝山区南藻路408号",121.436745029276,31.3460558770244,2022-03-26
"宝山区","上海市宝山区顾北东路500弄",121.414119408396,31.3627421274667,2022-03-26
"宝山区","上海市宝山区南周村",121.341581687619,31.3875619020251,2022-03-26
"宝山区","上海市宝山区潘广路1765弄",121.366210978938,31.3683528530971,2022-03-26
"宝山区","上海市宝山区华灵路680弄",121.428727293278,31.285424370325,2022-03-26
"宝山区","上海市宝山区潘新路255弄",121.336397925843,31.4909983538223,2022-03-26
"宝山区","上海市宝山区祁华路300弄",121.377456146973,31.328404324679,2022-03-26
"宝山区","上海市宝山区钱潘村",121.406779084583,31.4376476561247,2022-03-26
"宝山区","上海市宝山区水产西路268弄",121.437960526462,31.3647364108261,2022-03-26
"宝山区","上海市宝山区菊泉街1398弄",121.385648200705,31.358983127982,2022-03-26
"宝山区","上海市宝山区沙浦路128弄",121.39539252326,31.3621973556092,2022-03-26
"宝山区","上海市宝山区南大路76弄",121.413014223128,31.3058334492871,2022-03-26
"宝山区","上海市宝山区韶山路245弄",121.371453310233,31.364788520166,2022-03-26
"宝山区","上海市宝山区盛宅一村",121.418138157756,31.358906995317,2022-03-26
"宝山区","上海市宝山区松兰路233弄",121.455436251683,31.3758870675297,2022-03-26
"宝山区","上海市宝山区水产西路738号",121.423453431459,31.3621659041297,2022-03-26
"宝山区","上海市宝山区泗塘八村",121.46330199439,31.3361948421589,2022-03-26
"宝山区","上海市宝山区沙浦路311弄",121.392129877648,31.3601256208655,2022-03-26
"宝山区","上海市宝山区淞兴西路176号",121.496545406737,31.3741465298815,2022-03-26
"宝山区","上海市宝山区淞南七村",121.486714980049,31.3388929056496,2022-03-26
"宝山区","上海市宝山区苏家浜路435弄",121.397535970038,31.3659379245317,2022-03-26
"宝山区","上海市宝山区泰和路1700号",121.455189846482,31.3618205538516,2022-03-26
"宝山区","上海市宝山区水产西路999弄",121.417190086121,31.360786576709,2022-03-26
"宝山区","上海市宝山区五星村",121.352482445321,31.3074150600677,2022-03-26
"宝山区","上海市宝山区铁城路1555号",121.459905950409,31.3631079021689,2022-03-26
"宝山区","上海市宝山区通河四村",121.45156203968,31.3373858520103,2022-03-26
"宝山区","上海市宝山区西浜村",121.447716483622,31.3653429124013,2022-03-26
"宝山区","上海市宝山区泰和西路3463弄",121.412466256766,31.3564017785614,2022-03-26
"宝山区","上海市宝山区归王村",121.363118292729,31.3643426606109,2022-03-26
"宝山区","上海市宝山区新沪路960弄",121.425932125853,31.2791103949845,2022-03-26
"宝山区","上海市宝山区一二八纪念路55弄",121.472302566447,31.3347512832672,2022-03-26
"宝山区","上海市宝山区殷高路7弄",121.496563013525,31.4102794734761,2022-03-26
"宝山区","上海市宝山区友谊路1999弄",121.453677459326,31.3975270721534,2022-03-26
"宝山区","上海市宝山区沙浦路518弄",121.388102684216,31.3637188853256,2022-03-26
"宝山区","上海市宝山区友谊支路300弄",121.475175796621,31.4044497528499,2022-03-26
"宝山区","上海市宝山区月浦六村",121.42834299818,31.4245958788828,2022-03-26
"宝山区","上海市宝山区长白山路633弄",121.359459224895,31.3472188508534,2022-03-26
"宝山区","上海市宝山区长临路1318弄",121.436997363294,31.3343227838632,2022-03-26
"宝山区","上海市宝山区朱家弄村",121.395986662525,31.3476683389689,2022-03-26
"宝山区","上海市宝山区竹韵路128弄",121.450601301937,31.3721388823168,2022-03-26
"宝山区","上海市宝山区走马塘路1228弄",121.37788598616,31.3103628549145,2022-03-26
"宝山区","上海市宝山区王家村",121.395228851997,31.3915288634113,2022-03-26
"宝山区","上海市宝山区已对相关居住地落实终末消毒措施",121.496563013525,31.4102794734761,2022-03-26
"闵行区","上海市闵行区安乐村",121.419383029532,31.0396658854503,2022-03-26
"闵行区","上海市闵行区安宁路26弄",121.424100391087,31.0162409275394,2022-03-26
"闵行区","上海市闵行区安宁路330弄",121.418628003751,31.018333663265,2022-03-26
"闵行区","上海市闵行区宝联路100号",121.360025647138,31.1521692481439,2022-03-26
"闵行区","上海市闵行区报春路816弄",121.381806281236,31.1277695131836,2022-03-26
"闵行区","上海市闵行区报春路817弄",121.38467636734,31.1261658530938,2022-03-26
"闵行区","上海市闵行区报春路862弄",121.382669822323,31.1262476944407,2022-03-26
"闵行区","上海市闵行区报春路863弄",121.38187545076,31.1251585572496,2022-03-26
"闵行区","上海市闵行区北江燕路228弄",121.507662913737,31.0855300610015,2022-03-26
"闵行区","上海市闵行区北沈路260弄",121.340499858293,31.233986502342,2022-03-26
"闵行区","上海市闵行区北翟路2900弄",121.330342178908,31.228948833313,2022-03-26
"闵行区","上海市闵行区碧江路401弄",121.407748985042,31.0170161148224,2022-03-26
"闵行区","上海市闵行区碧江路501弄",121.406006721505,31.0219398251339,2022-03-26
"闵行区","上海市闵行区宾川路380弄",121.41642365186,31.0112878264151,2022-03-26
"闵行区","上海市闵行区曹行村",121.447841078597,31.0979400169197,2022-03-26
"闵行区","上海市闵行区曹家塘路220弄",121.451655373623,31.0473576912157,2022-03-26
"闵行区","上海市闵行区曹家塘路229弄",121.451633761449,31.0475429313816,2022-03-26
"闵行区","上海市闵行区曹中村",121.439423866138,31.0943308879524,2022-03-26
"闵行区","上海市闵行区漕宝路1243号",121.399054735164,31.1658750245472,2022-03-26
"闵行区","上海市闵行区漕宝路1467弄",121.385570989798,31.1662838257658,2022-03-26
"闵行区","上海市闵行区漕宝路1508弄",121.389763471443,31.1592845198927,2022-03-26
"闵行区","上海市闵行区昌林路430号",121.524008133296,31.0706718406365,2022-03-26
"闵行区","上海市闵行区春都路358弄",121.421628703477,31.0896458331796,2022-03-26
"闵行区","上海市闵行区春申路1580弄",121.438496186037,31.1219717557149,2022-03-26
"闵行区","上海市闵行区春申路1581弄",121.438497443665,31.1205468375197,2022-03-26
"闵行区","上海市闵行区春申路2458弄",121.421970508723,31.118177052638,2022-03-26
"闵行区","上海市闵行区灯辉路1169弄",121.433888866907,31.0407307957751,2022-03-26
"闵行区","上海市闵行区东川路2718弄",121.406810525276,31.0151615814102,2022-03-26
"闵行区","上海市闵行区东川路800号",121.443283974745,31.0320288411515,2022-03-26
"闵行区","上海市闵行区东风村",121.551063478307,31.1088679852405,2022-03-26
"闵行区","上海市闵行区东兰路1349弄",121.387249204151,31.1569252922273,2022-03-26
"闵行区","上海市闵行区都会路258号",121.438184923178,31.0426901776821,2022-03-26
"闵行区","上海市闵行区都会路2799弄",121.417161969159,31.0856598624062,2022-03-26
"闵行区","上海市闵行区都会路3199弄",121.412231978689,31.0920118532704,2022-03-26
"闵行区","上海市闵行区都市路1900弄",121.421016418441,31.0631247733845,2022-03-26
"闵行区","上海市闵行区都市路3635弄",121.40771440028,31.0885881247152,2022-03-26
"闵行区","上海市闵行区繁兴路469弄",121.296344549255,31.2179828851452,2022-03-26
"闵行区","上海市闵行区放鹤路2323弄",121.42838369142,31.0512885136958,2022-03-26
"闵行区","上海市闵行区放鹤路2号",121.48357351585,31.0568031606467,2022-03-26
"闵行区","上海市闵行区富国路199弄",121.385442981263,31.0272518736671,2022-03-26
"闵行区","上海市闵行区富国路355弄",121.383506324414,31.0299338563429,2022-03-26
"闵行区","上海市闵行区富国路39弄",121.385582488108,31.025439473032,2022-03-26
"闵行区","上海市闵行区富岩路328弄",121.377555769054,31.0384793630028,2022-03-26
"闵行区","上海市闵行区共和村",121.471171240488,31.0558263670524,2022-03-26
"闵行区","上海市闵行区行南村",121.434345385767,31.1221922501564,2022-03-26
"闵行区","上海市闵行区鹤庆路136弄",121.426797822873,31.016172994864,2022-03-26
"闵行区","上海市闵行区鹤庆路358弄",121.420066190873,31.01758897096,2022-03-26
"闵行区","上海市闵行区虹井路618弄",121.376637700823,31.1880258981718,2022-03-26
"闵行区","上海市闵行区虹梅路3329弄",121.391323468792,31.1952836159016,2022-03-26
"闵行区","上海市闵行区虹梅南路1008号",121.430922841774,31.1299197395269,2022-03-26
"闵行区","上海市闵行区虹梅南路1526弄",121.439946051131,31.125645590853,2022-03-26
"闵行区","上海市闵行区虹梅南路1660弄",121.434403506134,31.121288165558,2022-03-26
"闵行区","上海市闵行区虹梅南路1770弄",121.438129946881,31.1186495150091,2022-03-26
"闵行区","上海市闵行区虹梅南路1776弄",121.435945806864,31.1169494740821,2022-03-26
"闵行区","上海市闵行区虹梅南路1781弄",121.434077421234,31.1134784230578,2022-03-26
"闵行区","上海市闵行区虹梅南路221号",121.420874126848,31.1422652003797,2022-03-26
"闵行区","上海市闵行区虹梅南路2288弄",121.4312889911,31.1292851249392,2022-03-26
"闵行区","上海市闵行区虹梅南路2555弄",121.439274388101,31.103561775367,2022-03-26
"闵行区","上海市闵行区虹梅南路3509弄",121.442232508145,31.0878628519193,2022-03-26
"闵行区","上海市闵行区虹梅南路3678号",121.446782335723,31.0876555748697,2022-03-26
"闵行区","上海市闵行区虹梅南路4828号",121.45481453444,31.0655500002176,2022-03-26
"闵行区","上海市闵行区虹梅南路5205弄",121.456196577467,31.0552689791858,2022-03-26
"闵行区","上海市闵行区虹梅南路788号",121.429285140999,31.1322410848329,2022-03-26
"闵行区","上海市闵行区虹梅南路990号",121.430095861722,31.1307650098241,2022-03-26
"闵行区","上海市闵行区沪光路39弄",121.429100898539,31.08452255101,2022-03-26
"闵行区","上海市闵行区老沪闵路1351弄",121.44156156376,31.1193879210966,2022-03-26
"闵行区","上海市闵行区沪闵路3131弄",121.416296990783,31.0613255133804,2022-03-26
"闵行区","上海市闵行区沪闵路5366弄",121.391554872291,31.1020856363602,2022-03-26
"闵行区","上海市闵行区华光路300弄",121.38796964517,31.1938968018367,2022-03-26
"闵行区","上海市闵行区华宁路1399弄",121.39689880194,31.0293617714221,2022-03-26
"闵行区","上海市闵行区华展路168弄",121.456829433699,31.1181365535446,2022-03-26
"闵行区","上海市闵行区黄桦路422弄",121.371515023822,31.190424270855,2022-03-26
"闵行区","上海市闵行区汇南村",121.567101106237,31.0108279017493,2022-03-26
"闵行区","上海市闵行区纪翟南路165号",121.306763994866,31.2101968634428,2022-03-26
"闵行区","上海市闵行区建东村",121.509735136709,31.045559058248,2022-03-26
"闵行区","上海市闵行区剑川路100弄",121.478637776226,31.0505601691542,2022-03-26
"闵行区","上海市闵行区剑川路121弄",121.476196720833,31.0483676765652,2022-03-26
"闵行区","上海市闵行区剑川路150弄",121.470592552078,31.0497402430716,2022-03-26
"闵行区","上海市闵行区剑川路198弄",121.468834969891,31.0463976706466,2022-03-26
"闵行区","上海市闵行区剑川路201弄",121.470496882542,31.0451264499539,2022-03-26
"闵行区","上海市闵行区剑川路50弄",121.482213032155,31.0498170461855,2022-03-26
"闵行区","上海市闵行区剑川路综合服务中心工地宿舍",121.452967887803,31.0406535211443,2022-03-26
"闵行区","上海市闵行区江潮路168号",121.532391749129,31.0775626944813,2022-03-26
"闵行区","上海市闵行区江川东路863弄",121.431887801553,31.0125574049426,2022-03-26
"闵行区","上海市闵行区江川路1777弄",121.37648229397,30.9980393344177,2022-03-26
"闵行区","上海市闵行区江川路2060弄101支弄",121.357377922893,30.994354095409,2022-03-26
"闵行区","上海市闵行区江川路680弄",121.408247454769,31.0068834759732,2022-03-26
"闵行区","上海市闵行区江柳路888弄",121.492541389587,31.1046892714643,2022-03-26
"闵行区","上海市闵行区江文路330弄",121.5476973479,31.0689019551243,2022-03-26
"闵行区","上海市闵行区金光路699弄",121.280125014459,31.2058088484865,2022-03-26
"闵行区","上海市闵行区金汇路460弄",121.382592029066,31.1836188490405,2022-03-26
"闵行区","上海市闵行区金汇路588弄",121.379866210826,31.1892741717362,2022-03-26
"闵行区","上海市闵行区金平路328弄",121.414233223705,31.0193270929918,2022-03-26
"闵行区","上海市闵行区金平路337弄",121.416814055435,31.0215009190435,2022-03-26
"闵行区","上海市闵行区金平路555弄",121.417304979396,31.0260852322698,2022-03-26
"闵行区","上海市闵行区金平路558弄",121.414039010053,31.0210269631615,2022-03-26
"闵行区","上海市闵行区金平路788弄",121.413670345472,31.0267791844951,2022-03-26
"闵行区","上海市闵行区景谷路64弄",121.407872322388,31.0212610014191,2022-03-26
"闵行区","上海市闵行区景谷中路58弄",121.421333250794,31.0253378160295,2022-03-26
"闵行区","上海市闵行区民建村",121.461712173298,31.1019195151607,2022-03-26
"闵行区","上海市闵行区兰坪路301弄22支弄",121.425510910399,31.0130170890556,2022-03-26
"闵行区","上海市闵行区老沪闵路1111弄",121.443283076439,31.1320686029442,2022-03-26
"闵行区","上海市闵行区老沪闵路2259弄",121.421173262583,31.0976001836676,2022-03-26
"闵行区","上海市闵行区黎安路380弄",121.380776463799,31.1370196808857,2022-03-26
"闵行区","上海市闵行区立跃路3800弄",121.50496922608,31.0923571981134,2022-03-26
"闵行区","上海市闵行区莲花南路1108弄",121.416033158455,31.1112943521733,2022-03-26
"闵行区","上海市闵行区莲花南路1111弄",121.416683980797,31.1108208480019,2022-03-26
"闵行区","上海市闵行区莲花南路431弄",121.415941980446,31.1302885126197,2022-03-26
"闵行区","上海市闵行区联航路2015弄",121.511870678398,31.077547152816,2022-03-26
"闵行区","上海市闵行区联青路50弄",121.393642444466,31.0493936614739,2022-03-26
"闵行区","上海市闵行区联青路51弄",121.395642970837,31.0479924719068,2022-03-26
"闵行区","上海市闵行区联青路699弄",121.386056254434,31.0462714305324,2022-03-26
"闵行区","上海市闵行区龙柏二村",121.368336190114,31.1887880088866,2022-03-26
"闵行区","上海市闵行区龙柏四村",121.369482517775,31.1855637470262,2022-03-26
"闵行区","上海市闵行区龙柏七村",121.368871670028,31.1812154363146,2022-03-26
"闵行区","上海市闵行区龙吴路3008号",121.462985880681,31.1021777024733,2022-03-26
"闵行区","上海市闵行区龙吴路3399号",121.46303950952,31.0984245632095,2022-03-26
"闵行区","上海市闵行区龙吴路4341号",121.466052965184,31.0891688182621,2022-03-26
"闵行区","上海市闵行区龙吴路4787弄",121.473619841647,31.0701644170577,2022-03-26
"闵行区","上海市闵行区龙吴路5492号",121.473999285894,31.0511420253978,2022-03-26
"闵行区","上海市闵行区龙吴路5511弄",121.472440995326,31.0503962773212,2022-03-26
"闵行区","上海市闵行区龙吴路5530弄",121.474678854013,31.0498352994843,2022-03-26
"闵行区","上海市闵行区龙吴路5599弄",121.474420950501,31.0446168776874,2022-03-26
"闵行区","上海市闵行区罗锦路111弄",121.422175142718,31.1301793955016,2022-03-26
"闵行区","上海市闵行区罗锦路258弄",121.418259518831,31.1273573756951,2022-03-26
"闵行区","上海市闵行区罗锦路69号",121.426489704083,31.1304225132131,2022-03-26
"闵行区","上海市闵行区罗锦路85号",121.425066967816,31.1296087696411,2022-03-26
"闵行区","上海市闵行区罗秀路1501号",121.420035199332,31.133698822339,2022-03-26
"闵行区","上海市闵行区罗秀路1955弄",121.410518999912,31.1331688650425,2022-03-26
"闵行区","上海市闵行区罗秀路1980弄",121.409963667446,31.1340317248683,2022-03-26
"闵行区","上海市闵行区罗阳路258弄",121.417832913544,31.1299407593229,2022-03-26
"闵行区","上海市闵行区马桥西街小区58弄",121.373838401193,31.0338390265006,2022-03-26
"闵行区","上海市闵行区梅陇一村",121.420466026655,31.1425948272757,2022-03-26
"闵行区","上海市闵行区梅陇二村",121.417055519956,31.1407047498012,2022-03-26
"闵行区","上海市闵行区闵驰一路208弄",121.548348799055,31.047215605565,2022-03-26
"闵行区","上海市闵行区平南路61号",121.397240158033,31.156905978114,2022-03-26
"闵行区","上海市闵行区平南一村",121.402351965538,31.1595388413712,2022-03-26
"闵行区","上海市闵行区平南三村",121.398109987259,31.1572808257147,2022-03-26
"闵行区","上海市闵行区平阳路1375弄",121.391943030102,31.1401669504757,2022-03-26
"闵行区","上海市闵行区瓶北路479弄",121.403689362781,31.0574727572452,2022-03-26
"闵行区","上海市闵行区浦驰路188弄",121.509411567064,31.0802517505531,2022-03-26
"闵行区","上海市闵行区浦江路190号",121.433527568431,31.0054711309044,2022-03-26
"闵行区","上海市闵行区浦涛路100弄",121.550041925281,31.0563183227168,2022-03-26
"闵行区","上海市闵行区浦涛路505弄",121.541205653301,31.0513213072435,2022-03-26
"闵行区","上海市闵行区普杰路100弄",121.428932645917,31.1235873891112,2022-03-26
"闵行区","上海市闵行区普乐路425弄",121.430913140075,31.1209862095661,2022-03-26
"闵行区","上海市闵行区七莘路1818弄",121.368418025746,31.1444118496553,2022-03-26
"闵行区","上海市闵行区七莘路3885弄",121.343278227405,31.1760910446685,2022-03-26
"闵行区","上海市闵行区沁春路168弄",121.387154253259,31.1026776871457,2022-03-26
"闵行区","上海市闵行区群英路88弄",121.376458578704,31.1250442562334,2022-03-26
"闵行区","上海市闵行区瑞丽路22弄",121.414559578096,31.0140251210455,2022-03-26
"闵行区","上海市闵行区上中西路1011弄",121.417756557576,31.1349224728854,2022-03-26
"闵行区","上海市闵行区上中西路735弄",121.423353899208,31.1348079519254,2022-03-26
"闵行区","上海市闵行区上中西路738弄",121.423923694393,31.1376884748405,2022-03-26
"闵行区","上海市闵行区上中西路810弄",121.421466828824,31.1369160579646,2022-03-26
"闵行区","上海市闵行区上中西路855弄",121.421174250719,31.136381250601,2022-03-26
"闵行区","上海市闵行区上中西路925弄",121.419584339797,31.135219206707,2022-03-26
"闵行区","上海市闵行区尚义路229弄",121.457448725517,31.048501484503,2022-03-26
"闵行区","上海市闵行区申北路135弄",121.390954534719,31.0965876340912,2022-03-26
"闵行区","上海市闵行区申滨路1058弄",121.316399040105,31.2168368303097,2022-03-26
"闵行区","上海市闵行区申郑路18弄",121.318236883347,31.2103369269085,2022-03-26
"闵行区","上海市闵行区莘沥路501弄",121.374970894949,31.1142501051498,2022-03-26
"闵行区","上海市闵行区莘松路958弄",121.355414963658,31.1128708271611,2022-03-26
"闵行区","上海市闵行区莘西南路155弄",121.384403372296,31.1011334309214,2022-03-26
"闵行区","上海市闵行区莘朱路1365号",121.42471869477,31.1261795319641,2022-03-26
"闵行区","上海市闵行区莘朱路1688弄",121.425599842645,31.1279634096065,2022-03-26
"闵行区","上海市闵行区莘朱路1935弄",121.428288066798,31.1279692829076,2022-03-26
"闵行区","上海市闵行区石屏路399弄",121.426590224469,31.0218742949518,2022-03-26
"闵行区","上海市闵行区疏影路1188弄",121.367567240597,31.1244090677278,2022-03-26
"闵行区","上海市闵行区疏影路758弄",121.374611842237,31.1261992388076,2022-03-26
"闵行区","上海市闵行区疏影路789弄",121.371994449473,31.1251812783276,2022-03-26
"闵行区","上海市闵行区曙建路185弄",121.425303401826,31.0982197058772,2022-03-26
"闵行区","上海市闵行区水清路1000弄",121.383102805579,31.1316131317745,2022-03-26
"闵行区","上海市闵行区水清路999弄",121.38190473552,31.1327058261235,2022-03-26
"闵行区","上海市闵行区苏民村",121.539135598084,31.1147848066335,2022-03-26
"闵行区","上海市闵行区塘口村",121.486407849395,31.0937820000194,2022-03-26
"闵行区","上海市闵行区塘湾村",121.449029087634,31.0616459892676,2022-03-26
"闵行区","上海市闵行区天山西路4178弄",121.31229477206,31.2214929189113,2022-03-26
"闵行区","上海市闵行区同乐路151弄",121.425035976276,31.1302898263519,2022-03-26
"闵行区","上海市闵行区同乐路158号",121.425788396971,31.1310397326247,2022-03-26
"闵行区","上海市闵行区同心村",121.351595817783,30.9981972036868,2022-03-26
"闵行区","上海市闵行区吴河路328号",121.43789503999,31.0494853924113,2022-03-26
"闵行区","上海市闵行区吴河路333号",121.437447863507,31.047917291573,2022-03-26
"闵行区","上海市闵行区吴中路405弄100支弄",121.416847113078,31.1904621902136,2022-03-26
"闵行区","上海市闵行区吴中路870弄",121.397524995987,31.1854100039078,2022-03-26
"闵行区","上海市闵行区西环二村",121.372508280224,31.1089329138449,2022-03-26
"闵行区","上海市闵行区先进村",121.536906812283,31.0416743301515,2022-03-26
"闵行区","上海市闵行区向阳路228弄",121.441185263582,31.0812723624527,2022-03-26
"闵行区","上海市闵行区新建村",121.45240653669,31.0695304817161,2022-03-26
"闵行区","上海市闵行区新龙路1111弄",121.346440981444,31.159594464446,2022-03-26
"闵行区","上海市闵行区新镇路1060弄",121.369057978591,31.161241278789,2022-03-26
"闵行区","上海市闵行区新镇路603弄",121.369481349978,31.1499367230052,2022-03-26
"闵行区","上海市闵行区鑫都路2535弄",121.402055075567,31.0594443969273,2022-03-26
"闵行区","上海市闵行区星火村",121.478429189686,31.0431310736069,2022-03-26
"闵行区","上海市闵行区幸乐路500弄",121.285481969537,31.2120122673814,2022-03-26
"闵行区","上海市闵行区许浦村",121.344134402386,31.2307916640076,2022-03-26
"闵行区","上海市闵行区盐铁塘路176弄",121.518004847403,31.0414611500673,2022-03-26
"闵行区","上海市闵行区杨家巷村",121.308534016042,31.2302145481777,2022-03-26
"闵行区","上海市闵行区业祥路111弄",121.44063064976,31.1298103128654,2022-03-26
"闵行区","上海市闵行区益文路101弄",121.417756557576,31.1349224728854,2022-03-26
"闵行区","上海市闵行区益文路79弄",121.416895711406,31.1424078379456,2022-03-26
"闵行区","上海市闵行区银春路1799弄",121.403045008239,31.0313618487119,2022-03-26
"闵行区","上海市闵行区银春路1800弄",121.401740399147,31.0332739274975,2022-03-26
"闵行区","上海市闵行区银春路2200弄",121.392444015085,31.030873862853,2022-03-26
"闵行区","上海市闵行区银都路2688弄",121.413185529988,31.1037732688777,2022-03-26
"闵行区","上海市闵行区银都路3151弄",121.404330752915,31.0968833293797,2022-03-26
"闵行区","上海市闵行区银都路3828弄",121.391639043518,31.09455384377,2022-03-26
"闵行区","上海市闵行区银都路666弄",121.452268197641,31.1137412161483,2022-03-26
"闵行区","上海市闵行区银康路750弄",121.380851382479,31.0262708282425,2022-03-26
"闵行区","上海市闵行区银康路76弄",121.394854617921,31.0286436239377,2022-03-26
"闵行区","上海市闵行区银林路1002弄",121.377406111356,31.022098892305,2022-03-26
"闵行区","上海市闵行区银林路100弄",121.394775080496,31.027396064753,2022-03-26
"闵行区","上海市闵行区永德路369弄",121.464833784946,31.0458348034246,2022-03-26
"闵行区","上海市闵行区永德路700弄",121.458517170091,31.0485188099099,2022-03-26
"闵行区","上海市闵行区永杰路577弄",121.513960855659,31.036339577947,2022-03-26
"闵行区","上海市闵行区永联村",121.44892748928,31.112081897332,2022-03-26
"闵行区","上海市闵行区永跃路781弄",121.516148858389,31.040091170322,2022-03-26
"闵行区","上海市闵行区友好村",121.398219041548,31.0008588862543,2022-03-26
"闵行区","上海市闵行区俞塘村",121.388772281144,31.0388469475364,2022-03-26
"闵行区","上海市闵行区元和路181弄",121.389825274862,31.0568985192886,2022-03-26
"闵行区","上海市闵行区元江路4600弄",121.382328466229,31.0493509671117,2022-03-26
"闵行区","上海市闵行区元江路4805弄",121.383738626218,31.0476327350132,2022-03-26
"闵行区","上海市闵行区召楼路1706弄",121.546467135702,31.0578133246045,2022-03-26
"闵行区","上海市闵行区召泰路1068号",121.562939885623,31.009450435632,2022-03-26
"闵行区","上海市闵行区知新村",121.52477339976,31.1144005916946,2022-03-26
"闵行区","上海市闵行区中春路255号",121.406823999858,31.0321478193581,2022-03-26
"闵行区","上海市闵行区中心村",121.419599072007,31.0409346952975,2022-03-26
"闵行区","上海市闵行区竹园路2758号",121.531848723448,31.0763822938319,2022-03-26
"闵行区","上海市闵行区颛兴路358弄",121.4009681259,31.0718003495322,2022-03-26
"闵行区","上海市闵行区颛兴路639弄",121.396247260953,31.0689144823931,2022-03-26
"闵行区","上海市闵行区紫藤路238号",121.371343357639,31.1798818624589,2022-03-26
"闵行区","上海市闵行区已对相关居住地落实终末消毒措施",121.38861193361,31.1188425800874,2022-03-26
"嘉定区","上海市嘉定区江桥镇高潮村增建村高榆新村",121.332520030787,31.2598198707997,2022-03-26
"嘉定区","上海市嘉定区嘉定工业区草庵村朱家桥村",121.196405186693,31.4128468785453,2022-03-26
"嘉定区","上海市嘉定区铜川路2655弄",121.373873165616,31.2613385184983,2022-03-26
"嘉定区","上海市嘉定区新和路789号",121.198481080896,31.440839954365,2022-03-26
"嘉定区","上海市嘉定区爱特路68弄",121.328357372884,31.2418087523972,2022-03-26
"嘉定区","上海市嘉定区宝翔路998弄",121.322504822656,31.3207700207178,2022-03-26
"嘉定区","上海市嘉定区北和公路1650号",121.186093447913,31.4305646845137,2022-03-26
"嘉定区","上海市嘉定区博园路422号",121.226165881752,31.2666715445288,2022-03-26
"嘉定区","上海市嘉定区曹安公路1685号",121.372999024524,31.2580669013263,2022-03-26
"嘉定区","上海市嘉定区曹安公路1936号",121.366832516521,31.2608355207895,2022-03-26
"嘉定区","上海市嘉定区曹安公路1991号",121.358815409336,31.2627132210399,2022-03-26
"嘉定区","上海市嘉定区曹安路华江路",121.347139413978,31.2598702638449,2022-03-26
"嘉定区","上海市嘉定区海波路1000弄",121.334475911373,31.2761593753375,2022-03-26
"嘉定区","上海市嘉定区海川路58弄",121.354659219233,31.2718661222192,2022-03-26
"嘉定区","上海市嘉定区海蓝路318弄",121.351004373435,31.2686448761299,2022-03-26
"嘉定区","上海市嘉定区华江路157号",121.348040941295,31.2600915382036,2022-03-26
"嘉定区","上海市嘉定区华江路726弄",121.333803950205,31.2533417414823,2022-03-26
"嘉定区","上海市嘉定区华江支路343号",121.345221531714,31.2681147557603,2022-03-26
"嘉定区","上海市嘉定区汇通路25号",121.192916078261,31.4098396875833,2022-03-26
"嘉定区","上海市嘉定区嘉安公路200弄",121.239544422368,31.3755932548502,2022-03-26
"嘉定区","上海市嘉定区嘉涌路99弄",121.341956011525,31.2765658433815,2022-03-26
"嘉定区","上海市嘉定区金鼎路2588弄",121.366241970478,31.2653188804894,2022-03-26
"嘉定区","上海市嘉定区金鼎路2388弄",121.368986832795,31.2652684132152,2022-03-26
"嘉定区","上海市嘉定区金耀路555弄",121.313689660856,31.2544275807879,2022-03-26
"嘉定区","上海市嘉定区金耀南路299弄",121.317753774644,31.2436615181838,2022-03-26
"嘉定区","上海市嘉定区金耀南路80弄",121.317191704887,31.2416637960853,2022-03-26
"嘉定区","上海市嘉定区金耀南路300弄",121.318906929427,31.2420956540837,2022-03-26
"嘉定区","上海市嘉定区金园一路1115弄",121.326139366749,31.2535077919986,2022-03-26
"嘉定区","上海市嘉定区金园一路1118弄",121.319776040008,31.2538058483937,2022-03-26
"嘉定区","上海市嘉定区临洮路1000弄",121.341169904373,31.2729182154939,2022-03-26
"嘉定区","上海市嘉定区临夏路801弄",121.334466568996,31.2633203864662,2022-03-26
"嘉定区","上海市嘉定区临夏路800弄",121.335220157488,31.2621959543473,2022-03-26
"嘉定区","上海市嘉定区临夏路256弄",121.32844169273,31.2657742234442,2022-03-26
"嘉定区","上海市嘉定区临夏路98弄",121.343514391923,31.2646046965727,2022-03-26
"嘉定区","上海市嘉定区祁连山南路2199号",121.378752042502,31.2585879723317,2022-03-26
"嘉定区","上海市嘉定区双河路437弄",121.382899519042,31.2644458854039,2022-03-26
"嘉定区","上海市嘉定区吴杨东路333弄",121.310279962632,31.2764097530719,2022-03-26
"嘉定区","上海市嘉定区吴杨路100弄",121.303190176225,31.2758540601935,2022-03-26
"嘉定区","上海市嘉定区翔铁东路88号",121.353253910093,31.2769247806618,2022-03-26
"嘉定区","上海市嘉定区新和路489号",121.201685156989,31.4364747212008,2022-03-26
"嘉定区","上海市嘉定区永靖路501弄",121.264542468099,31.4070905933421,2022-03-26
"嘉定区","上海市嘉定区榆中路68弄",121.332177057743,31.2597391492648,2022-03-26
"嘉定区","上海市嘉定区裕民路1000弄",121.245267436941,31.3735410876889,2022-03-26
"嘉定区","上海市嘉定区张掖路355号",121.341329623092,31.2656508526137,2022-03-26
"嘉定区","上海市嘉定区众百南路605号",121.253154649149,31.3051286770465,2022-03-26
"嘉定区","上海市嘉定区曹安公路1991弄",121.295247718228,31.2745745342927,2022-03-26
"嘉定区","上海市嘉定区城北路4089号",121.197697309338,31.4542861298322,2022-03-26
"嘉定区","上海市嘉定区福海路111弄",121.261928399065,31.3760189438005,2022-03-26
"嘉定区","上海市嘉定区福海路728号",121.249301726987,31.371005278787,2022-03-26
"嘉定区","上海市嘉定区汇善路1333弄",121.203381157792,31.4070126189672,2022-03-26
"嘉定区","上海市嘉定区菊城路311号",121.225464112313,31.3574099789534,2022-03-26
"嘉定区","上海市嘉定区南新路206号",121.224627879714,31.4370144363997,2022-03-26
"嘉定区","上海市嘉定区兴荣路811号",121.204599799046,31.435658248687,2022-03-26
"嘉定区","上海市嘉定区曹安公路2033号",121.355328995821,31.263891047375,2022-03-26
"嘉定区","上海市嘉定区曹安公路1558号",121.375464064674,31.2589215118148,2022-03-26
"嘉定区","上海市嘉定区曹安公路1760号",121.370432925005,31.260111656187,2022-03-26
"嘉定区","上海市嘉定区曹安公路2258号",121.350135173023,31.2665584068341,2022-03-26
"嘉定区","上海市嘉定区曹安公路2291号",121.349309181107,31.265757188391,2022-03-26
"嘉定区","上海市嘉定区曹安公路2300弄",121.34953959647,31.2666513147017,2022-03-26
"嘉定区","上海市嘉定区曹安公路2688号",121.338257238587,31.2700724822723,2022-03-26
"嘉定区","上海市嘉定区曹安公路1777号",121.369585014434,31.2576978590554,2022-03-26
"嘉定区","上海市嘉定区曹安公路1986号",121.359879362382,31.2630267590423,2022-03-26
"嘉定区","上海市嘉定区曹安公路1798号",121.369034532817,31.2609433282895,2022-03-26
"嘉定区","上海市嘉定区曹安公路2098号",121.353636857732,31.2652441827405,2022-03-26
"嘉定区","上海市嘉定区鹤望路365弄",121.331896067779,31.2520776946264,2022-03-26
"嘉定区","上海市嘉定区海波路127弄",121.352434835129,31.2737597272617,2022-03-26
"嘉定区","上海市嘉定区海波路850弄",121.337700738324,31.2758957257003,2022-03-26
"嘉定区","上海市嘉定区海川路46号",121.357062384099,31.269966506357,2022-03-26
"嘉定区","上海市嘉定区海川路77弄",121.357382080875,31.2709267414136,2022-03-26
"嘉定区","上海市嘉定区海蓝路98弄",121.354948024454,31.2669798868015,2022-03-26
"嘉定区","上海市嘉定区华江支路369号",121.345255846985,31.2685612299716,2022-03-26
"嘉定区","上海市嘉定区鹤霞路555弄",121.321009952457,31.2523309152963,2022-03-26
"嘉定区","上海市嘉定区华江公路370号",121.341356123105,31.2560697957092,2022-03-26
"嘉定区","上海市嘉定区华江公路726弄",121.335547500016,31.2508975584038,2022-03-26
"嘉定区","上海市嘉定区华江支路328弄",121.346255301695,31.2649744832432,2022-03-26
"嘉定区","上海市嘉定区华江支路677弄",121.345091007924,31.2726318713693,2022-03-26
"嘉定区","上海市嘉定区黄家花园路88弄",121.32726602152,31.2584328552301,2022-03-26
"嘉定区","上海市嘉定区嘉涛路60弄",121.337997268973,31.2719364936243,2022-03-26
"嘉定区","上海市嘉定区靖远路1099弄",121.330747404524,31.2608195464392,2022-03-26
"嘉定区","上海市嘉定区靖远路490弄",121.346332915291,31.2619180660458,2022-03-26
"嘉定区","上海市嘉定区曲江路201弄",121.354233422421,31.2589108620301,2022-03-26
"嘉定区","上海市嘉定区翔铁中路219号",121.322806317205,31.2828158268119,2022-03-26
"嘉定区","上海市嘉定区虞姬墩路506号",121.349601938873,31.2619274036,2022-03-26
"嘉定区","上海市嘉定区陈家山路388弄",121.247416273552,31.3978099504446,2022-03-26
"嘉定区","上海市嘉定区平城路388弄",121.262691599427,31.4082548847476,2022-03-26
"嘉定区","上海市嘉定区嘉唐公路99弄",121.248073743354,31.4009417432031,2022-03-26
"嘉定区","上海市嘉定区宝安公路3705弄",121.313438764127,31.3453053795747,2022-03-26
"嘉定区","上海市嘉定区嘉新公路668弄",121.276686929781,31.3676287433946,2022-03-26
"嘉定区","上海市嘉定区彭封路161弄",121.287165753385,31.3505323676971,2022-03-26
"嘉定区","上海市嘉定区嘉美路1050弄",121.283036393346,31.3069218047751,2022-03-26
"嘉定区","上海市嘉定区汇德路668号",121.175263027532,31.3956002250424,2022-03-26
"嘉定区","上海市嘉定区泽普路588弄",121.162464779101,31.2965238865821,2022-03-26
"嘉定区","上海市嘉定区墅沟路69弄",121.283025014137,31.3859830388377,2022-03-26
"嘉定区","上海市嘉定区南翔镇新丰村",121.308205326056,31.3267401698831,2022-03-26
"嘉定区","上海市嘉定区江桥镇江桥一村江桥二村江桥三村恒嘉花园红光村上淌湾小区五四村北陈家宅水岸丽苑",121.34349597666,31.2603897042023,2022-03-26
"嘉定区","上海市嘉定区真新街道江桥批发市场",121.365910226254,31.2629524453062,2022-03-26
"嘉定区","上海市嘉定区嘉定工业区陆渡村南苑九村旺泾村灯塔村新浏村中贸世纪",121.254308702238,31.3711332309205,2022-03-26
"嘉定区","上海市嘉定区嘉定镇街道李园二村",121.258269151571,31.3972089775304,2022-03-26
"嘉定区","上海市嘉定区马陆镇大裕村",121.322534376907,31.3875941155798,2022-03-26
"嘉定区","上海市嘉定区华亭镇塔桥村毛桥村",121.258083651483,31.4790177839718,2022-03-26
"嘉定区","上海市嘉定区安亭镇星光村",121.242861774786,31.3072401238958,2022-03-26
"嘉定区","上海市嘉定区已对相关居住地落实终末消毒措施",121.272595058352,31.3801553396772,2022-03-26
"金山区","上海市金山区清泉路79号",121.184289560619,30.8975337114534,2022-03-26
"金山区","上海市金山区已对相关居住地落实终末消毒措施",121.348480045121,30.7478523765703,2022-03-26
"松江区","上海市松江区场南路1弄",121.234479596241,31.0371351764645,2022-03-26
"松江区","上海市松江区车峰路199弄",121.326828906059,31.016527435768,2022-03-26
"松江区","上海市松江区车亭公路1098号",121.325183030703,30.9622408505989,2022-03-26
"松江区","上海市松江区车亭公路1258号",121.325654191943,30.96149927709,2022-03-26
"松江区","上海市松江区辰塔路455弄",121.190652528037,31.0162042531854,2022-03-26
"松江区","上海市松江区陈春公路799弄",121.34554366407,31.0796723937375,2022-03-26
"松江区","上海市松江区陈春公路881弄",121.33689801252,31.0767001668374,2022-03-26
"松江区","上海市松江区陈春路677弄",121.353427013565,31.0825038860765,2022-03-26
"松江区","上海市松江区陈坊村",121.190069887084,31.1116653625901,2022-03-26
"松江区","上海市松江区城隆路1258弄",121.240952724351,31.1018481646571,2022-03-26
"松江区","上海市松江区大桥村",121.234479596241,31.0371351764645,2022-03-26
"松江区","上海市松江区古楼公路1198弄",121.256923130594,31.1113025453358,2022-03-26
"松江区","上海市松江区沪亭北路1001弄",121.318212718929,31.1608082753324,2022-03-26
"松江区","上海市松江区沪亭北路900弄",121.319400368644,31.1595999494974,2022-03-26
"松江区","上海市松江区沪亭路240弄",121.332714963082,31.1389431364502,2022-03-26
"松江区","上海市松江区沪亭南路1059号",121.345569625099,31.1174428106389,2022-03-26
"松江区","上海市松江区沪亭南路290弄",121.337951994375,31.1263847147798,2022-03-26
"松江区","上海市松江区沪亭南路501弄",121.339041728789,31.1255065600961,2022-03-26
"松江区","上海市松江区汇桥村",121.340410926047,31.015626436798,2022-03-26
"松江区","上海市松江区金都西路55弄",121.369055822658,31.0752079869486,2022-03-26
"松江区","上海市松江区九杜路350弄",121.317659272904,31.1483610245043,2022-03-26
"松江区","上海市松江区九亭大街1106号",121.320553523427,31.1329699564141,2022-03-26
"松江区","上海市松江区九新公路2388号",121.319262658409,31.0770593287933,2022-03-26
"松江区","上海市松江区涞坊路1399弄",121.300643120782,31.1498381363882,2022-03-26
"松江区","上海市松江区涞坊路288弄",121.324261818403,31.1603824544623,2022-03-26
"松江区","上海市松江区涞坊路333弄",121.323687172368,31.1598054455589,2022-03-26
"松江区","上海市松江区涞坊路45号",121.330291155155,31.1623210362414,2022-03-26
"松江区","上海市松江区涞泾路328弄",121.346394898371,31.1194607257367,2022-03-26
"松江区","上海市松江区涞亭北路600弄",121.33258084607,31.1626142071328,2022-03-26
"松江区","上海市松江区涞亭北路99弄",121.327181401141,31.163726625897,2022-03-26
"松江区","上海市松江区涞亭南路599弄",121.350727156354,31.1305088329866,2022-03-26
"松江区","上海市松江区涞寅路106弄",121.329427973391,31.1565198495268,2022-03-26
"松江区","上海市松江区涞寅路658弄",121.317655949174,31.1540502268314,2022-03-26
"松江区","上海市松江区乐都西路1455弄",121.200147617278,31.018017063369,2022-03-26
"松江区","上海市松江区龙金路180弄",121.318523981788,31.1315718656992,2022-03-26
"松江区","上海市松江区米易路45弄",121.234479596241,31.0371351764645,2022-03-26
"松江区","上海市松江区明兴路595弄",121.345959579521,31.0928587014446,2022-03-26
"松江区","上海市松江区明中路699弄",121.351651333063,31.0857077204158,2022-03-26
"松江区","上海市松江区南乐路168号",121.298283002715,31.0302439179573,2022-03-26
"松江区","上海市松江区荣乐中路30弄",121.244940453736,31.0244687757056,2022-03-26
"松江区","上海市松江区团结村",121.32120129153,30.9531812403172,2022-03-26
"松江区","上海市松江区外青松公路8211号",121.186021583472,31.1117850904309,2022-03-26
"松江区","上海市松江区新松路600号",121.132136457965,31.0000514513595,2022-03-26
"松江区","上海市松江区徐塘路500号",121.284019348506,31.05210765288,2022-03-26
"松江区","上海市松江区影佳路333号",121.31695751664,31.0140385840957,2022-03-26
"松江区","上海市松江区长兴东路1290号",121.295436452215,31.0887077273138,2022-03-26
"松江区","上海市松江区庄家村",121.326857921327,31.137603398023,2022-03-26
"松江区","上海市松江区已对相关居住地落实终末消毒措施",121.234479596241,31.0371351764645,2022-03-26
"青浦区","上海市青浦区章堰村",121.166659057357,31.2238187919253,2022-03-26
"青浦区","上海市青浦区久远路1660弄",121.114803922641,31.2164054733768,2022-03-26
"青浦区","上海市青浦区青龙村",121.183232794017,31.2455739872094,2022-03-26
"青浦区","上海市青浦区新丰村",121.181853266245,31.2334155816912,2022-03-26
"青浦区","上海市青浦区光联村",121.317580850833,31.1659544365636,2022-03-26
"青浦区","上海市青浦区高光路666号",121.310202798188,31.1638262794342,2022-03-26
"青浦区","上海市青浦区徐南路288弄",121.316805972501,31.1670728410694,2022-03-26
"青浦区","上海市青浦区火星村",121.25742788846,31.222482041554,2022-03-26
"青浦区","上海市青浦区盈港东路3188弄",121.249124311648,31.1757102474342,2022-03-26
"青浦区","上海市青浦区嵩山村",121.258236992233,31.2077088103075,2022-03-26
"青浦区","上海市青浦区崧子浦路55弄",121.091903420275,31.1505849506118,2022-03-26
"青浦区","上海市青浦区已对相关居住地落实终末消毒措施",121.130553104673,31.1554543179807,2022-03-26
"奉贤区","上海市奉贤区朱店村",121.553095804692,30.9327885818001,2022-03-26
"奉贤区","上海市奉贤区解放东路555弄",121.474414213209,30.9226433473125,2022-03-26
"奉贤区","上海市奉贤区姚家村",121.585977738902,30.9231339834732,2022-03-26
"奉贤区","上海市奉贤区工农村",121.543057420279,30.9179624653505,2022-03-26
"奉贤区","上海市奉贤区上塑路1175弄",121.582452768605,30.9236104367821,2022-03-26
"奉贤区","上海市奉贤区南明路191号",121.582375893129,30.9341884613608,2022-03-26
"奉贤区","上海市奉贤区安中路108号",121.406696709968,30.9642668130916,2022-03-26
"奉贤区","上海市奉贤区申隆二村",121.571611588034,30.8949909053382,2022-03-26
"奉贤区","上海市奉贤区光明路40弄",121.529407115116,30.9131935281966,2022-03-26
"奉贤区","上海市奉贤区吴房村",121.541648787409,30.8984822397649,2022-03-26
"奉贤区","上海市奉贤区江海新村",121.460478081189,30.9135181358024,2022-03-26
"奉贤区","上海市奉贤区环城东路885弄",121.477354906127,30.9342173461944,2022-03-26
"奉贤区","上海市奉贤区和中村",121.558746595503,30.9409278362562,2022-03-26
"奉贤区","上海市奉贤区张弄村",121.52897639158,30.9133155103012,2022-03-26
"奉贤区","上海市奉贤区万顺路2088弄",121.524089879097,30.9651223182636,2022-03-26
"奉贤区","上海市奉贤区钱忠村",121.553199379318,30.8882312941654,2022-03-26
"奉贤区","上海市奉贤区申隆一村",121.583362681732,30.8943915080574,2022-03-26
"奉贤区","上海市奉贤区光钱路600弄",121.516209853333,30.9141445990602,2022-03-26
"奉贤区","上海市奉贤区青成路108弄",121.584951077063,30.9309270982831,2022-03-26
"奉贤区","上海市奉贤区李窑村",121.599359975745,30.9226746365768,2022-03-26
"奉贤区","上海市奉贤区光钱路3431码头",121.514132072689,30.9254960492796,2022-03-26
"奉贤区","上海市奉贤区德泉路99弄",121.528204118333,30.9269650403257,2022-03-26
"奉贤区","上海市奉贤区邮电路118号",121.647458247101,30.9155901167539,2022-03-26
"奉贤区","上海市奉贤区金海村",121.507952808747,30.877571202483,2022-03-26
"奉贤区","上海市奉贤区湾张村",121.536684032517,30.9262853792287,2022-03-26
"奉贤区","上海市奉贤区陶宅村",121.558590380175,30.9544234954605,2022-03-26
"奉贤区","上海市奉贤区邮电路188号",121.647345659477,30.9131691177543,2022-03-26
"奉贤区","上海市奉贤区北港小区",121.587620290527,30.9352916543994,2022-03-26
"奉贤区","上海市奉贤区曙宏路46号",121.650290125278,30.9161443275724,2022-03-26
"奉贤区","上海市奉贤区南奉公路8889弄",121.478979761133,30.9190015625878,2022-03-26
"奉贤区","上海市奉贤区解放村",121.459841991057,30.9189638436194,2022-03-26
"奉贤区","上海市奉贤区西吴村",121.587532975231,30.9468156364768,2022-03-26
"奉贤区","上海市奉贤区南奉公路3200号",121.579909056368,30.9311343631986,2022-03-26
"奉贤区","上海市奉贤区江南路151号",121.467426474308,30.9078664568209,2022-03-26
"奉贤区","上海市奉贤区贤瑞路100弄",121.525887029101,30.9283234185556,2022-03-26
"奉贤区","上海市奉贤区德政路298弄",121.491512290795,30.9272169690714,2022-03-26
"奉贤区","上海市奉贤区南桥新城17单元1902区域地块",121.524830352329,30.9485286582183,2022-03-26
"奉贤区","上海市奉贤区梁典村",121.604561613801,30.9695729723759,2022-03-26
"奉贤区","上海市奉贤区梅园村",121.60355075061,30.9962761334292,2022-03-26
"奉贤区","上海市奉贤区南奉公路999号",121.626271502044,30.9197715839112,2022-03-26
"奉贤区","上海市奉贤区民乐路28弄",121.480503736431,30.9237201102854,2022-03-26
"奉贤区","上海市奉贤区t海路239弄",121.573102146366,30.87045652498,2022-03-26
"奉贤区","上海市奉贤区西闸路75号",121.49997783209,31.0102610399675,2022-03-26
"奉贤区","上海市奉贤区夏家村",121.730899300724,30.9716243225919,2022-03-26
"奉贤区","上海市奉贤区陆家桥村",121.553631284607,30.8739376817713,2022-03-26
"奉贤区","上海市奉贤区西校村",121.409551435048,30.9415251581642,2022-03-26
"奉贤区","上海市奉贤区八字村",121.647853471582,30.9423162128503,2022-03-26
"奉贤区","上海市奉贤区南宋村",121.670059314297,30.9683311484744,2022-03-26
"奉贤区","上海市奉贤区沿河港路350弄",121.480503736431,30.9237201102854,2022-03-26
"奉贤区","上海市奉贤区已对相关居住地落实终末消毒措施",121.480503736431,30.9237201102854,2022-03-26
"崇明区","上海市崇明区创建村",121.625629213604,31.431525170035,2022-03-26
"崇明区","上海市崇明区齐南村",121.758391491704,31.5815238910414,2022-03-26
"崇明区","上海市崇明区四村",121.663316543308,31.5326054376205,2022-03-26
"崇明区","上海市崇明区新开河路674号",121.699295295933,31.396815441809,2022-03-26
"崇明区","上海市崇明区裕展路679弄",121.851537508678,31.5363165977729,2022-03-26
"崇明区","上海市崇明区江南大道",121.765440867838,31.3589637803225,2022-03-26
"崇明区","上海市崇明区已对相关居住地落实终末消毒措施",121.403556862718,31.628569984404,2022-03-26
"崇明区","上海市崇明区资料各区卫健委新闻办",121.403556862718,31.628569984404,2022-03-26
"崇明区","上海市崇明区编辑吴维嘉",121.403556862718,31.628569984404,2022-03-26
