"district","address","lng","lat","date"
"浦东新区","上海市浦东新区北艾路155弄",121.5498820269,31.1925399313686,2022-05-12
"浦东新区","上海市浦东新区北艾路1765弄",121.528398601476,31.1842654537065,2022-05-12
"浦东新区","上海市浦东新区北蔡镇御桥村龙桥队张家宅",121.564117833639,31.1623293022053,2022-05-12
"浦东新区","上海市浦东新区碧云路333弄",121.583328007139,31.2439878555643,2022-05-12
"浦东新区","上海市浦东新区博华路1018弄",121.557501993219,31.1768508579768,2022-05-12
"浦东新区","上海市浦东新区博山路51弄",121.563650984265,31.2507948331348,2022-05-12
"浦东新区","上海市浦东新区博兴路1663弄",121.60720101505,31.2807760939525,2022-05-12
"浦东新区","上海市浦东新区博兴路462弄",121.589409086289,31.2720183620453,2022-05-12
"浦东新区","上海市浦东新区曹路镇顾东村船板桥",121.670280566944,31.3031164562783,2022-05-12
"浦东新区","上海市浦东新区曹路镇前锋村陆家宅",121.704838559574,31.2766295756821,2022-05-12
"浦东新区","上海市浦东新区曹路镇五四村沈孙家宅",121.658040076404,31.2603987332248,2022-05-12
"浦东新区","上海市浦东新区昌邑路55弄",121.519121980136,31.2460588518643,2022-05-12
"浦东新区","上海市浦东新区成山路668弄",121.519473037929,31.1758708312841,2022-05-12
"浦东新区","上海市浦东新区川周公路4005弄",121.596689223633,31.1313640667786,2022-05-12
"浦东新区","上海市浦东新区创新西路28弄",121.664299379367,31.210286275536,2022-05-12
"浦东新区","上海市浦东新区大团镇团西村鸭场",121.743361043911,30.9754062764103,2022-05-12
"浦东新区","上海市浦东新区德平路1060弄",121.573486710955,31.2482496647136,2022-05-12
"浦东新区","上海市浦东新区德平路1065弄",121.57423419097,31.2492630478328,2022-05-12
"浦东新区","上海市浦东新区德平路1066弄",121.573972784066,31.2468356951989,2022-05-12
"浦东新区","上海市浦东新区德平路215弄",121.569868066869,31.2545184941405,2022-05-12
"浦东新区","上海市浦东新区德平路764弄",121.571776247433,31.2502070355853,2022-05-12
"浦东新区","上海市浦东新区丁香路910弄",121.560392021706,31.2312404779508,2022-05-12
"浦东新区","上海市浦东新区东靖路247弄",121.584071175287,31.2986857459865,2022-05-12
"浦东新区","上海市浦东新区东陆路1268弄",121.601560554753,31.2728788634835,2022-05-12
"浦东新区","上海市浦东新区东陆路2000弄",121.615923651382,31.2677111832149,2022-05-12
"浦东新区","上海市浦东新区方竹路222弄",121.913596495682,30.898714102519,2022-05-12
"浦东新区","上海市浦东新区芳华路188弄",121.536884264815,31.1897022555378,2022-05-12
"浦东新区","上海市浦东新区芳华路229弄",121.560810542243,31.2025519682178,2022-05-12
"浦东新区","上海市浦东新区芳华路371弄",121.564425503276,31.2030206854988,2022-05-12
"浦东新区","上海市浦东新区芳华路63号",121.558171590146,31.200731052684,2022-05-12
"浦东新区","上海市浦东新区芳华路933弄",121.536884264815,31.1897022555378,2022-05-12
"浦东新区","上海市浦东新区高东二路118弄",121.632030269176,31.3299086703681,2022-05-12
"浦东新区","上海市浦东新区高桥镇陆凌村陆家宅",121.569011802057,31.3526591303629,2022-05-12
"浦东新区","上海市浦东新区高桥镇陆凌村西凌家宅",121.5817386352,31.3535668406377,2022-05-12
"浦东新区","上海市浦东新区龚新路549弄",121.691114786976,31.2646183552466,2022-05-12
"浦东新区","上海市浦东新区拱乐路698弄",121.7770938531,31.0696419890714,2022-05-12
"浦东新区","上海市浦东新区海鹏路301弄",121.680730914264,31.2953639830489,2022-05-12
"浦东新区","上海市浦东新区航头镇鹤东村沙东",121.602978260509,31.061148957304,2022-05-12
"浦东新区","上海市浦东新区航头镇沈庄村",121.589114801404,31.0850414945296,2022-05-12
"浦东新区","上海市浦东新区合庆镇庆星村顾家宅",121.725707094876,31.2404364439951,2022-05-12
"浦东新区","上海市浦东新区鹤永路750弄",121.609967885851,31.0777774939509,2022-05-12
"浦东新区","上海市浦东新区沪东路67号",121.586816756248,31.2773934340112,2022-05-12
"浦东新区","上海市浦东新区沪南路2688弄",121.570334646751,31.1439723553759,2022-05-12
"浦东新区","上海市浦东新区沪南路3158弄",121.572008728899,31.1277255406032,2022-05-12
"浦东新区","上海市浦东新区华安路24弄",121.521983622168,31.2173589031085,2022-05-12
"浦东新区","上海市浦东新区环桥路1481弄",121.584859707864,31.1200779398788,2022-05-12
"浦东新区","上海市浦东新区季景路19弄",121.59338067461,31.346510613548,2022-05-12
"浦东新区","上海市浦东新区金杨路685弄",121.58834306714,31.2582554349061,2022-05-12
"浦东新区","上海市浦东新区锦绣路2868弄",121.543720369746,31.1918025640378,2022-05-12
"浦东新区","上海市浦东新区居家桥路737弄",121.57705801434,31.2527548519321,2022-05-12
"浦东新区","上海市浦东新区巨峰路176弄",121.603201669089,31.285412489154,2022-05-12
"浦东新区","上海市浦东新区巨峰路90弄",121.602480239934,31.2847557049287,2022-05-12
"浦东新区","上海市浦东新区康弘路428弄",121.584859707864,31.1200779398788,2022-05-12
"浦东新区","上海市浦东新区康桥镇花墙村",121.55274169266,31.1563281752622,2022-05-12
"浦东新区","上海市浦东新区康沈路1758弄",121.58452158567,31.1196864815925,2022-05-12
"浦东新区","上海市浦东新区崂山路562号",121.524569933562,31.2434191571406,2022-05-12
"浦东新区","上海市浦东新区崂山三村",121.526396817478,31.2389325085635,2022-05-12
"浦东新区","上海市浦东新区崂山四村",121.524541996261,31.2411728108698,2022-05-12
"浦东新区","上海市浦东新区历城路22弄",121.536884264815,31.1897022555378,2022-05-12
"浦东新区","上海市浦东新区林展路278弄",121.512901034818,31.1328058217041,2022-05-12
"浦东新区","上海市浦东新区凌河路420弄",121.605932248348,31.2799170540613,2022-05-12
"浦东新区","上海市浦东新区凌兆路334弄",121.505458214346,31.1486761817732,2022-05-12
"浦东新区","上海市浦东新区龙居路180弄",121.568971737631,31.2585512381558,2022-05-12
"浦东新区","上海市浦东新区龙阳路1188号",121.537174956478,31.2042222743912,2022-05-12
"浦东新区","上海市浦东新区罗山路108弄",121.558879454888,31.2546415897529,2022-05-12
"浦东新区","上海市浦东新区苗桥路455号",121.635618370875,31.1329179495431,2022-05-12
"浦东新区","上海市浦东新区妙境北路116弄",121.69707926607,31.2076736776561,2022-05-12
"浦东新区","上海市浦东新区明月路199弄",121.583670980183,31.2411128365519,2022-05-12
"浦东新区","上海市浦东新区南港大道与环湖南三路交界口工地生活区",121.894828827476,30.9001927274634,2022-05-12
"浦东新区","上海市浦东新区浦电路221号",121.530044566662,31.2249883073877,2022-05-12
"浦东新区","上海市浦东新区浦电路330弄",121.534528817937,31.2266271793415,2022-05-12
"浦东新区","上海市浦东新区浦东大道1615弄",121.547795712353,31.2519762055034,2022-05-12
"浦东新区","上海市浦东新区浦东大道2748弄",121.568688412073,31.2656972298435,2022-05-12
"浦东新区","上海市浦东新区浦东南路1862弄",121.524135153695,31.2217476120428,2022-05-12
"浦东新区","上海市浦东新区浦东南路4950弄",121.504385996889,31.1857637026801,2022-05-12
"浦东新区","上海市浦东新区栖霞路286号",121.529156322174,31.2441497116903,2022-05-12
"浦东新区","上海市浦东新区栖霞路86号",121.524251574089,31.2422432340542,2022-05-12
"浦东新区","上海市浦东新区乳山路161弄",121.528018079262,31.2415971840306,2022-05-12
"浦东新区","上海市浦东新区三彩路166弄",121.525530311983,31.1391594184198,2022-05-12
"浦东新区","上海市浦东新区三林路235号",121.502736528311,31.1436912572177,2022-05-12
"浦东新区","上海市浦东新区三林镇胡巷村金家宅",121.52500489309,31.1587157705195,2022-05-12
"浦东新区","上海市浦东新区三林镇临江村王家渡队王家渡",121.481034545157,31.1308233546774,2022-05-12
"浦东新区","上海市浦东新区三林镇临江村王家宅队王家宅",121.484029855049,31.1268779245209,2022-05-12
"浦东新区","上海市浦东新区三林镇天花庵村北陈队大陈家宅",121.531939542135,31.1285359001772,2022-05-12
"浦东新区","上海市浦东新区三林镇天花庵村闵北队闵家宅",121.539890174712,31.126238497919,2022-05-12
"浦东新区","上海市浦东新区三林镇天花庵村南王家队南王家宅",121.55380142367,31.1628451123625,2022-05-12
"浦东新区","上海市浦东新区三舒路192弄",121.510630657472,31.1278552944324,2022-05-12
"浦东新区","上海市浦东新区三舒路62弄",121.509892699496,31.1304092986302,2022-05-12
"浦东新区","上海市浦东新区上南路6333弄",121.584859707864,31.1200779398788,2022-05-12
"浦东新区","上海市浦东新区上浦路510弄",121.506222941826,31.1521017393601,2022-05-12
"浦东新区","上海市浦东新区申轮路轲桥路交界口工地生活区",121.636677742563,31.2908116312254,2022-05-12
"浦东新区","上海市浦东新区胜利路836弄",121.708557634216,31.2521881362769,2022-05-12
"浦东新区","上海市浦东新区世博家园大道站路94弄",121.545610314708,31.1654593463491,2022-05-12
"浦东新区","上海市浦东新区书院镇中久村中南",121.894451808653,30.9393790715499,2022-05-12
"浦东新区","上海市浦东新区唐镇虹四村吴张家宅",121.658368227407,31.2467905435275,2022-05-12
"浦东新区","上海市浦东新区唐镇唐四村黄家东宅",121.673744882143,31.2241561610778,2022-05-12
"浦东新区","上海市浦东新区唐镇新虹村陆家宅",121.655033627523,31.2487133679639,2022-05-12
"浦东新区","上海市浦东新区潍坊路606号",121.528018797906,31.2292048956976,2022-05-12
"浦东新区","上海市浦东新区下南路500弄",121.543720818899,31.1779675877605,2022-05-12
"浦东新区","上海市浦东新区下南路551弄",121.54679904239,31.1790168752743,2022-05-12
"浦东新区","上海市浦东新区宣镇东路788弄",121.7075508134,31.0291915764554,2022-05-12
"浦东新区","上海市浦东新区杨新路80弄",121.500333510246,31.1696131563215,2022-05-12
"浦东新区","上海市浦东新区洋泾街道泾南村东唐家宅",121.49818274819,31.1917176907395,2022-05-12
"浦东新区","上海市浦东新区耀华路220弄",121.497392239341,31.1792613340205,2022-05-12
"浦东新区","上海市浦东新区耀华支路2号",121.475803802003,31.1816234755384,2022-05-12
"浦东新区","上海市浦东新区耀元路228弄",121.480329835216,31.1769398309366,2022-05-12
"浦东新区","上海市浦东新区张江镇劳动村吴家宅北",121.639015941975,31.18527126574,2022-05-12
"浦东新区","上海市浦东新区张江镇钱堂村立达宅",121.599518706329,31.1638817454656,2022-05-12
"浦东新区","上海市浦东新区张江镇中心村蔡家圈宅",121.646543023504,31.1777788924112,2022-05-12
"浦东新区","上海市浦东新区张杨路2850弄",121.571071796253,31.2512593727276,2022-05-12
"浦东新区","上海市浦东新区招远路19弄",121.521229943845,31.2416451169276,2022-05-12
"浦东新区","上海市浦东新区振兴东路12弄",121.50271020796,31.1683855859142,2022-05-12
"浦东新区","上海市浦东新区周东路902弄",121.590947883627,31.1338930928999,2022-05-12
"浦东新区","上海市浦东新区周泰北路韵涛路交界口工地生活区",121.608663636081,31.109520206494,2022-05-12
"浦东新区","上海市浦东新区祝桥镇先进村",121.81000857546,31.1038277654838,2022-05-12
"浦东新区","上海市浦东新区邹平路191号工地生活区",121.521600584699,31.1763068548283,2022-05-12
"黄浦区","上海市黄浦区半淞园路650号",121.501021393601,31.2042314632707,2022-05-12
"黄浦区","上海市黄浦区保屯路211弄",121.498305816045,31.209535149529,2022-05-12
"黄浦区","上海市黄浦区北海路267弄",121.484519341722,31.2360802599392,2022-05-12
"黄浦区","上海市黄浦区北京东路159号",121.493609385008,31.2463346261983,2022-05-12
"黄浦区","上海市黄浦区北京东路288弄",121.490646324283,31.2464802699138,2022-05-12
"黄浦区","上海市黄浦区北京东路492号",121.487254682,31.2455657285888,2022-05-12
"黄浦区","上海市黄浦区曹市弄57弄",121.495654826654,31.2249117246057,2022-05-12
"黄浦区","上海市黄浦区长乐路67号",121.475197355953,31.2281160274409,2022-05-12
"黄浦区","上海市黄浦区成都南路122号",121.47429527756,31.2274234064559,2022-05-12
"黄浦区","上海市黄浦区重庆北路177弄",121.476319968349,31.2325548713123,2022-05-12
"黄浦区","上海市黄浦区重庆南路177号",121.477809987698,31.2220698569214,2022-05-12
"黄浦区","上海市黄浦区打浦路316弄",121.477142906027,31.2052986798579,2022-05-12
"黄浦区","上海市黄浦区打浦路339弄",121.478552257541,31.2052967494431,2022-05-12
"黄浦区","上海市黄浦区打浦路470弄",121.479363247756,31.2030630784288,2022-05-12
"黄浦区","上海市黄浦区打浦路480弄",121.479416966425,31.2027578334607,2022-05-12
"黄浦区","上海市黄浦区打浦路90弄",121.477225280642,31.2085608695874,2022-05-12
"黄浦区","上海市黄浦区大沽路151号",121.47784448263,31.2321925986478,2022-05-12
"黄浦区","上海市黄浦区大吉路320号",121.488214611268,31.2188451964595,2022-05-12
"黄浦区","上海市黄浦区淡水路190号",121.479658790268,31.223670410874,2022-05-12
"黄浦区","上海市黄浦区淡水路214弄",121.479010483182,31.2233875443681,2022-05-12
"黄浦区","上海市黄浦区淡水路216号",121.479799015758,31.2233480943044,2022-05-12
"黄浦区","上海市黄浦区方斜路401弄",121.490010862965,31.2204078211292,2022-05-12
"黄浦区","上海市黄浦区方斜路556弄",121.48243060175,31.208481416449,2022-05-12
"黄浦区","上海市黄浦区凤阳路428号",121.475019760954,31.2393771924622,2022-05-12
"黄浦区","上海市黄浦区福建中路195弄",121.488057048481,31.2395095706142,2022-05-12
"黄浦区","上海市黄浦区福州路105号",121.494982804302,31.2408287105927,2022-05-12
"黄浦区","上海市黄浦区福州路384弄",121.489639054315,31.2400334466292,2022-05-12
"黄浦区","上海市黄浦区福州路614弄",121.485855032185,31.2389698679587,2022-05-12
"黄浦区","上海市黄浦区复兴东路318号",121.505017505662,31.2264030703717,2022-05-12
"黄浦区","上海市黄浦区复兴东路354号",121.504317815501,31.2266762006947,2022-05-12
"黄浦区","上海市黄浦区复兴东路673号",121.497880827708,31.2278543266236,2022-05-12
"黄浦区","上海市黄浦区复兴中路480弄",121.479297671453,31.2216158263835,2022-05-12
"黄浦区","上海市黄浦区广东路564号",121.4872417464,31.2377491188424,2022-05-12
"黄浦区","上海市黄浦区汉口路429弄",121.488844952244,31.2405803215844,2022-05-12
"黄浦区","上海市黄浦区河南南路555弄",121.497580883498,31.2262373235718,2022-05-12
"黄浦区","上海市黄浦区河南南路790弄",121.498540094122,31.2220411374899,2022-05-12
"黄浦区","上海市黄浦区虎丘路9号",121.493900705485,31.2467531872564,2022-05-12
"黄浦区","上海市黄浦区淮海中路833弄",121.468989885218,31.224196151208,2022-05-12
"黄浦区","上海市黄浦区黄陂南路847弄",121.485153365751,31.2169059306181,2022-05-12
"黄浦区","上海市黄浦区黄河路155号",121.476900453369,31.241064826195,2022-05-12
"黄浦区","上海市黄浦区黄河路215弄",121.434456955312,31.2533728868238,2022-05-12
"黄浦区","上海市黄浦区黄河路253弄",121.475294193287,31.242852770827,2022-05-12
"黄浦区","上海市黄浦区黄家路88弄",121.50359063719,31.2212345193213,2022-05-12
"黄浦区","上海市黄浦区黄家阙路68弄",121.493950022457,31.2207148614576,2022-05-12
"黄浦区","上海市黄浦区建国东路143弄",121.485327098036,31.2182331870898,2022-05-12
"黄浦区","上海市黄浦区建国西路91弄",121.478096367495,31.2181663267346,2022-05-12
"黄浦区","上海市黄浦区江滨路99号",121.479935019213,31.197853855228,2022-05-12
"黄浦区","上海市黄浦区江西中路34弄",121.494850663561,31.2384770932491,2022-05-12
"黄浦区","上海市黄浦区江西中路391号",121.492135714819,31.2460941244735,2022-05-12
"黄浦区","上海市黄浦区江西中路451号",121.491606253551,31.2473839196508,2022-05-12
"黄浦区","上海市黄浦区江西中路52号",121.494730380454,31.2384983974726,2022-05-12
"黄浦区","上海市黄浦区江西中路58号",121.494675134665,31.2386640453634,2022-05-12
"黄浦区","上海市黄浦区江阴路88弄",121.475551737477,31.2358600331803,2022-05-12
"黄浦区","上海市黄浦区金陵东路79号",121.496879127234,31.2367865567722,2022-05-12
"黄浦区","上海市黄浦区静修路114弄",121.493029798293,31.2257417798045,2022-05-12
"黄浦区","上海市黄浦区局门后路5号",121.487081219206,31.2152536858102,2022-05-12
"黄浦区","上海市黄浦区局门后路77号",121.487152544663,31.2143576782424,2022-05-12
"黄浦区","上海市黄浦区局门路295弄",121.489189093085,31.2109224269886,2022-05-12
"黄浦区","上海市黄浦区局门路434弄",121.487727639851,31.2084105340004,2022-05-12
"黄浦区","上海市黄浦区丽园路333弄",121.490709205669,31.215059429318,2022-05-12
"黄浦区","上海市黄浦区丽园路488弄",121.489286020249,31.2131418583115,2022-05-12
"黄浦区","上海市黄浦区龙华东路888弄",121.477730128338,31.1990606070333,2022-05-12
"黄浦区","上海市黄浦区鲁班路509弄",121.483254078411,31.2067494139374,2022-05-12
"黄浦区","上海市黄浦区鲁班路788号",121.48562596428,31.1980821253352,2022-05-12
"黄浦区","上海市黄浦区陆家浜路413弄",121.505863709453,31.2173034687199,2022-05-12
"黄浦区","上海市黄浦区马当路278弄",121.480389561801,31.2236803698593,2022-05-12
"黄浦区","上海市黄浦区马当路306弄",121.480125639642,31.2230886190092,2022-05-12
"黄浦区","上海市黄浦区马当路318弄",121.481149977415,31.2230443050963,2022-05-12
"黄浦区","上海市黄浦区马园街1号",121.501071968201,31.2319738294342,2022-05-12
"黄浦区","上海市黄浦区茂名南路151号",121.468601547746,31.2228520720258,2022-05-12
"黄浦区","上海市黄浦区南车站路192弄",121.4977067361,31.2149374397409,2022-05-12
"黄浦区","上海市黄浦区南车站路1号",121.496712671223,31.2175159412956,2022-05-12
"黄浦区","上海市黄浦区南车站路450弄",121.50015381014,31.2106206821849,2022-05-12
"黄浦区","上海市黄浦区南塘浜路125弄",121.479334322318,31.2095512098521,2022-05-12
"黄浦区","上海市黄浦区宁波路51号",121.492500786178,31.2452096038235,2022-05-12
"黄浦区","上海市黄浦区宁波路540号",121.483899960073,31.2428860378203,2022-05-12
"黄浦区","上海市黄浦区宁波路567号",121.483349837778,31.2425525183101,2022-05-12
"黄浦区","上海市黄浦区宁海东路266弄",121.487052203938,31.2341356389635,2022-05-12
"黄浦区","上海市黄浦区牌楼路27号",121.492878613475,31.2198356595601,2022-05-12
"黄浦区","上海市黄浦区蓬莱路405弄",121.493879146152,31.2220148113367,2022-05-12
"黄浦区","上海市黄浦区普育东路101弄",121.502876214818,31.2152174750717,2022-05-12
"黄浦区","上海市黄浦区普育东路200弄",121.502308755228,31.2136236482467,2022-05-12
"黄浦区","上海市黄浦区普育东路7号",121.502789438506,31.2170727748396,2022-05-12
"黄浦区","上海市黄浦区瞿溪路1145弄",121.479453976612,31.2046405605389,2022-05-12
"黄浦区","上海市黄浦区瞿溪路116号",121.50155103453,31.212322886943,2022-05-12
"黄浦区","上海市黄浦区瞿溪路1200弄",121.477917514868,31.2023023965439,2022-05-12
"黄浦区","上海市黄浦区瞿溪路120弄",121.50172216173,31.2120859266995,2022-05-12
"黄浦区","上海市黄浦区瞿溪路129号",121.500388267878,31.2118219419358,2022-05-12
"黄浦区","上海市黄浦区瞿溪路301弄",121.498335460126,31.2103753786943,2022-05-12
"黄浦区","上海市黄浦区瞿溪路57号",121.5027379656,31.2129256697143,2022-05-12
"黄浦区","上海市黄浦区瞿溪路883弄",121.485768974517,31.2063427195683,2022-05-12
"黄浦区","上海市黄浦区瞿溪路884号",121.485726125344,31.2059786466917,2022-05-12
"黄浦区","上海市黄浦区瞿溪路904弄",121.485646894798,31.2058076130278,2022-05-12
"黄浦区","上海市黄浦区瞿溪路926弄",121.484734485891,31.205434117661,2022-05-12
"黄浦区","上海市黄浦区瞿溪路937弄",121.484684090952,31.2063509816511,2022-05-12
"黄浦区","上海市黄浦区瞿溪路968弄",121.484509819683,31.2049135227091,2022-05-12
"黄浦区","上海市黄浦区汝南街70弄",121.491384012768,31.2081913231254,2022-05-12
"黄浦区","上海市黄浦区汝南街84号",121.490234810529,31.2083047507258,2022-05-12
"黄浦区","上海市黄浦区厦门路48号",121.484048270312,31.2461428268945,2022-05-12
"黄浦区","上海市黄浦区山西南路31弄",121.489857791706,31.240518262823,2022-05-12
"黄浦区","上海市黄浦区陕西南路271弄",121.469344985386,31.2142398570488,2022-05-12
"黄浦区","上海市黄浦区尚文路133弄",121.497992576913,31.2215084367606,2022-05-12
"黄浦区","上海市黄浦区顺昌路485号",121.485956540707,31.2189808462851,2022-05-12
"黄浦区","上海市黄浦区顺昌路487号",121.48604996448,31.2190202209843,2022-05-12
"黄浦区","上海市黄浦区四牌楼路146号",121.502045821205,31.2287249614952,2022-05-12
"黄浦区","上海市黄浦区四牌楼路95弄",121.502076049185,31.2295805349371,2022-05-12
"黄浦区","上海市黄浦区泗泾路29号",121.493204698376,31.2389392239931,2022-05-12
"黄浦区","上海市黄浦区天津路170弄",121.489594408531,31.2445117064947,2022-05-12
"黄浦区","上海市黄浦区威海路172弄",121.474520482751,31.2338576672535,2022-05-12
"黄浦区","上海市黄浦区五里桥路210弄",121.487184254848,31.2096193117683,2022-05-12
"黄浦区","上海市黄浦区五里桥路252号",121.48682762756,31.2094170134143,2022-05-12
"黄浦区","上海市黄浦区五里桥路254号",121.48667599359,31.2093665931839,2022-05-12
"黄浦区","上海市黄浦区五里桥路269弄",121.48593902375,31.2095841026205,2022-05-12
"黄浦区","上海市黄浦区西仓桥街161弄",121.495304756997,31.2257539001616,2022-05-12
"黄浦区","上海市黄浦区西藏南路1090弄",121.492658798117,31.2169561151676,2022-05-12
"黄浦区","上海市黄浦区西藏南路1341弄",121.494635788883,31.2116118499907,2022-05-12
"黄浦区","上海市黄浦区西藏南路1374弄",121.493515512082,31.2116939256578,2022-05-12
"黄浦区","上海市黄浦区西藏南路1383弄",121.49478679404,31.2111731338686,2022-05-12
"黄浦区","上海市黄浦区西藏南路779号",121.491915989291,31.221382595421,2022-05-12
"黄浦区","上海市黄浦区西藏中路500号",121.481302150368,31.2422357470006,2022-05-12
"黄浦区","上海市黄浦区西凌家宅路111弄",121.493016593202,31.2103186275591,2022-05-12
"黄浦区","上海市黄浦区西凌家宅路137弄",121.491804150255,31.2098911012353,2022-05-12
"黄浦区","上海市黄浦区西凌家宅路27弄",121.493752125753,31.2105657842924,2022-05-12
"黄浦区","上海市黄浦区先棉祠街32弄",121.497948290452,31.2227690025125,2022-05-12
"黄浦区","上海市黄浦区斜土东路265弄",121.493419752715,31.2132894839525,2022-05-12
"黄浦区","上海市黄浦区斜土东路68弄",121.497270968097,31.2140800338297,2022-05-12
"黄浦区","上海市黄浦区斜土路118弄",121.489370999951,31.2115998822251,2022-05-12
"黄浦区","上海市黄浦区斜土路195弄",121.488632592821,31.2120941882756,2022-05-12
"黄浦区","上海市黄浦区斜土路22号",121.490573112384,31.2122516213479,2022-05-12
"黄浦区","上海市黄浦区斜土路338号",121.485982861059,31.210533509567,2022-05-12
"黄浦区","上海市黄浦区斜土路352号",121.485722891444,31.2104135988271,2022-05-12
"黄浦区","上海市黄浦区斜土路468号",121.483949277045,31.2093538529989,2022-05-12
"黄浦区","上海市黄浦区斜土路74号",121.490132403701,31.2121128733328,2022-05-12
"黄浦区","上海市黄浦区斜土路80弄",121.490479149628,31.2107099394492,2022-05-12
"黄浦区","上海市黄浦区新昌路290号",121.474852316807,31.2419182027543,2022-05-12
"黄浦区","上海市黄浦区新昌路300弄",121.474735716751,31.2421443585871,2022-05-12
"黄浦区","上海市黄浦区新昌路310弄",121.474665109938,31.2421756961782,2022-05-12
"黄浦区","上海市黄浦区新闸路168号",121.476716554379,31.2444602699924,2022-05-12
"黄浦区","上海市黄浦区学院路125号",121.501312444586,31.228927681309,2022-05-12
"黄浦区","上海市黄浦区学院路135号",121.501351071723,31.2294103163563,2022-05-12
"黄浦区","上海市黄浦区学院路72号",121.50245104682,31.228808102919,2022-05-12
"黄浦区","上海市黄浦区延安东路151号",121.492512733641,31.2365469567831,2022-05-12
"黄浦区","上海市黄浦区延安东路158弄",121.495577662211,31.2381332918125,2022-05-12
"黄浦区","上海市黄浦区延安东路272弄",121.493792729162,31.2371421732794,2022-05-12
"黄浦区","上海市黄浦区肇嘉浜路168弄",121.47033518755,31.2099309430341,2022-05-12
"黄浦区","上海市黄浦区制造局路361号",121.491774236681,31.2121371175751,2022-05-12
"黄浦区","上海市黄浦区制造局路455弄",121.491010407506,31.210925129407,2022-05-12
"黄浦区","上海市黄浦区制造局路567弄",121.491828673995,31.2093086060248,2022-05-12
"黄浦区","上海市黄浦区中华路367号",121.505105719263,31.2251215551029,2022-05-12
"黄浦区","上海市黄浦区中华路868弄",121.505121170118,31.2290036432281,2022-05-12
"黄浦区","上海市黄浦区中山南路1586弄",121.501523995534,31.2111320572099,2022-05-12
"黄浦区","上海市黄浦区中山南路1671号",121.501166559772,31.2101342440417,2022-05-12
"黄浦区","上海市黄浦区中山南路1726弄",121.49944953862,31.2099897019351,2022-05-12
"黄浦区","上海市黄浦区中山南路969号",121.512016653043,31.2173782819747,2022-05-12
"黄浦区","上海市黄浦区中山南一路1026号",121.478534381262,31.2012382346141,2022-05-12
"黄浦区","上海市黄浦区中山南一路1050号",121.477016604272,31.2005477313777,2022-05-12
"黄浦区","上海市黄浦区中山南一路1109弄",121.476887877092,31.2014854153116,2022-05-12
"黄浦区","上海市黄浦区中山南一路247弄",121.492960718599,31.2063049610685,2022-05-12
"静安区","上海市静安区保德路1238弄",121.451566441377,31.3253617830307,2022-05-12
"静安区","上海市静安区保德路241弄",121.469495810881,31.3235062419465,2022-05-12
"静安区","上海市静安区昌平路399号",121.454372388468,31.2421660479062,2022-05-12
"静安区","上海市静安区长临路200弄",121.44093562448,31.3200767753684,2022-05-12
"静安区","上海市静安区场中路2600弄",121.448262024559,31.3102327367817,2022-05-12
"静安区","上海市静安区场中路2800弄",121.447194029138,31.3104721478353,2022-05-12
"静安区","上海市静安区场中路2965弄",121.444069902235,31.3111289053508,2022-05-12
"静安区","上海市静安区场中路3278弄",121.440122478333,31.3099689519841,2022-05-12
"静安区","上海市静安区场中路3332弄",121.437450378763,31.309717044519,2022-05-12
"静安区","上海市静安区场中路3428弄",121.432992717331,31.3091743536206,2022-05-12
"静安区","上海市静安区高平路860弄",121.434458482431,31.2983149356945,2022-05-12
"静安区","上海市静安区共和新路1725弄",121.464347532173,31.2772026243291,2022-05-12
"静安区","上海市静安区共和新路3616弄",121.454428981715,31.3089819120165,2022-05-12
"静安区","上海市静安区共和新路619弄",121.471503433865,31.2604662579375,2022-05-12
"静安区","上海市静安区海防路338弄",121.453221030296,31.2450848749331,2022-05-12
"静安区","上海市静安区汉中路28弄",121.453431772769,31.2338449304017,2022-05-12
"静安区","上海市静安区汉中路48号",121.466014068555,31.2495362657734,2022-05-12
"静安区","上海市静安区汉中路78弄",121.465700020949,31.2493749592327,2022-05-12
"静安区","上海市静安区恒丰北路100号",121.458020137652,31.2616913406822,2022-05-12
"静安区","上海市静安区恒丰路710号",121.457618235767,31.2556822235495,2022-05-12
"静安区","上海市静安区沪太路549号",121.457410906856,31.2632729276941,2022-05-12
"静安区","上海市静安区沪太路631弄",121.456626326823,31.2673061427831,2022-05-12
"静安区","上海市静安区沪太路651弄",121.455284797375,31.2674438057978,2022-05-12
"静安区","上海市静安区华康路69弄",121.465006529095,31.250811966884,2022-05-12
"静安区","上海市静安区黄山路300号",121.474324113167,31.2720333313813,2022-05-12
"静安区","上海市静安区江杨南路466弄",121.474431550506,31.3227213988794,2022-05-12
"静安区","上海市静安区江杨南路550号",121.474068205455,31.324509611355,2022-05-12
"静安区","上海市静安区胶州路190弄",121.450317437396,31.2339421935898,2022-05-12
"静安区","上海市静安区临汾路1320弄",121.445242640078,31.3175857848379,2022-05-12
"静安区","上海市静安区临汾路99弄",121.455802041687,31.316900845253,2022-05-12
"静安区","上海市静安区岭南路50弄",121.461416451125,31.3122224368465,2022-05-12
"静安区","上海市静安区柳营路319弄",121.469876782248,31.273721070047,2022-05-12
"静安区","上海市静安区洛川东路60号",121.472014839192,31.2781731031658,2022-05-12
"静安区","上海市静安区洛川中路980号",121.456510355582,31.2709882499174,2022-05-12
"静安区","上海市静安区毛家弄79号",121.459310942783,31.2635447928215,2022-05-12
"静安区","上海市静安区茂名北路118弄",121.486697642753,31.2378334100933,2022-05-12
"静安区","上海市静安区秣陵路228号",121.461218015437,31.2532508700192,2022-05-12
"静安区","上海市静安区彭浦新村257号",121.460560186312,31.3129165889935,2022-05-12
"静安区","上海市静安区彭浦新村316号",121.459365080662,31.3150138997542,2022-05-12
"静安区","上海市静安区平顺路373弄",121.457856017236,31.3198931481642,2022-05-12
"静安区","上海市静安区平顺路550弄",121.459669426569,31.3209626693612,2022-05-12
"静安区","上海市静安区平顺路790弄",121.459392299319,31.3237597316582,2022-05-12
"静安区","上海市静安区平型关路121弄",121.458320620845,31.2660382291011,2022-05-12
"静安区","上海市静安区平型关路1545弄",121.491514087406,31.2720440568319,2022-05-12
"静安区","上海市静安区普善路铁路新村30号",121.461334435831,31.2621839930517,2022-05-12
"静安区","上海市静安区虬江路1258弄",121.475599168008,31.2560116059654,2022-05-12
"静安区","上海市静安区虬江路1431弄",121.472424825827,31.256164334672,2022-05-12
"静安区","上海市静安区虬江路860号",121.482661915419,31.2580122627884,2022-05-12
"静安区","上海市静安区陕西北路159弄",121.461836678442,31.232603966754,2022-05-12
"静安区","上海市静安区陕西北路640弄",121.457804454499,31.2397935462044,2022-05-12
"静安区","上海市静安区少年村路479弄",121.439835918875,31.3065706120593,2022-05-12
"静安区","上海市静安区谈家桥路163弄",121.456271855469,31.2669146046022,2022-05-12
"静安区","上海市静安区谈家桥路85弄",121.459246234843,31.2665920512221,2022-05-12
"静安区","上海市静安区万航渡路269弄",121.445596392788,31.2325154251132,2022-05-12
"静安区","上海市静安区闻喜路806弄",121.455669990777,31.3156538890632,2022-05-12
"静安区","上海市静安区武定路458号",121.457801040939,31.2408248512284,2022-05-12
"静安区","上海市静安区武定西路1191弄",121.441805094383,31.2327102629288,2022-05-12
"静安区","上海市静安区西宝兴路922弄",121.474453738652,31.275670037316,2022-05-12
"静安区","上海市静安区西藏北路1071弄",121.472543042832,31.2668462357251,2022-05-12
"静安区","上海市静安区西藏北路867号",121.474017341835,31.2626628295277,2022-05-12
"静安区","上海市静安区西康路520号",121.454138829035,31.2404447802563,2022-05-12
"静安区","上海市静安区西康路894弄",121.449851127006,31.2451118120652,2022-05-12
"静安区","上海市静安区延安西路433号",121.444699344906,31.2235376243019,2022-05-12
"静安区","上海市静安区阳曲路391弄",121.466192472029,31.3186173108632,2022-05-12
"静安区","上海市静安区永兴路888弄",121.466957648663,31.2575171188755,2022-05-12
"静安区","上海市静安区永兴路973弄",121.466076051635,31.2578379285958,2022-05-12
"静安区","上海市静安区余姚路298弄",121.444637451656,31.2421807132792,2022-05-12
"静安区","上海市静安区芷江西路192号",121.470417651996,31.2637746775902,2022-05-12
"静安区","上海市静安区芷江中路495弄",121.475065933857,31.2651332935135,2022-05-12
"静安区","上海市静安区芷江中路680号",121.474511409866,31.2639051691626,2022-05-12
"静安区","上海市静安区芷江中路684号",121.474394899641,31.263851382889,2022-05-12
"静安区","上海市静安区中华新路455弄",121.4744274183,31.2614964089054,2022-05-12
"静安区","上海市静安区中华新路618号",121.468492403627,31.2596463116963,2022-05-12
"静安区","上海市静安区中华新路893弄",121.46198462936,31.2612283963409,2022-05-12
"静安区","上海市静安区中华新路927弄",121.462123956544,31.2609528974531,2022-05-12
"静安区","上海市静安区中华新路939弄",121.461998014112,31.2618919826249,2022-05-12
"静安区","上海市静安区中山北路255弄",121.47551796119,31.2703848381367,2022-05-12
"静安区","上海市静安区中山北路899弄",121.462151804015,31.2686750473735,2022-05-12
"静安区","上海市静安区中兴路1340弄",121.46757667099,31.2582863812331,2022-05-12
"静安区","上海市静安区中兴路1385弄",121.467360628515,31.2589000578996,2022-05-12
"徐汇区","上海市徐汇区漕溪北路850号",121.442559760842,31.1900870890813,2022-05-12
"徐汇区","上海市徐汇区东安二村",121.45997781485,31.1928310771145,2022-05-12
"徐汇区","上海市徐汇区东安四村",121.456663067518,31.1926611778501,2022-05-12
"徐汇区","上海市徐汇区东安五村",121.459093516133,31.1907246652838,2022-05-12
"徐汇区","上海市徐汇区丰谷路205弄",121.462727168694,31.176347328833,2022-05-12
"徐汇区","上海市徐汇区丰谷路220弄",121.459726379138,31.1743844739643,2022-05-12
"徐汇区","上海市徐汇区丰谷路235号",121.461028293314,31.1745246682115,2022-05-12
"徐汇区","上海市徐汇区复兴中路1199号",121.465194903761,31.2188976189254,2022-05-12
"徐汇区","上海市徐汇区机场新村",121.458088049549,31.1737422039756,2022-05-12
"徐汇区","上海市徐汇区凯旋路2120弄",121.431069624895,31.1974435699734,2022-05-12
"徐汇区","上海市徐汇区凯旋路3021号",121.436907712404,31.1900500190917,2022-05-12
"徐汇区","上海市徐汇区乐山路30弄",121.437513978793,31.201963172593,2022-05-12
"徐汇区","上海市徐汇区龙漕路58弄",121.442918813555,31.1740632236563,2022-05-12
"徐汇区","上海市徐汇区龙吴路1717弄",121.45670573703,31.1382707196565,2022-05-12
"徐汇区","上海市徐汇区龙吴路2888弄",121.461576798658,31.1154641931161,2022-05-12
"徐汇区","上海市徐汇区罗城路700弄",121.44135127044,31.1554791949428,2022-05-12
"徐汇区","上海市徐汇区钦州路777号",121.434358141706,31.1835325008748,2022-05-12
"徐汇区","上海市徐汇区日晖六村",121.466221038145,31.2012329836581,2022-05-12
"徐汇区","上海市徐汇区陕西南路550弄",121.468132183117,31.2140749380125,2022-05-12
"徐汇区","上海市徐汇区天钥桥路901号",121.451080008943,31.1877838564435,2022-05-12
"徐汇区","上海市徐汇区田林二村",121.426561838015,31.1763800015378,2022-05-12
"徐汇区","上海市徐汇区宛南华侨新村",121.456842369298,31.1870543293163,2022-05-12
"徐汇区","上海市徐汇区五原路212弄",121.4517658652,31.2189870999149,2022-05-12
"徐汇区","上海市徐汇区斜土路1111弄",121.47257358522,31.2066779896697,2022-05-12
"徐汇区","上海市徐汇区斜土路1969号",121.45804097834,31.2007268827847,2022-05-12
"徐汇区","上海市徐汇区中山南二路918弄",121.455883428166,31.1918518353076,2022-05-12
"长宁区","上海市长宁区北虹路1000弄",121.383342922641,31.2196598645125,2022-05-12
"长宁区","上海市长宁区长宁路378号",121.433287092046,31.2304160296303,2022-05-12
"长宁区","上海市长宁区长宁路491弄住宅",121.43327298865,31.2287608582192,2022-05-12
"长宁区","上海市长宁区长宁支路133弄",121.432201400007,31.2337603267843,2022-05-12
"长宁区","上海市长宁区程家桥路80弄住宅",121.378344481292,31.1946983269584,2022-05-12
"长宁区","上海市长宁区定西路380弄",121.429294213885,31.2083386477151,2022-05-12
"长宁区","上海市长宁区定西路439弄",121.429174918913,31.2090782012989,2022-05-12
"长宁区","上海市长宁区定西路710弄",121.432318898368,31.2134388079781,2022-05-12
"长宁区","上海市长宁区芙蓉江路555弄",121.403219010016,31.2235492045338,2022-05-12
"长宁区","上海市长宁区福泉路255弄",121.365261290353,31.2187026751446,2022-05-12
"长宁区","上海市长宁区虹桥路2328弄",121.376819607689,31.1953314952944,2022-05-12
"长宁区","上海市长宁区娄山关路810弄",121.412385409271,31.2189935079549,2022-05-12
"长宁区","上海市长宁区茅台路597弄",121.39652870007,31.2147766912073,2022-05-12
"长宁区","上海市长宁区水城南路16弄",121.401753873729,31.1981140182389,2022-05-12
"长宁区","上海市长宁区淞虹路685弄",121.367611347398,31.2187369543972,2022-05-12
"长宁区","上海市长宁区宋园路58号",121.420077779014,31.1977970192827,2022-05-12
"长宁区","上海市长宁区天山二村",121.413333211414,31.2137112812456,2022-05-12
"长宁区","上海市长宁区万航渡路1424弄",121.427913877638,31.2312131508476,2022-05-12
"长宁区","上海市长宁区万航渡路2088弄",121.419130336192,31.2283294790406,2022-05-12
"长宁区","上海市长宁区武夷路491弄",121.426540997327,31.2208246453085,2022-05-12
"长宁区","上海市长宁区仙霞路1225弄",121.381503103126,31.2137956713601,2022-05-12
"长宁区","上海市长宁区仙霞路88号",121.410852989901,31.2114975770699,2022-05-12
"长宁区","上海市长宁区仙霞西路700弄住宅",121.36356681667,31.2153133678709,2022-05-12
"长宁区","上海市长宁区新泾三村",121.376731843241,31.2209606010803,2022-05-12
"长宁区","上海市长宁区延安西路1428号",121.429875597211,31.2153863297175,2022-05-12
"长宁区","上海市长宁区延安西路2055弄",121.41559541418,31.2108927003815,2022-05-12
"长宁区","上海市长宁区愚园路1355弄住宅",121.430261060105,31.2249599748536,2022-05-12
"长宁区","上海市长宁区玉屏南路345弄",121.413765565856,31.2186175946029,2022-05-12
"长宁区","上海市长宁区中山西路1410弄",121.422651693791,31.2016505881789,2022-05-12
"长宁区","上海市长宁区遵义路435弄",121.414168455877,31.2174729372558,2022-05-12
"长宁区","上海市长宁区遵义路800弄住宅",121.416564955317,31.2217256091776,2022-05-12
"普陀区","上海市普陀区昌化路994弄",121.451138488632,31.2523540686302,2022-05-12
"普陀区","上海市普陀区古浪路518弄",121.391778460533,31.2919610224617,2022-05-12
"普陀区","上海市普陀区黄陵路151弄",121.432570154419,31.267895916256,2022-05-12
"普陀区","上海市普陀区礼泉路689弄",121.414986722366,31.2597563585462,2022-05-12
"普陀区","上海市普陀区平利路21弄",121.436136786615,31.2760292095137,2022-05-12
"普陀区","上海市普陀区石岚新村",121.429422761403,31.2559956307906,2022-05-12
"普陀区","上海市普陀区水泉路99弄",121.408260839521,31.2727522424906,2022-05-12
"普陀区","上海市普陀区普陀一村",121.428633510182,31.2421393414841,2022-05-12
"普陀区","上海市普陀区新村路350弄",121.438774750576,31.2718808600946,2022-05-12
"普陀区","上海市普陀区延长西路220弄",121.4448222331,31.2706418673398,2022-05-12
"普陀区","上海市普陀区宜川三村",121.447419503821,31.263551892326,2022-05-12
"普陀区","上海市普陀区真光路962弄",121.38837388265,31.2473933358388,2022-05-12
"普陀区","上海市普陀区真如西村",121.40580693836,31.252311620847,2022-05-12
"普陀区","上海市普陀区中联路1号",121.353969230771,31.2811100171518,2022-05-12
"普陀区","上海市普陀区中山北路3904弄",121.417999728877,31.2324231008719,2022-05-12
"虹口区","上海市虹口区保宁路71弄",121.502083011053,31.2959918416394,2022-05-12
"虹口区","上海市虹口区北苏州路370弄",121.521023962392,31.2314738387359,2022-05-12
"虹口区","上海市虹口区场中路239弄",121.486527413859,31.3136637994419,2022-05-12
"虹口区","上海市虹口区场中路633号",121.479380854544,31.3129169746322,2022-05-12
"虹口区","上海市虹口区场中路688号",121.474330041983,31.3121588831028,2022-05-12
"虹口区","上海市虹口区赤峰路327号",121.499971813443,31.2876893259372,2022-05-12
"虹口区","上海市虹口区大连西路155弄",121.513828894579,31.2689979793825,2022-05-12
"虹口区","上海市虹口区东宝兴路835弄",121.480857668802,31.2694772439217,2022-05-12
"虹口区","上海市虹口区东汉阳路490号",121.504580030879,31.2581328842639,2022-05-12
"虹口区","上海市虹口区东体育会路100弄",121.491580831505,31.2837207184132,2022-05-12
"虹口区","上海市虹口区东体育会路87号",121.488013929817,31.2797404460845,2022-05-12
"虹口区","上海市虹口区东体育会路880弄",121.494587280386,31.2904718024595,2022-05-12
"虹口区","上海市虹口区东余杭路1168弄",121.532117226965,31.2736378142348,2022-05-12
"虹口区","上海市虹口区峨嵋路299弄",121.497273752844,31.2554254618968,2022-05-12
"虹口区","上海市虹口区广中二村",121.485361233646,31.284664435241,2022-05-12
"虹口区","上海市虹口区海宁路570弄",121.489162413411,31.2542914421217,2022-05-12
"虹口区","上海市虹口区恒业路388弄",121.479535363091,31.2713869470974,2022-05-12
"虹口区","上海市虹口区横浜路323号",121.483015129145,31.2719355676851,2022-05-12
"虹口区","上海市虹口区横浜路63弄",121.51883706994,31.2828117282051,2022-05-12
"虹口区","上海市虹口区虹湾路313弄",121.476694022763,31.3190298409555,2022-05-12
"虹口区","上海市虹口区虹湾路55弄",121.482461323798,31.3184094641073,2022-05-12
"虹口区","上海市虹口区虹镇老街207号",121.509531041697,31.2716046981579,2022-05-12
"虹口区","上海市虹口区花园路168弄",121.480377793999,31.2775736728029,2022-05-12
"虹口区","上海市虹口区江杨南路55弄",121.474722242169,31.3142339213067,2022-05-12
"虹口区","上海市虹口区蒋家桥路10号",121.503858961046,31.2782340567394,2022-05-12
"虹口区","上海市虹口区蒋家桥路12号",121.503603752451,31.278346705011,2022-05-12
"虹口区","上海市虹口区奎照路33号",121.490320598705,31.3064110237937,2022-05-12
"虹口区","上海市虹口区凉城路585弄",121.477458840074,31.2990889532587,2022-05-12
"虹口区","上海市虹口区欧阳路196号",121.495047033146,31.2724131967687,2022-05-12
"虹口区","上海市虹口区青云路167弄",121.481787325174,31.2711303057557,2022-05-12
"虹口区","上海市虹口区三门路759弄",121.485380547214,31.3172848470204,2022-05-12
"虹口区","上海市虹口区山阴路133弄",121.491399643284,31.2718487608447,2022-05-12
"虹口区","上海市虹口区山阴路229弄",121.492039665092,31.2732216305036,2022-05-12
"虹口区","上海市虹口区山阴路69弄",121.493980834336,31.270746114047,2022-05-12
"虹口区","上海市虹口区商业二村",121.487104844641,31.2901004966522,2022-05-12
"虹口区","上海市虹口区四川北路1156弄",121.528933811899,31.2359721921938,2022-05-12
"虹口区","上海市虹口区四川北路1545弄",121.488676879283,31.2614879973508,2022-05-12
"虹口区","上海市虹口区四川北路1661号",121.489396871149,31.2629566124331,2022-05-12
"虹口区","上海市虹口区四川北路1774弄",121.490027122295,31.2654067737352,2022-05-12
"虹口区","上海市虹口区四川北路1906弄",121.491894250298,31.2679382026318,2022-05-12
"虹口区","上海市虹口区四川北路1953弄",121.488481048682,31.2689843985128,2022-05-12
"虹口区","上海市虹口区四川北路1999弄",121.490374317375,31.2694836485029,2022-05-12
"虹口区","上海市虹口区四平路52弄",121.495263524774,31.2630122512771,2022-05-12
"虹口区","上海市虹口区四平路621弄",121.500505496747,31.2777983535493,2022-05-12
"虹口区","上海市虹口区唐山路708弄",121.513964628542,31.2628658616263,2022-05-12
"虹口区","上海市虹口区天宝西路241弄",121.500371649226,31.2800150408682,2022-05-12
"虹口区","上海市虹口区吴家湾路52弄",121.492271897934,31.2981787067046,2022-05-12
"虹口区","上海市虹口区武进路236号",121.492648287943,31.2582490295554,2022-05-12
"虹口区","上海市虹口区新港路143号",121.508819853225,31.2740850336485,2022-05-12
"虹口区","上海市虹口区新嘉路1弄",121.511586454535,31.2697466989314,2022-05-12
"虹口区","上海市虹口区新市北路1508弄",121.487582743172,31.3119086012521,2022-05-12
"虹口区","上海市虹口区新市南路1141弄",121.487593702499,31.303893905097,2022-05-12
"虹口区","上海市虹口区新市南路1145弄",121.487905145019,31.3041639550062,2022-05-12
"虹口区","上海市虹口区新市南路1225弄",121.487994706079,31.3066168918339,2022-05-12
"虹口区","上海市虹口区幸福村",121.503909984799,31.2791539107739,2022-05-12
"虹口区","上海市虹口区逸仙路810弄",121.491535287416,31.3155940396828,2022-05-12
"杨浦区","上海市杨浦区安图新村",121.547117851015,31.2968184886754,2022-05-12
"杨浦区","上海市杨浦区鞍山六村",121.511773391911,31.2797154478117,2022-05-12
"杨浦区","上海市杨浦区鞍山四村",121.516323219489,31.28201595527,2022-05-12
"杨浦区","上海市杨浦区包头路1150弄",121.543856732522,31.3369528924666,2022-05-12
"杨浦区","上海市杨浦区包头南路629弄",121.54559109097,31.3059884105333,2022-05-12
"杨浦区","上海市杨浦区长白路181号",121.549286001194,31.2937411276081,2022-05-12
"杨浦区","上海市杨浦区长白三村",121.545561267227,31.2948411114723,2022-05-12
"杨浦区","上海市杨浦区长海路442弄",121.528994627182,31.3148857162627,2022-05-12
"杨浦区","上海市杨浦区长海一村",121.536098696646,31.3175922632426,2022-05-12
"杨浦区","上海市杨浦区长岭路60弄",121.526051957992,31.2865868661582,2022-05-12
"杨浦区","上海市杨浦区长阳路2080号",121.547871439507,31.2787251559148,2022-05-12
"杨浦区","上海市杨浦区长阳路3400号",121.542316677556,31.2764065124399,2022-05-12
"杨浦区","上海市杨浦区打虎山路118弄",121.514034067558,31.2792985774812,2022-05-12
"杨浦区","上海市杨浦区定海路154弄",121.564209640462,31.2796167662932,2022-05-12
"杨浦区","上海市杨浦区敦化路2弄",121.532519937325,31.2655241446571,2022-05-12
"杨浦区","上海市杨浦区敦化路3弄",121.532519937325,31.2655241446571,2022-05-12
"杨浦区","上海市杨浦区飞虹路1047弄",121.521777910206,31.2734901295067,2022-05-12
"杨浦区","上海市杨浦区飞虹路600弄",121.515889068436,31.2714573188635,2022-05-12
"杨浦区","上海市杨浦区凤城二村",121.525134338914,31.2841340200324,2022-05-12
"杨浦区","上海市杨浦区凤城路祝家宅",121.530671583908,31.2829722651835,2022-05-12
"杨浦区","上海市杨浦区凤城三村",121.528297991259,31.2878228700411,2022-05-12
"杨浦区","上海市杨浦区阜新路169弄",121.513533172405,31.2831261071062,2022-05-12
"杨浦区","上海市杨浦区阜新路20弄",121.510973989838,31.2788648081545,2022-05-12
"杨浦区","上海市杨浦区国定路600弄",121.511798364804,31.3102112946535,2022-05-12
"杨浦区","上海市杨浦区国定路700弄",121.510448660776,31.3124036110551,2022-05-12
"杨浦区","上海市杨浦区国权后路15弄",121.512183198885,31.2947762344613,2022-05-12
"杨浦区","上海市杨浦区国权后路25弄",121.510345804795,31.2956583573777,2022-05-12
"杨浦区","上海市杨浦区河间路827弄",121.549122150269,31.2774674276326,2022-05-12
"杨浦区","上海市杨浦区浣纱三村",121.542217684289,31.3072190667419,2022-05-12
"杨浦区","上海市杨浦区黄兴路1007号",121.530781356841,31.2857737840862,2022-05-12
"杨浦区","上海市杨浦区黄兴路1019弄",121.530618494052,31.2861721095499,2022-05-12
"杨浦区","上海市杨浦区黄兴路103弄",121.52747598183,31.2939909696236,2022-05-12
"杨浦区","上海市杨浦区黄兴路1413弄",121.529714349556,31.2879476190401,2022-05-12
"杨浦区","上海市杨浦区黄兴路221号",121.535376189525,31.2789685055941,2022-05-12
"杨浦区","上海市杨浦区霍山路1191弄",121.533472051335,31.2707279036758,2022-05-12
"杨浦区","上海市杨浦区江浦路1424弄",121.526525814149,31.2794748776722,2022-05-12
"杨浦区","上海市杨浦区江浦路2009弄",121.523126895591,31.2859121142336,2022-05-12
"杨浦区","上海市杨浦区锦西路150弄",121.515869395545,31.2804642357643,2022-05-12
"杨浦区","上海市杨浦区靖宇东路25弄",121.550190954165,31.2994316819272,2022-05-12
"杨浦区","上海市杨浦区靖宇南路99弄",121.532498288162,31.2892892967162,2022-05-12
"杨浦区","上海市杨浦区军工路2866号",121.549025851918,31.3410077515834,2022-05-12
"杨浦区","上海市杨浦区军工路601号",121.556047097615,31.2976023154818,2022-05-12
"杨浦区","上海市杨浦区开鲁二村",121.534190965235,31.3281462206896,2022-05-12
"杨浦区","上海市杨浦区开鲁六村",121.535860016872,31.333697419491,2022-05-12
"杨浦区","上海市杨浦区开鲁路320弄",121.54220807242,31.3309469230893,2022-05-12
"杨浦区","上海市杨浦区开鲁四村",121.536914986863,31.3320019746491,2022-05-12
"杨浦区","上海市杨浦区控江二村",121.532540867844,31.2855664042064,2022-05-12
"杨浦区","上海市杨浦区控江六村",121.536623037573,31.2906119000075,2022-05-12
"杨浦区","上海市杨浦区控江路120号",121.553813460964,31.2951000790681,2022-05-12
"杨浦区","上海市杨浦区控江路1525弄",121.527807336789,31.2813305230831,2022-05-12
"杨浦区","上海市杨浦区控江路2026弄",121.517312792838,31.2791893252046,2022-05-12
"杨浦区","上海市杨浦区控江路2200号",121.514566942386,31.2780547451007,2022-05-12
"杨浦区","上海市杨浦区控江路2202号",121.514384227045,31.2782723263044,2022-05-12
"杨浦区","上海市杨浦区控江路288弄",121.552853531696,31.2946494888745,2022-05-12
"杨浦区","上海市杨浦区控江路645弄",121.546244428568,31.2903392650481,2022-05-12
"杨浦区","上海市杨浦区控江路652弄",121.547770649629,31.2917750255511,2022-05-12
"杨浦区","上海市杨浦区控江路740弄",121.545714697809,31.2903723608454,2022-05-12
"杨浦区","上海市杨浦区控江路802弄",121.542783347268,31.289124895756,2022-05-12
"杨浦区","上海市杨浦区控江路874弄",121.542602248878,31.2890396478423,2022-05-12
"杨浦区","上海市杨浦区控江路888弄",121.540224254532,31.2898464525802,2022-05-12
"杨浦区","上海市杨浦区控江路980弄",121.537974897535,31.2866645556676,2022-05-12
"杨浦区","上海市杨浦区控江七村",121.538589967317,31.289141868182,2022-05-12
"杨浦区","上海市杨浦区控江四村",121.531554977546,31.2909119209767,2022-05-12
"杨浦区","上海市杨浦区控江五村",121.536617288417,31.2934922620784,2022-05-12
"杨浦区","上海市杨浦区兰州路1151弄",121.532528022075,31.2734105000267,2022-05-12
"杨浦区","上海市杨浦区辽源西路230弄",121.515985366786,31.2753671896529,2022-05-12
"杨浦区","上海市杨浦区隆昌路362号",121.552613863786,31.2775665743639,2022-05-12
"杨浦区","上海市杨浦区眉州路100弄",121.544496685368,31.2641552710697,2022-05-12
"杨浦区","上海市杨浦区眉州路420弄",121.541199724485,31.2683775785495,2022-05-12
"杨浦区","上海市杨浦区眉州路474弄",121.540410383433,31.2694535546841,2022-05-12
"杨浦区","上海市杨浦区民府路175号",121.522370125741,31.3189925266704,2022-05-12
"杨浦区","上海市杨浦区民京路658弄",121.526964456729,31.3266389932489,2022-05-12
"杨浦区","上海市杨浦区民星路162号",121.557075208271,31.3183742188045,2022-05-12
"杨浦区","上海市杨浦区民星路201号",121.553966172901,31.3176638341594,2022-05-12
"杨浦区","上海市杨浦区民星路350弄",121.547988848038,31.3183752214063,2022-05-12
"杨浦区","上海市杨浦区民壮路6号",121.522148191738,31.3210333893598,2022-05-12
"杨浦区","上海市杨浦区南翔殷路81号",121.559061361754,31.3118441988798,2022-05-12
"杨浦区","上海市杨浦区内江路222弄",121.554081964481,31.2857998608391,2022-05-12
"杨浦区","上海市杨浦区平凉路1777弄",121.549034834973,31.2749013810248,2022-05-12
"杨浦区","上海市杨浦区平凉路1782弄",121.551168580051,31.2732883550625,2022-05-12
"杨浦区","上海市杨浦区平凉路1889弄",121.550238654187,31.2758177185974,2022-05-12
"杨浦区","上海市杨浦区平凉路1975弄",121.552439323026,31.2765335142681,2022-05-12
"杨浦区","上海市杨浦区平凉路2545弄",121.545825458878,31.2725263921886,2022-05-12
"杨浦区","上海市杨浦区平凉路2625弄",121.559968470658,31.2848789921588,2022-05-12
"杨浦区","上海市杨浦区平凉路608号",121.53087244502,31.2627592138819,2022-05-12
"杨浦区","上海市杨浦区秦皇岛路32号",121.523175224427,31.2565766006069,2022-05-12
"杨浦区","上海市杨浦区虬江码头路118号",121.561331585571,31.3129852130149,2022-05-12
"杨浦区","上海市杨浦区虬江码头路2号",121.561666807055,31.3158294264576,2022-05-12
"杨浦区","上海市杨浦区三门路358弄",121.499199540196,31.3169780467797,2022-05-12
"杨浦区","上海市杨浦区世界路65弄",121.532089828647,31.3248570480485,2022-05-12
"杨浦区","上海市杨浦区市光路143弄",121.522965559921,31.3199993450417,2022-05-12
"杨浦区","上海市杨浦区市光路176号",121.541568838219,31.3266541080579,2022-05-12
"杨浦区","上海市杨浦区市光路390弄",121.525426108543,31.3236588602644,2022-05-12
"杨浦区","上海市杨浦区市光三村",121.547556583426,31.3256469628713,2022-05-12
"杨浦区","上海市杨浦区双辽路200弄",121.522798924249,31.2784074270024,2022-05-12
"杨浦区","上海市杨浦区双辽支路70弄",121.523448129641,31.276463300642,2022-05-12
"杨浦区","上海市杨浦区双阳路300弄",121.54121032449,31.2810000726074,2022-05-12
"杨浦区","上海市杨浦区双阳支路31弄",121.544785939742,31.2807746280209,2022-05-12
"杨浦区","上海市杨浦区四平路1028弄",121.511718056292,31.2848582385627,2022-05-12
"杨浦区","上海市杨浦区松花江路215弄",121.544397422609,31.3004582404813,2022-05-12
"杨浦区","上海市杨浦区松花一村",121.547631861428,31.3012392597695,2022-05-12
"杨浦区","上海市杨浦区腾越路465弄",121.556415133382,31.2773699782524,2022-05-12
"杨浦区","上海市杨浦区武川路75弄",121.498621121279,31.3072398153661,2022-05-12
"杨浦区","上海市杨浦区延吉东路131弄",121.551487388677,31.3001928081415,2022-05-12
"杨浦区","上海市杨浦区延吉东路137弄",121.551377615743,31.299151281681,2022-05-12
"杨浦区","上海市杨浦区延吉东路149弄",121.551384757272,31.2978785933838,2022-05-12
"杨浦区","上海市杨浦区延吉西路80弄",121.528916205111,31.2866091623597,2022-05-12
"杨浦区","上海市杨浦区延吉新村",121.539506777921,31.2903229871574,2022-05-12
"杨浦区","上海市杨浦区延吉中路365弄",121.53266420519,31.2874385927015,2022-05-12
"杨浦区","上海市杨浦区延吉中路95号",121.539102989594,31.2903724379917,2022-05-12
"杨浦区","上海市杨浦区永吉路97弄",121.540422510558,31.2898938207044,2022-05-12
"杨浦区","上海市杨浦区政府路130号",121.520928472516,31.3152331686997,2022-05-12
"杨浦区","上海市杨浦区政府路132号",121.520736010561,31.3152661399791,2022-05-12
"杨浦区","上海市杨浦区中山北二路99弄",121.526292524208,31.290833154958,2022-05-12
"杨浦区","上海市杨浦区周家嘴路1683弄",121.519401083658,31.2720529304051,2022-05-12
"杨浦区","上海市杨浦区周家嘴路3900弄",121.553672696491,31.2876529117983,2022-05-12
"杨浦区","上海市杨浦区周家嘴路4500号",121.561710913855,31.2928027483506,2022-05-12
"宝山区","上海市宝山区爱辉路305号",121.460092887786,31.3409844660247,2022-05-12
"宝山区","上海市宝山区宝荻路500弄",121.399915311842,31.3673450795525,2022-05-12
"宝山区","上海市宝山区宝杨路868号",121.492261118268,31.4040767436845,2022-05-12
"宝山区","上海市宝山区长江西路1160弄",121.466818231648,31.3440942702596,2022-05-12
"宝山区","上海市宝山区长江西路1251号",121.463144970587,31.3443168632787,2022-05-12
"宝山区","上海市宝山区场北路550弄",121.434334875593,31.3383924077047,2022-05-12
"宝山区","上海市宝山区场中路4098弄",121.422679616909,31.3085102629818,2022-05-12
"宝山区","上海市宝山区大华一路198号",121.420510762269,31.2759420206861,2022-05-12
"宝山区","上海市宝山区富联路128弄",121.417062526739,31.3596168343045,2022-05-12
"宝山区","上海市宝山区顾北东路1号",121.423111626212,31.3679515641283,2022-05-12
"宝山区","上海市宝山区顾北东路88弄",121.413876596417,31.3640350440235,2022-05-12
"宝山区","上海市宝山区顾北东路501弄",121.412708619593,31.3631561581129,2022-05-12
"宝山区","上海市宝山区顾北东路575弄",121.412592749884,31.3630440298865,2022-05-12
"宝山区","上海市宝山区顾泾河路30弄",121.408714663465,31.4592383943152,2022-05-12
"宝山区","上海市宝山区顾泾河路39号",121.408075339434,31.4588726128475,2022-05-12
"宝山区","上海市宝山区红林路158弄",121.432328061084,31.3718275608762,2022-05-12
"宝山区","上海市宝山区红林路576弄",121.425235040777,31.370697884629,2022-05-12
"宝山区","上海市宝山区沪太路1500弄",121.430422934758,31.2852558735771,2022-05-12
"宝山区","上海市宝山区沪太路3717弄",121.407111547452,31.3514957618926,2022-05-12
"宝山区","上海市宝山区华和路728弄",121.401856999202,31.2974515830358,2022-05-12
"宝山区","上海市宝山区华灵路510弄",121.42724239427,31.2807160678904,2022-05-12
"宝山区","上海市宝山区华灵路560弄",121.428640337304,31.2812123233274,2022-05-12
"宝山区","上海市宝山区华灵路1210弄",121.424529152307,31.2853033211811,2022-05-12
"宝山区","上海市宝山区华灵路1280弄",121.422652412436,31.2840449871333,2022-05-12
"宝山区","上海市宝山区环镇北路300弄",121.414830686699,31.3138581595601,2022-05-12
"宝山区","上海市宝山区环镇北路500弄",121.412132805761,31.3132362828837,2022-05-12
"宝山区","上海市宝山区江杨北路1568弄",121.447009966339,31.4052019307942,2022-05-12
"宝山区","上海市宝山区界华路100弄",121.429417641062,31.3082084393117,2022-05-12
"宝山区","上海市宝山区菊联路89弄",121.374262401394,31.3539420568322,2022-05-12
"宝山区","上海市宝山区菊联路262弄",121.360679033947,31.3482741807529,2022-05-12
"宝山区","上海市宝山区菊太路1609弄",121.355684994295,31.3517448581139,2022-05-12
"宝山区","上海市宝山区聚丰园路91弄",121.39170785372,31.3211830811319,2022-05-12
"宝山区","上海市宝山区聚丰园路105弄",121.391414736632,31.3217201494789,2022-05-12
"宝山区","上海市宝山区克山路12号",121.47439804371,31.4038348763753,2022-05-12
"宝山区","上海市宝山区联谊路649弄",121.42477897107,31.3492678976909,2022-05-12
"宝山区","上海市宝山区陆翔路698弄",121.373366521309,31.3598075525018,2022-05-12
"宝山区","上海市宝山区罗溪路121号",121.355028961781,31.4185845485733,2022-05-12
"宝山区","上海市宝山区湄星路1918号",121.418153698442,31.3822195380546,2022-05-12
"宝山区","上海市宝山区盘古路895弄",121.470332402803,31.4077919745256,2022-05-12
"宝山区","上海市宝山区盘古路2618弄",121.436872049675,31.3956555535828,2022-05-12
"宝山区","上海市宝山区三泉路1858弄",121.442929323729,31.3387527264007,2022-05-12
"宝山区","上海市宝山区三泉路1859弄",121.442669623606,31.3376849514711,2022-05-12
"宝山区","上海市宝山区上大路99号",121.397456559831,31.3241538076933,2022-05-12
"宝山区","上海市宝山区盛桥老街14弄",121.408235237814,31.4607306907459,2022-05-12
"宝山区","上海市宝山区松兰路328弄",121.455213471917,31.3785499145816,2022-05-12
"宝山区","上海市宝山区松兰路1000号",121.450814649496,31.388045951895,2022-05-12
"宝山区","上海市宝山区淞滨支路15弄",121.494855604242,31.3748601064682,2022-05-12
"宝山区","上海市宝山区泰和西路3463弄",121.412466256766,31.3564017785614,2022-05-12
"宝山区","上海市宝山区泰和西路3465号",121.411738808964,31.3549518257178,2022-05-12
"宝山区","上海市宝山区通南路55弄",121.483498687001,31.3445743827689,2022-05-12
"宝山区","上海市宝山区纬地路88弄",121.411321366394,31.3330935649043,2022-05-12
"宝山区","上海市宝山区汶水路1585弄",121.422395676721,31.2957361936212,2022-05-12
"宝山区","上海市宝山区新沪路198弄",121.42634085486,31.2754011395035,2022-05-12
"宝山区","上海市宝山区新沪路960弄",121.425932125853,31.2791103949845,2022-05-12
"宝山区","上海市宝山区殷高路21弄",121.497455120727,31.3283143315258,2022-05-12
"宝山区","上海市宝山区友谊路181号",121.490259693592,31.4110816844275,2022-05-12
"宝山区","上海市宝山区友谊路309号",121.482183927057,31.4083927249124,2022-05-12
"宝山区","上海市宝山区友谊路327号",121.479309349425,31.4075451857268,2022-05-12
"宝山区","上海市宝山区友谊路1111号",121.468250400122,31.4037741590291,2022-05-12
"宝山区","上海市宝山区友谊路1869弄",121.454297020636,31.4019519267094,2022-05-12
"宝山区","上海市宝山区真大路333弄",121.408163553035,31.2978935971443,2022-05-12
"宝山区","上海市宝山区真大路561号",121.419187558253,31.3031498560879,2022-05-12
"宝山区","上海市宝山区镇泰路211弄",121.450334235709,31.3880437940601,2022-05-12
"宝山区","上海市宝山区宝钢十一村",121.491003490554,31.4162581361273,2022-05-12
"宝山区","上海市宝山区宝林七村",121.501867687222,31.4109575625367,2022-05-12
"宝山区","上海市宝山区北宗村",121.40980457754,31.3939123805,2022-05-12
"宝山区","上海市宝山区东街村",121.450824710517,31.3849289071253,2022-05-12
"宝山区","上海市宝山区高境一村",121.486751630914,31.3253353317466,2022-05-12
"宝山区","上海市宝山区共富一村",121.436478591862,31.3586152104537,2022-05-12
"宝山区","上海市宝山区共富二村",121.438082965503,31.3545538710787,2022-05-12
"宝山区","上海市宝山区共和二村",121.467396381074,31.3280656353419,2022-05-12
"宝山区","上海市宝山区共康八村",121.43955951027,31.330407825842,2022-05-12
"宝山区","上海市宝山区呼玛五村",121.445505214779,31.3470592550659,2022-05-12
"宝山区","上海市宝山区康家村",121.431716315031,31.3270484803217,2022-05-12
"宝山区","上海市宝山区临江三村",121.495026821272,31.4165260883127,2022-05-12
"宝山区","上海市宝山区湄浦村",121.432377647548,31.3940809890939,2022-05-12
"宝山区","上海市宝山区祁连四村",121.388636547181,31.3217118204702,2022-05-12
"宝山区","上海市宝山区羌家村",121.396827296821,31.3663309742464,2022-05-12
"宝山区","上海市宝山区勤丰村",121.399036948714,31.420418857931,2022-05-12
"宝山区","上海市宝山区盛桥三村",121.407615586674,31.4552358965146,2022-05-12
"宝山区","上海市宝山区泗塘一村",121.460399838779,31.3447274291945,2022-05-12
"宝山区","上海市宝山区泗塘二村",121.462024244633,31.3421664706414,2022-05-12
"宝山区","上海市宝山区泗塘三村",121.462006727675,31.3406413503301,2022-05-12
"宝山区","上海市宝山区淞南五村",121.491637424752,31.3448847930404,2022-05-12
"宝山区","上海市宝山区淞南九村",121.48257900182,31.3413739200831,2022-05-12
"宝山区","上海市宝山区通河一村",121.455058873539,31.341825055584,2022-05-12
"宝山区","上海市宝山区通河二村",121.456897345595,31.3397384488351,2022-05-12
"宝山区","上海市宝山区通河三村",121.450739012172,31.3407328736738,2022-05-12
"宝山区","上海市宝山区通河四村",121.45156203968,31.3373858520103,2022-05-12
"宝山区","上海市宝山区通河七村",121.4583457734,31.3354539810118,2022-05-12
"宝山区","上海市宝山区通河九村",121.454891609053,31.3330187671668,2022-05-12
"宝山区","上海市宝山区西街村",121.443972525918,31.3785332667254,2022-05-12
"宝山区","上海市宝山区朱家弄村",121.395986662525,31.3476683389689,2022-05-12
"闵行区","上海市闵行区报春路399弄",121.395239002849,31.1299218260509,2022-05-12
"闵行区","上海市闵行区古美七村",121.415026157978,31.1500066452687,2022-05-12
"闵行区","上海市闵行区顾戴路1199弄",121.394319317668,31.1441431155285,2022-05-12
"闵行区","上海市闵行区鹤坡南路56弄",121.537052427606,31.0653047041339,2022-05-12
"闵行区","上海市闵行区虹梅路2555弄",121.399056531775,31.1808731237881,2022-05-12
"闵行区","上海市闵行区虹梅路2759弄",121.400044128852,31.1828031723632,2022-05-12
"闵行区","上海市闵行区沪青平公路635弄",121.345724942122,31.1775794604013,2022-05-12
"闵行区","上海市闵行区江玮路100弄",121.537086024232,31.0631098480045,2022-05-12
"闵行区","上海市闵行区昆阳路3251弄",121.367951323776,31.050351417192,2022-05-12
"闵行区","上海市闵行区黎安路433号",121.379721853131,31.1359734782241,2022-05-12
"闵行区","上海市闵行区黎安路486弄",121.366417044389,31.1311508663928,2022-05-12
"闵行区","上海市闵行区黎明路155弄",121.387264565176,31.1320748623731,2022-05-12
"闵行区","上海市闵行区梅陇一村",121.420466026655,31.1425948272757,2022-05-12
"闵行区","上海市闵行区梅陇二村",121.417055519956,31.1407047498012,2022-05-12
"闵行区","上海市闵行区平吉路88弄",121.411431768141,31.1550725098667,2022-05-12
"闵行区","上海市闵行区平南路662号",121.402035582337,31.158157910715,2022-05-12
"闵行区","上海市闵行区浦航路36弄",121.552108027954,31.0500691115545,2022-05-12
"闵行区","上海市闵行区七莘路秀文路口工地",121.376324371861,31.1314139107416,2022-05-12
"闵行区","上海市闵行区莘东路25号",121.385889798423,31.1100487512824,2022-05-12
"闵行区","上海市闵行区莘沥路550号",121.37249785988,31.1132700430732,2022-05-12
"闵行区","上海市闵行区莘松三村",121.37728771469,31.113392087638,2022-05-12
"闵行区","上海市闵行区莘松五村",121.375592252871,31.1131135259041,2022-05-12
"闵行区","上海市闵行区水清路1000弄",121.383102805579,31.1316131317745,2022-05-12
"闵行区","上海市闵行区许浦村",121.344134402386,31.2307916640076,2022-05-12
"闵行区","上海市闵行区益文路101弄",121.417756557576,31.1349224728854,2022-05-12
"闵行区","上海市闵行区珠城路99弄",121.391453723091,31.1097000728297,2022-05-12
"嘉定区","上海市嘉定区曹安公路2383弄32号",121.34661956458,31.2665411988053,2022-05-12
"嘉定区","上海市嘉定区陈翔路1088号",121.334367845221,31.3211233895422,2022-05-12
"嘉定区","上海市嘉定区丰庄路450弄",121.371655249312,31.2521376619119,2022-05-12
"嘉定区","上海市嘉定区封周路508弄",121.276780263723,31.3373591728161,2022-05-12
"嘉定区","上海市嘉定区鹤望路365弄",121.331896067779,31.2520776946264,2022-05-12
"嘉定区","上海市嘉定区鹤友路305号",121.330980963956,31.2417878348602,2022-05-12
"嘉定区","上海市嘉定区沪宜公路185号",121.322835309253,31.2964310084316,2022-05-12
"嘉定区","上海市嘉定区联群村",121.252875815119,31.2823137664263,2022-05-12
"嘉定区","上海市嘉定区瑞林路1280弄",121.310205762597,31.318786904218,2022-05-12
"嘉定区","上海市嘉定区喜泉路118弄",121.164031603571,31.3759839515178,2022-05-12
"松江区","上海市松江区车亭公路128号",121.317353849031,31.0091605786691,2022-05-12
"松江区","上海市松江区车香路253号",121.29209996589,31.0121204669661,2022-05-12
"松江区","上海市松江区古楼公路1876弄",121.256427445614,31.1109680163838,2022-05-12
"松江区","上海市松江区沪亭南路501弄",121.339041728789,31.1255065600961,2022-05-12
"松江区","上海市松江区江川南二路118弄",121.285189750755,31.1111352037145,2022-05-12
"松江区","上海市松江区九亭大街704弄",121.328741578151,31.133435775959,2022-05-12
"松江区","上海市松江区九新公路28弄",121.234479596241,31.0371351764645,2022-05-12
"松江区","上海市松江区联阳路12弄",121.291729684359,31.0296982923841,2022-05-12
"松江区","上海市松江区虬泾路549号",121.342505774497,31.1321270242645,2022-05-12
"松江区","上海市松江区影振路299号",121.315333010262,31.0115128487449,2022-05-12
"松江区","上海市松江区中山二路182弄",121.237095821209,31.0161532649776,2022-05-12
"青浦区","上海市青浦区福泉山路111弄",121.195761999948,31.2060049001384,2022-05-12
"青浦区","上海市青浦区光联村",121.317580850833,31.1659544365636,2022-05-12
"青浦区","上海市青浦区沪青平公路2095号",121.269348043256,31.1641918293325,2022-05-12
"青浦区","上海市青浦区龙联路58弄",121.303675620522,31.2042845888757,2022-05-12
"青浦区","上海市青浦区龙联路59弄",121.304506373458,31.2028638546565,2022-05-12
"青浦区","上海市青浦区胜利路738号",121.110849671617,31.1766782263384,2022-05-12
"青浦区","上海市青浦区崧泽大道333号",121.308617558455,31.1962050582445,2022-05-12
"青浦区","上海市青浦区盈港东路1888弄",121.276505472068,31.1779917636006,2022-05-12
"青浦区","上海市青浦区宅东新区",121.307224106948,31.1769397612156,2022-05-12
"崇明区","上海市崇明区花博园北P1P2集中隔离点",121.487847922958,31.7026769367826,2022-05-12
"崇明区","上海市崇明区花博园北P3保障点",121.487847922958,31.7026769367826,2022-05-12
"崇明区","上海市崇明区长凯路128号",121.750312311608,31.3741323477034,2022-05-12
"崇明区","上海市崇明区已对相关居住地落实终末消毒等措施",121.403556862718,31.628569984404,2022-05-12
"崇明区","上海市崇明区资料各区卫健委新闻办",121.403556862718,31.628569984404,2022-05-12
"崇明区","上海市崇明区编辑黄景源",121.403556862718,31.628569984404,2022-05-12
