"district","address","lng","lat","date"
"浦东新区","上海市浦东新区永泰路630弄",121.52411305537956,31.145365857319558,"2022-03-22"
"浦东新区","上海市浦东新区华夏东路1668弄",121.6877889904862,31.2033819900195,"2022-03-22"
"浦东新区","上海市浦东新区鹤驰路99弄",121.59974166575626,31.084967271555595,"2022-03-22"
"浦东新区","上海市浦东新区莱阳路451弄",121.5892918574198,31.282158997327386,"2022-03-22"
"浦东新区","上海市浦东新区北艾路1765弄",121.52839860147601,31.184265453706548,"2022-03-22"
"浦东新区","上海市浦东新区孙耀路128弄",121.64091451067004,31.190213049707157,"2022-03-22"
"浦东新区","上海市浦东新区东波路58弄",121.58377868701339,31.289892586356153,"2022-03-22"
"浦东新区","上海市浦东新区长元村沈家宅",121.63612267958817,31.174413748703195,"2022-03-22"
"浦东新区","上海市浦东新区华夏东路860弄",121.67234154927552,31.20033012373384,"2022-03-22"
"浦东新区","上海市浦东新区南门大街70弄",121.76342757205406,31.049802582763984,"2022-03-22"
"浦东新区","上海市浦东新区下南路500弄",121.5437208188986,31.177967587760506,"2022-03-22"
"浦东新区","上海市浦东新区果园银杏村",121.55045460683195,31.227348292436346,"2022-03-22"
"浦东新区","上海市浦东新区微山新村",121.52188759330915,31.215230523292508,"2022-03-22"
"浦东新区","上海市浦东新区栖山路1700弄",121.57584134935779,31.26538331496652,"2022-03-22"
"浦东新区","上海市浦东新区三三公路5020弄",121.8799029424444,30.98125570677017,"2022-03-22"
"浦东新区","上海市浦东新区拱为路2600弄",121.74541825335946,31.063557763042446,"2022-03-22"
"浦东新区","上海市浦东新区博山东路440弄",121.57526571518699,31.25858318762898,"2022-03-22"
"浦东新区","上海市浦东新区下南路339弄",121.55064127471694,31.17679107417024,"2022-03-22"
"浦东新区","上海市浦东新区博山东路811弄",121.57981814785047,31.265442810713736,"2022-03-22"
"浦东新区","上海市浦东新区和佳路105弄",121.52030208408404,31.133297374938646,"2022-03-22"
"浦东新区","上海市浦东新区浦三路635弄",121.52513218298063,31.195144302174068,"2022-03-22"
"浦东新区","上海市浦东新区乳山四村",121.52697820080364,31.23952354170852,"2022-03-22"
"浦东新区","上海市浦东新区浦东大道1585弄",121.54725475277486,31.250760642806057,"2022-03-22"
"浦东新区","上海市浦东新区联勤村麦家宅",121.55391344236757,31.16926349405447,"2022-03-22"
"浦东新区","上海市浦东新区下南路309弄",121.52969618510942,31.207201251711854,"2022-03-22"
"浦东新区","上海市浦东新区鹏飞路411弄",121.5623750311188,31.177444831968828,"2022-03-22"
"浦东新区","上海市浦东新区莲溪路1099弄",121.56986339568053,31.18174774834683,"2022-03-22"
"浦东新区","上海市浦东新区北蔡镇顾家宅",121.56739566061408,31.191014451882285,"2022-03-22"
"浦东新区","上海市浦东新区沪南路577弄",121.53688426481492,31.18970225553777,"2022-03-22"
"浦东新区","上海市浦东新区莲园路8弄",121.55045460683195,31.227348292436346,"2022-03-22"
"浦东新区","上海市浦东新区绿林路320弄",121.55483474449859,31.176162646734344,"2022-03-22"
"浦东新区","上海市浦东新区联勤村李家宅",121.55718596934042,31.173231011079945,"2022-03-22"
"浦东新区","上海市浦东新区海阳路1065弄",121.51253497532255,31.16475645125977,"2022-03-22"
"浦东新区","上海市浦东新区丁香路1299弄",121.56935998527274,31.236016885940792,"2022-03-22"
"浦东新区","上海市浦东新区国展路1765号工地",121.49519079743523,31.18795425612223,"2022-03-22"
"浦东新区","上海市浦东新区浦东南路2054弄",121.52356140596589,31.216629760700197,"2022-03-22"
"浦东新区","上海市浦东新区柳杉路99弄",121.57639722080737,31.230508819026944,"2022-03-22"
"浦东新区","上海市浦东新区东绣路1086弄",121.5429417185298,31.20526918311545,"2022-03-22"
"浦东新区","上海市浦东新区环林西路608弄",121.52649814633911,31.146505600587343,"2022-03-22"
"浦东新区","上海市浦东新区杨莲路张家宅",121.52958652068241,31.167835971840162,"2022-03-22"
"浦东新区","上海市浦东新区法赛路518号",121.6281577639534,31.319361467861132,"2022-03-22"
"浦东新区","上海市浦东新区申城佳苑二期",121.64304250659264,31.1884429437166,"2022-03-22"
"浦东新区","上海市浦东新区康弘路508弄",121.60698461325266,31.12693472616589,"2022-03-22"
"浦东新区","上海市浦东新区御桥路269弄",121.54130976690982,31.15732262128388,"2022-03-22"
"浦东新区","上海市浦东新区三杨新村一街坊",121.4955228655746,31.160347149561034,"2022-03-22"
"浦东新区","上海市浦东新区新雅东路51弄",121.6935185721458,31.24386901952387,"2022-03-22"
"浦东新区","上海市浦东新区上南路5588号",121.53410068553116,31.12914416758575,"2022-03-22"
"浦东新区","上海市浦东新区新营村顾家宅",121.74826300724847,31.202485251102743,"2022-03-22"
"浦东新区","上海市浦东新区中界村周家宅",121.57417373500905,31.19544617406339,"2022-03-22"
"浦东新区","上海市浦东新区中界村庄家队蔡家宅",121.57857947438275,31.194413133383005,"2022-03-22"
"浦东新区","上海市浦东新区下南路526弄",121.54440200396682,31.17804189176027,"2022-03-22"
"浦东新区","上海市浦东新区鹏岳路70弄",121.55880363790278,31.180936844062057,"2022-03-22"
"浦东新区","上海市浦东新区三彩路52弄",121.52553031198265,31.139159418419815,"2022-03-22"
"浦东新区","上海市浦东新区寿光路78弄",121.59210202654666,31.279390855434528,"2022-03-22"
"浦东新区","上海市浦东新区杨南路689弄",121.50710462868419,31.15691772109531,"2022-03-22"
"浦东新区","上海市浦东新区瑞浦路77弄",121.59264092002209,31.103960025909874,"2022-03-22"
"浦东新区","上海市浦东新区康沈路400弄",121.58485970786411,31.120077939878794,"2022-03-22"
"浦东新区","上海市浦东新区沈家弄路901弄",121.55289826731075,31.244971955008257,"2022-03-22"
"浦东新区","上海市浦东新区明纶园",121.57053523837145,31.151929602994812,"2022-03-22"
"浦东新区","上海市浦东新区周东南路599弄",121.59884596533226,31.10441485812352,"2022-03-22"
"浦东新区","上海市浦东新区陈春路299号",121.55616800953652,31.1779532212839,"2022-03-22"
"浦东新区","上海市浦东新区鹏岳路152弄",121.56093334060584,31.177214966797443,"2022-03-22"
"浦东新区","上海市浦东新区御水路555弄",121.58232702530928,31.160305200831736,"2022-03-22"
"浦东新区","上海市浦东新区五星村陈家队陈家宅",121.57857947438275,31.194413133383005,"2022-03-22"
"浦东新区","上海市浦东新区周康路868弄",121.58027502603284,31.107585868005593,"2022-03-22"
"浦东新区","上海市浦东新区秀龙村",121.5691399004228,31.132605675883436,"2022-03-22"
"浦东新区","上海市浦东新区中界村沈家宅",121.57417373500905,31.19544617406339,"2022-03-22"
"浦东新区","上海市浦东新区陈春路620弄",121.55290760968805,31.178078194108803,"2022-03-22"
"浦东新区","上海市浦东新区博兴路1185弄",121.6008308611871,31.274160727405675,"2022-03-22"
"浦东新区","上海市浦东新区紫叶路81弄",121.55772216789933,31.18971870540851,"2022-03-22"
"浦东新区","上海市浦东新区康杉路151弄",121.56730133853553,31.15772404321492,"2022-03-22"
"浦东新区","上海市浦东新区御衡路68弄",121.58833740781544,31.159592610343985,"2022-03-22"
"浦东新区","上海市浦东新区阳光二村",121.5570400845256,31.25264657192194,"2022-03-22"
"浦东新区","上海市浦东新区金杨路220弄",121.58118716544766,31.253056383701526,"2022-03-22"
"浦东新区","上海市浦东新区花墙村",121.55274169266035,31.156328175262196,"2022-03-22"
"浦东新区","上海市浦东新区顾家宅98号",121.57568288826582,31.347074058164946,"2022-03-22"
"浦东新区","上海市浦东新区碧云路333弄",121.58332800713904,31.24398785556432,"2022-03-22"
"浦东新区","上海市浦东新区南新村东钟家宅",121.54865494157326,31.173251634963325,"2022-03-22"
"浦东新区","上海市浦东新区庆丰村六队顾家宅",121.6933932490713,31.110387612010992,"2022-03-22"
"浦东新区","上海市浦东新区华夏东路858弄",121.67106308087372,31.200240393252276,"2022-03-22"
"浦东新区","上海市浦东新区杨高南路3288弄",121.52558241370224,31.17462515993693,"2022-03-22"
"浦东新区","上海市浦东新区环林西路618弄",121.52907170179465,31.14571896209596,"2022-03-22"
"浦东新区","上海市浦东新区下南路西钟家宅",121.54865494157326,31.173251634963325,"2022-03-22"
"浦东新区","上海市浦东新区玉盘北路281弄",121.68004128512374,31.23174247696057,"2022-03-22"
"浦东新区","上海市浦东新区唐四村黄家东宅",121.6737448821432,31.224156161077826,"2022-03-22"
"浦东新区","上海市浦东新区上钢一村",121.50096839357609,31.178239082858738,"2022-03-22"
"浦东新区","上海市浦东新区凌兆路127弄",121.5000277778766,31.1477960721254,"2022-03-22"
"浦东新区","上海市浦东新区浦东大道501弄",121.5251071202569,31.248512929274547,"2022-03-22"
"浦东新区","上海市浦东新区乳山路200弄",121.53552171501738,31.2435075340906,"2022-03-22"
"浦东新区","上海市浦东新区康安路御北路交叉口北侧工地",121.56378599958333,31.16393929723239,"2022-03-22"
"浦东新区","上海市浦东新区御北路385号",121.56399000476466,31.164465836320886,"2022-03-22"
"浦东新区","上海市浦东新区宣中路621弄",121.71095916416617,31.03046857274153,"2022-03-22"
"浦东新区","上海市浦东新区牡丹路259弄",121.5558250364928,31.214654701261765,"2022-03-22"
"浦东新区","上海市浦东新区绿林路51弄",121.55520295992714,31.180852424344394,"2022-03-22"
"浦东新区","上海市浦东新区新浦路477弄",121.53952276775883,31.177013679830385,"2022-03-22"
"浦东新区","上海市浦东新区锦绣路3841弄",121.55337814211418,31.174276257765616,"2022-03-22"
"浦东新区","上海市浦东新区鹏飞路51弄",121.56052119803788,31.18149263748743,"2022-03-22"
"浦东新区","上海市浦东新区张杨路1133弄",121.53567981678714,31.237677641037152,"2022-03-22"
"浦东新区","上海市浦东新区御桥村姚家宅",121.56411783363872,31.162329302205315,"2022-03-22"
"浦东新区","上海市浦东新区浦东大道580号",121.52850891339264,31.24609806080326,"2022-03-22"
"浦东新区","上海市浦东新区下南路551弄",121.54679904238965,31.179016875274282,"2022-03-22"
"浦东新区","上海市浦东新区天花庵村卫家队",121.53126967571646,31.13278372068077,"2022-03-22"
"浦东新区","上海市浦东新区杨莲路和博华路交界工地生活区",121.55396671188431,31.188474222057643,"2022-03-22"
"浦东新区","上海市浦东新区莲溪路477弄",121.56893382913881,31.188689385868962,"2022-03-22"
"浦东新区","上海市浦东新区新浦路350弄",121.54104081424015,31.177803917931705,"2022-03-22"
"浦东新区","上海市浦东新区新浦路673弄",121.53688426481492,31.18970225553777,"2022-03-22"
"浦东新区","上海市浦东新区陈春东路99弄",121.56589701753178,31.181856496573577,"2022-03-22"
"浦东新区","上海市浦东新区浦建路1086弄",121.54495742626365,31.21291640447759,"2022-03-22"
"浦东新区","上海市浦东新区芳华路310弄",121.56401821155765,31.201334527828102,"2022-03-22"
"浦东新区","上海市浦东新区牡丹路343号",121.55636788251249,31.214424541317776,"2022-03-22"
"浦东新区","上海市浦东新区五星路239弄",121.56995448385925,31.181781423237346,"2022-03-22"
"浦东新区","上海市浦东新区芳华路411弄",121.56557030381781,31.202399460853744,"2022-03-22"
"浦东新区","上海市浦东新区博华路980弄",121.55642681135393,31.17727104282873,"2022-03-22"
"浦东新区","上海市浦东新区五星村徐家队奚家宅",121.56739566061408,31.191014451882285,"2022-03-22"
"浦东新区","上海市浦东新区浦东大道1539号",121.54490415674691,31.25008509182825,"2022-03-22"
"浦东新区","上海市浦东新区金高路1051弄",121.61755748944401,31.288703207126414,"2022-03-22"
"浦东新区","上海市浦东新区博华路1018弄",121.55750199321884,31.176850857976813,"2022-03-22"
"浦东新区","上海市浦东新区莲溪二村",121.56594121416288,31.19130042808323,"2022-03-22"
"浦东新区","上海市浦东新区中界村苏家宅",121.57702962788638,31.19161049851133,"2022-03-22"
"浦东新区","上海市浦东新区下南路370弄",121.53688426481492,31.18970225553777,"2022-03-22"
"浦东新区","上海市浦东新区康士路31号",121.57006003475666,31.15708614000837,"2022-03-22"
"浦东新区","上海市浦东新区严民路40弄",121.53536082850054,31.198209156327895,"2022-03-22"
"浦东新区","上海市浦东新区昌里东路411弄",121.51930155140703,31.185511228668684,"2022-03-22"
"浦东新区","上海市浦东新区顾全路381号",121.54600637760764,31.177750236637284,"2022-03-22"
"浦东新区","上海市浦东新区严杨路60弄",121.53619499499712,31.20036688077375,"2022-03-22"
"浦东新区","上海市浦东新区北蔡姚家宅",121.56095445078532,31.188175725858915,"2022-03-22"
"浦东新区","上海市浦东新区卫行村",121.58720141066752,31.166665202015878,"2022-03-22"
"浦东新区","上海市浦东新区绿林路50弄",121.55494703268735,31.17853089093836,"2022-03-22"
"浦东新区","上海市浦东新区顾全路379号",121.5459353216418,31.1777286868716,"2022-03-22"
"浦东新区","上海市浦东新区陈春东路88弄",121.56599583113788,31.181447145347832,"2022-03-22"
"浦东新区","上海市浦东新区严杨路30弄",121.53251293054227,31.198276108155607,"2022-03-22"
"浦东新区","上海市浦东新区御桥村东印家圈",121.56463768303735,31.17407504173234,"2022-03-22"
"浦东新区","上海市浦东新区崂山新村",121.52608115292138,31.244186142787363,"2022-03-22"
"浦东新区","上海市浦东新区赵家厍",121.54343515774643,31.176791383130574,"2022-03-22"
"浦东新区","上海市浦东新区御山路360弄",121.57468244541937,31.162035666910167,"2022-03-22"
"浦东新区","上海市浦东新区银峰路549弄",121.69568788066599,31.272437116739326,"2022-03-22"
"浦东新区","上海市浦东新区民同路176弄",121.65780364239369,31.278610039104937,"2022-03-22"
"浦东新区","上海市浦东新区御青路918弄",121.581132278981,31.158767840355527,"2022-03-22"
"浦东新区","上海市浦东新区御青路999弄",121.5795247612709,31.16029762997253,"2022-03-22"
"浦东新区","上海市浦东新区华夏西路5778号",121.58671902060865,31.17266288696628,"2022-03-22"
"浦东新区","上海市浦东新区和平村朱家宅",121.73625113546069,31.20555766394675,"2022-03-22"
"浦东新区","上海市浦东新区新舒苑北苑",121.87074354997303,30.984518245312536,"2022-03-22"
"浦东新区","上海市浦东新区福缘路219弄",121.75968460248563,31.034120375692826,"2022-03-22"
"浦东新区","上海市浦东新区新振村",121.83883744503908,30.949054312124062,"2022-03-22"
"浦东新区","上海市浦东新区永宁东路540弄",121.75395422180694,30.974154156671034,"2022-03-22"
"浦东新区","上海市浦东新区外灶村",121.87608729996022,30.956059345232116,"2022-03-22"
"浦东新区","上海市浦东新区海沈村",121.80462233562228,31.032342067589873,"2022-03-22"
"浦东新区","上海市浦东新区拱海路78弄",121.77485958763513,31.060910455271795,"2022-03-22"
"浦东新区","上海市浦东新区拱极路2368弄29支弄",121.77485958763513,31.060910455271795,"2022-03-22"
"浦东新区","上海市浦东新区万祥馨苑",121.82427896696106,30.97365186436141,"2022-03-22"
"浦东新区","上海市浦东新区康锦路88弄",121.77247135260632,31.04357196746932,"2022-03-22"
"浦东新区","上海市浦东新区已对相关居住地落实终末消毒措施",121.55045460683195,31.227348292436346,"2022-03-22"
"黄浦区","上海市黄浦区斜土路486弄",121.48399823469545,31.20840937579005,"2022-03-22"
"黄浦区","上海市黄浦区斜土路460弄",121.48399823469545,31.20840937579005,"2022-03-22"
"黄浦区","上海市黄浦区吉安路157号",121.48724003961985,31.225114838681478,"2022-03-22"
"黄浦区","上海市黄浦区丽园路842弄33号",121.48239053732424,31.212375158639645,"2022-03-22"
"黄浦区","上海市黄浦区马当路306弄27号",121.48126523001189,31.223240475063676,"2022-03-22"
"黄浦区","上海市黄浦区兴安路98弄",121.47735140273545,31.227265458509372,"2022-03-22"
"黄浦区","上海市黄浦区蒙自西路28弄3号",121.48257010859568,31.212915864005417,"2022-03-22"
"黄浦区","上海市黄浦区丽园路873号",121.48254324926093,31.212775263924414,"2022-03-22"
"黄浦区","上海市黄浦区顺昌路550弄",121.48557997103741,31.21774184729144,"2022-03-22"
"黄浦区","上海市黄浦区顺昌路580号",121.48612596112638,31.217293586262826,"2022-03-22"
"黄浦区","上海市黄浦区顺昌路590号",121.48615291029168,31.21715415085829,"2022-03-22"
"黄浦区","上海市黄浦区顺昌路612弄23号",121.4855653286576,31.220331389007576,"2022-03-22"
"黄浦区","上海市黄浦区顺昌路612弄40号",121.4855653286576,31.220331389007576,"2022-03-22"
"黄浦区","上海市黄浦区五里桥路235弄",121.48660664440476,31.209650119761722,"2022-03-22"
"黄浦区","上海市黄浦区中山南一路1109弄1号",121.50263834351914,31.227846915616347,"2022-03-22"
"黄浦区","上海市黄浦区蒙自西路10号",121.48320044957202,31.21345590996484,"2022-03-22"
"黄浦区","上海市黄浦区蒙自西路14号",121.4831213088566,31.21346907424592,"2022-03-22"
"黄浦区","上海市黄浦区蒙自西路72弄1号",121.48108709602926,31.21295253889574,"2022-03-22"
"黄浦区","上海市黄浦区打浦路316弄2号",121.47709924837882,31.20540045126984,"2022-03-22"
"黄浦区","上海市黄浦区丽园路875号",121.48247937973917,31.212645009844376,"2022-03-22"
"黄浦区","上海市黄浦区安澜路41号",121.49295209486615,31.221567033989263,"2022-03-22"
"黄浦区","上海市黄浦区新昌路477弄",121.47327273639796,31.24455168792447,"2022-03-22"
"黄浦区","上海市黄浦区建国东路37弄3号",121.48324356823652,31.218282598869006,"2022-03-22"
"黄浦区","上海市黄浦区局门路1弄1号",121.49158559252436,31.23724715206362,"2022-03-22"
"黄浦区","上海市黄浦区斜土路460弄19号",121.48399823469545,31.20840937579005,"2022-03-22"
"黄浦区","上海市黄浦区瑞金二路410弄11号",121.47347880768194,31.21265280810797,"2022-03-22"
"黄浦区","上海市黄浦区中山南路200号10号楼",121.50862114804613,31.2284519915471,"2022-03-22"
"黄浦区","上海市黄浦区中山南一路247弄",121.49296071859904,31.20630496106852,"2022-03-22"
"黄浦区","上海市黄浦区大吉路310弄1号",121.4683930510372,31.223077810739706,"2022-03-22"
"黄浦区","上海市黄浦区牌楼路43弄",121.49293443711096,31.219539842511622,"2022-03-22"
"黄浦区","上海市黄浦区思南路82弄",121.4766426396881,31.21547365223381,"2022-03-22"
"黄浦区","上海市黄浦区黄陂南路783号",121.48418822631079,31.218270940779707,"2022-03-22"
"黄浦区","上海市黄浦区永年路149弄",121.48509928775901,31.217075940321728,"2022-03-22"
"黄浦区","上海市黄浦区顺昌路612弄44号",121.4855653286576,31.220331389007576,"2022-03-22"
"黄浦区","上海市黄浦区顺昌路594号",121.48617096623242,31.217092848626873,"2022-03-22"
"黄浦区","上海市黄浦区复兴东路740号",121.49738747832167,31.227257815860032,"2022-03-22"
"黄浦区","上海市黄浦区丽园路871号",121.48247138482013,31.21267844199958,"2022-03-22"
"黄浦区","上海市黄浦区已对相关居住地落实终末消毒措施",121.49158559252436,31.23724715206362,"2022-03-22"
"静安区","上海市静安区芷江西路593弄",121.46134323922544,31.263127464478224,"2022-03-22"
"静安区","上海市静安区场中路1011弄",121.47196219848944,31.3147642425747,"2022-03-22"
"静安区","上海市静安区余姚路321弄",121.44443856681647,31.241068068052705,"2022-03-22"
"静安区","上海市静安区中山北路899弄",121.46215180401498,31.268675047373453,"2022-03-22"
"静安区","上海市静安区柳营路1085号",121.45562130261854,31.266875558725932,"2022-03-22"
"静安区","上海市静安区康定东路63弄",121.46294707388296,31.24354628098904,"2022-03-22"
"静安区","上海市静安区普善路铁路新村18号",121.4612890714032,31.26237653113996,"2022-03-22"
"静安区","上海市静安区普善路128弄",121.46297375355661,31.2617262215432,"2022-03-22"
"静安区","上海市静安区普善路铁路新村12号",121.46104356450732,31.2620678526503,"2022-03-22"
"静安区","上海市静安区中华新路836号",121.46357049790689,31.260146923494307,"2022-03-22"
"静安区","上海市静安区中华新路939弄",121.46199801411167,31.261891982624878,"2022-03-22"
"静安区","上海市静安区中山北路814弄",121.46448443393274,31.265802562401454,"2022-03-22"
"静安区","上海市静安区永兴小马路70号",121.4708687810227,31.25751356889404,"2022-03-22"
"静安区","上海市静安区西藏北路853弄",121.4736235246996,31.262481944610624,"2022-03-22"
"静安区","上海市静安区会文路3号",121.48018304136401,31.25645389341466,"2022-03-22"
"静安区","上海市静安区芷江西路285弄",121.46675184687047,31.263678757293864,"2022-03-22"
"静安区","上海市静安区芷江西路521弄",121.4627572619287,31.263079311087917,"2022-03-22"
"静安区","上海市静安区普善路239弄",121.46395694893728,31.26329530663027,"2022-03-22"
"静安区","上海市静安区大统路938弄",121.46501793757511,31.26044272075746,"2022-03-22"
"静安区","上海市静安区原平路917弄",121.43588427293662,31.301365533582718,"2022-03-22"
"静安区","上海市静安区已对相关居住地落实终末消毒措施",121.45343177276851,31.233844930401652,"2022-03-22"
"徐汇区","上海市徐汇区龙吴路1343弄",121.45733616783708,31.142578291870645,"2022-03-22"
"徐汇区","上海市徐汇区龙吴路2588弄",121.46294896032454,31.12014463833439,"2022-03-22"
"徐汇区","上海市徐汇区斜土路2200弄",121.45723259321178,31.19745530787878,"2022-03-22"
"徐汇区","上海市徐汇区天钥桥南路1249弄",121.46324315537905,31.15703731400597,"2022-03-22"
"徐汇区","上海市徐汇区桂林东街28弄",121.4302217143239,31.161697378752343,"2022-03-22"
"徐汇区","上海市徐汇区冠生园路403弄",121.43047746190261,31.16852184953784,"2022-03-22"
"徐汇区","上海市徐汇区大木桥路599弄",121.47106308450451,31.200345104545956,"2022-03-22"
"徐汇区","上海市徐汇区汇成一村",121.43851585892808,31.153289378964452,"2022-03-22"
"徐汇区","上海市徐汇区老沪闵路1039弄",121.43369303630612,31.153863183060615,"2022-03-22"
"徐汇区","上海市徐汇区梅陇四村",121.42777356231757,31.142782434378194,"2022-03-22"
"徐汇区","上海市徐汇区龙州路425弄",121.4331073033219,31.13547376154926,"2022-03-22"
"徐汇区","上海市徐汇区罗秀路930弄",121.43281889521437,31.13750557117837,"2022-03-22"
"徐汇区","上海市徐汇区凯旋一村",121.4311022333848,31.199570809638782,"2022-03-22"
"徐汇区","上海市徐汇区康健路100弄",121.43416132296848,31.171079922861633,"2022-03-22"
"徐汇区","上海市徐汇区钦州南路8弄",121.44339635276381,31.194556772822725,"2022-03-22"
"徐汇区","上海市徐汇区华济路2弄",121.44339635276381,31.194556772822725,"2022-03-22"
"徐汇区","上海市徐汇区龙吴路2418弄",121.46907800898856,31.125376030198847,"2022-03-22"
"徐汇区","上海市徐汇区龙吴路2388弄",121.46634913651035,31.128955219485796,"2022-03-22"
"徐汇区","上海市徐汇区龙吴路1323弄",121.45619199610904,31.14733588684881,"2022-03-22"
"徐汇区","上海市徐汇区长桥七村",121.44386203434019,31.13744831229077,"2022-03-22"
"徐汇区","上海市徐汇区龙吴路555弄",121.4560330858643,31.16322897463324,"2022-03-22"
"徐汇区","上海市徐汇区梅陇十一村",121.43363204136199,31.13872183133972,"2022-03-22"
"徐汇区","上海市徐汇区宾南路36弄",121.4426530049543,31.166843877452973,"2022-03-22"
"徐汇区","上海市徐汇区龙南五村",121.46045301846506,31.161427921589443,"2022-03-22"
"徐汇区","上海市徐汇区桂林西街30弄",121.42368438580559,31.161511895277982,"2022-03-22"
"徐汇区","上海市徐汇区天钥新村",121.45293015897174,31.192061894349106,"2022-03-22"
"徐汇区","上海市徐汇区梅陇路130号",121.43210932369203,31.147574169768635,"2022-03-22"
"徐汇区","上海市徐汇区五原路84弄",121.4538176848156,31.219575248069674,"2022-03-22"
"徐汇区","上海市徐汇区乐山路10弄",121.43948980176201,31.20294717348723,"2022-03-22"
"徐汇区","上海市徐汇区老沪闵路666弄",121.43540116423334,31.151796637480366,"2022-03-22"
"徐汇区","上海市徐汇区清真路99弄",121.46494247991228,31.204735923650603,"2022-03-22"
"徐汇区","上海市徐汇区化工二三村",121.42406167411978,31.144407290917165,"2022-03-22"
"徐汇区","上海市徐汇区龙吴路1717弄",121.45670573703019,31.13827071965649,"2022-03-22"
"徐汇区","上海市徐汇区龙吴路1727弄",121.46025736752497,31.137798046867967,"2022-03-22"
"徐汇区","上海市徐汇区长桥四村",121.44602802858583,31.1399378439366,"2022-03-22"
"徐汇区","上海市徐汇区龙华路2373弄",121.45860403623388,31.18816784832669,"2022-03-22"
"徐汇区","上海市徐汇区古宜路180弄",121.43152901833258,31.193157360065012,"2022-03-22"
"徐汇区","上海市徐汇区天等路259弄",121.43410625684072,31.142409846923833,"2022-03-22"
"徐汇区","上海市徐汇区田林三村",121.42860647118643,31.17735786019942,"2022-03-22"
"徐汇区","上海市徐汇区田林十三村",121.43187881849818,31.17996419763881,"2022-03-22"
"徐汇区","上海市徐汇区已对相关居住地落实终末消毒措施",121.44339635276381,31.194556772822725,"2022-03-22"
"长宁区","上海市长宁区玉屏南路725号",121.40758791886395,31.220572574601384,"2022-03-22"
"长宁区","上海市长宁区愚园路1240弄",121.4327224172026,31.226178420469655,"2022-03-22"
"长宁区","上海市长宁区娄山关路988号",121.41175677507466,31.22208004768527,"2022-03-22"
"长宁区","上海市长宁区新华路569弄106支弄",121.4267454516614,31.209618616851035,"2022-03-22"
"长宁区","上海市长宁区天山西路350弄",121.37306774489596,31.223654275771523,"2022-03-22"
"长宁区","上海市长宁区绥宁路628号公寓",121.35100051072116,31.222530138649866,"2022-03-22"
"长宁区","上海市长宁区华山路1615号",121.4410726160706,31.20988500142356,"2022-03-22"
"长宁区","上海市长宁区金钟路333弄",121.37015759436585,31.22571738468603,"2022-03-22"
"长宁区","上海市长宁区昭化路518弄",121.4265472854659,31.217174070214497,"2022-03-22"
"长宁区","上海市长宁区金钟路255弄",121.37310277881086,31.225096773821445,"2022-03-22"
"长宁区","上海市长宁区新华路84弄",121.43720990237769,31.20814707937481,"2022-03-22"
"长宁区","上海市长宁区古北路181弄",121.4067171015026,31.219793737450907,"2022-03-22"
"长宁区","上海市长宁区金钟路68弄",121.37695201792111,31.225276881864072,"2022-03-22"
"长宁区","上海市长宁区东诸安浜路103号",121.44081255662545,31.223642463948327,"2022-03-22"
"长宁区","上海市长宁区已对相关居住地落实终末消毒措施",121.43045437545099,31.226847968225428,"2022-03-22"
"普陀区","上海市普陀区梅川路141弄",121.40892396864895,31.243692237787094,"2022-03-22"
"普陀区","上海市普陀区真金路250弄",121.41202698537207,31.273826007758306,"2022-03-22"
"普陀区","上海市普陀区真南路744弄",121.39274836099189,31.27583407617528,"2022-03-22"
"普陀区","上海市普陀区真南路1111号",121.38461276731022,31.27668096271111,"2022-03-22"
"普陀区","上海市普陀区华联路130弄",121.3539649189041,31.28260471003506,"2022-03-22"
"普陀区","上海市普陀区真北路3725弄",121.4095403858899,31.290661273542632,"2022-03-22"
"普陀区","上海市普陀区新村路424号",121.43467820795892,31.27148610028324,"2022-03-22"
"普陀区","上海市普陀区曹杨路1021号",121.41565542098797,31.250015552943715,"2022-03-22"
"普陀区","上海市普陀区南大街东江海小区",121.40754030867193,31.251209824005773,"2022-03-22"
"普陀区","上海市普陀区新村路1388弄",121.4198542806027,31.272292285081285,"2022-03-22"
"普陀区","上海市普陀区雪松路458弄",121.35883418392092,31.29371435878105,"2022-03-22"
"普陀区","上海市普陀区梅川路1333弄",121.38423269424894,31.25034742506805,"2022-03-22"
"普陀区","上海市普陀区宜川三村",121.44741950382078,31.263551892325964,"2022-03-22"
"普陀区","上海市普陀区金迈路358弄",121.33527800836333,31.293253733179814,"2022-03-22"
"普陀区","上海市普陀区靖边路199弄",121.37330947890871,31.267026880696907,"2022-03-22"
"普陀区","上海市普陀区绿杨路51弄",121.35301397269123,31.29208784884429,"2022-03-22"
"普陀区","上海市普陀区武威路1087弄",121.36082384079496,31.286763769783388,"2022-03-22"
"普陀区","上海市普陀区已对相关居住地落实终末消毒措施",121.40356934916508,31.254973368279597,"2022-03-22"
"虹口区","上海市虹口区水电路680号",121.4824404831106,31.289123815692378,"2022-03-22"
"虹口区","上海市虹口区水电路1381弄",121.48389358210353,31.303705000825573,"2022-03-22"
"虹口区","上海市虹口区运光路71弄",121.50208301105286,31.29599184163938,"2022-03-22"
"虹口区","上海市虹口区虹湾路55号",121.48112760960774,31.318441363438303,"2022-03-22"
"虹口区","上海市虹口区四川北路1774弄",121.4900271222951,31.265406773735187,"2022-03-22"
"虹口区","上海市虹口区广中五村",121.48291532740316,31.283628136130805,"2022-03-22"
"虹口区","上海市虹口区花园路118弄",121.48014396507433,31.276928870008113,"2022-03-22"
"虹口区","上海市虹口区四川北路1545弄",121.48867687928306,31.26148799735084,"2022-03-22"
"虹口区","上海市虹口区奎照路786弄",121.47636461413275,31.30600383722371,"2022-03-22"
"虹口区","上海市虹口区天宝西路252弄",121.49907305878058,31.2790654132163,"2022-03-22"
"虹口区","上海市虹口区已对相关居住地落实终末消毒措施",121.51158645453457,31.269746698931357,"2022-03-22"
"杨浦区","上海市杨浦区怀德路201弄",121.53442578229522,31.260052928759666,"2022-03-22"
"杨浦区","上海市杨浦区国权北路1450弄",121.50676578784584,31.342222216477044,"2022-03-22"
"杨浦区","上海市杨浦区包头路186号",121.54526258064539,31.316867450367035,"2022-03-22"
"杨浦区","上海市杨浦区已对相关居住地落实终末消毒措施",121.53251993732523,31.265524144657057,"2022-03-22"
"宝山区","上海市宝山区城银路655弄",121.35609776567642,31.322042743754995,"2022-03-22"
"宝山区","上海市宝山区顾陈路231弄",121.40055436638193,31.347039286298347,"2022-03-22"
"宝山区","上海市宝山区宝荻路535弄",121.40110134460696,31.366305767930893,"2022-03-22"
"宝山区","上海市宝山区白杨村",121.40288564884143,31.347963164987032,"2022-03-22"
"宝山区","上海市宝山区泗塘五村",121.46657137729352,31.340141093093475,"2022-03-22"
"宝山区","上海市宝山区新沪路475弄",121.4251243695381,31.277143907644064,"2022-03-22"
"宝山区","上海市宝山区羌家村",121.39682729682103,31.36633097424639,"2022-03-22"
"宝山区","上海市宝山区朱家弄村",121.3959866625248,31.347668338968923,"2022-03-22"
"宝山区","上海市宝山区沙浦路518弄",121.38810268421648,31.36371888532565,"2022-03-22"
"宝山区","上海市宝山区沪太路3717弄",121.40711154745202,31.35149576189261,"2022-03-22"
"宝山区","上海市宝山区陈家行村",121.35713045769072,31.33336993045677,"2022-03-22"
"宝山区","上海市宝山区沪太路4332号",121.40210942305026,31.345060121186705,"2022-03-22"
"宝山区","上海市宝山区已对相关居住地落实终末消毒措施",121.4965630135246,31.41027947347614,"2022-03-22"
"闵行区","上海市闵行区报春路816弄",121.38180628123594,31.127769513183583,"2022-03-22"
"闵行区","上海市闵行区报春路817弄",121.38467636734032,31.126165853093777,"2022-03-22"
"闵行区","上海市闵行区报春路863弄",121.3818754507602,31.12515855724963,"2022-03-22"
"闵行区","上海市闵行区碧江路401弄",121.40774898504189,31.01701611482239,"2022-03-22"
"闵行区","上海市闵行区曹家塘路220弄",121.45165537362253,31.047357691215726,"2022-03-22"
"闵行区","上海市闵行区曹中村",121.43942386613757,31.094330887952427,"2022-03-22"
"闵行区","上海市闵行区漕宝路1467弄",121.38557098979771,31.166283825765817,"2022-03-22"
"闵行区","上海市闵行区昌林路430弄",121.5242409740842,31.07063518745526,"2022-03-22"
"闵行区","上海市闵行区东川路500号",121.46049901170717,31.031366877088224,"2022-03-22"
"闵行区","上海市闵行区东川路800号",121.44328397474452,31.032028841151515,"2022-03-22"
"闵行区","上海市闵行区放鹤路2323弄",121.42838369141995,31.051288513695827,"2022-03-22"
"闵行区","上海市闵行区放鹤路2号",121.48357351585031,31.056803160646666,"2022-03-22"
"闵行区","上海市闵行区富国路355弄",121.38350632441357,31.029933856342893,"2022-03-22"
"闵行区","上海市闵行区富卓路789弄",121.38716117021147,31.03080841623792,"2022-03-22"
"闵行区","上海市闵行区共和村",121.47117124048792,31.055826367052422,"2022-03-22"
"闵行区","上海市闵行区顾戴路1325弄",121.39214802341957,31.141174162643114,"2022-03-22"
"闵行区","上海市闵行区光继村",121.5409259209654,31.00868857263331,"2022-03-22"
"闵行区","上海市闵行区虹井路618弄",121.37663770082318,31.18802589817182,"2022-03-22"
"闵行区","上海市闵行区虹梅南路1008号",121.43092284177445,31.12991973952685,"2022-03-22"
"闵行区","上海市闵行区虹梅南路1781弄",121.43407742123384,31.113478423057806,"2022-03-22"
"闵行区","上海市闵行区虹梅南路2555弄",121.43927438810071,31.103561775366988,"2022-03-22"
"闵行区","上海市闵行区虹梅南路788号",121.42928514099921,31.13224108483293,"2022-03-22"
"闵行区","上海市闵行区虹梅南路990号",121.43009586172197,31.130765009824135,"2022-03-22"
"闵行区","上海市闵行区虹中路480弄",121.38765514841141,31.191778082848597,"2022-03-22"
"闵行区","上海市闵行区沪光路39弄",121.42910089853912,31.08452255101005,"2022-03-22"
"闵行区","上海市闵行区沪闵路3131弄",121.4162969907832,31.061325513380435,"2022-03-22"
"闵行区","上海市闵行区汇东村",121.57123465904151,31.024527418578874,"2022-03-22"
"闵行区","上海市闵行区剑川路100弄",121.47863777622575,31.050560169154167,"2022-03-22"
"闵行区","上海市闵行区剑川路121弄",121.47619672083293,31.048367676565242,"2022-03-22"
"闵行区","上海市闵行区剑川路150弄",121.47059255207839,31.04974024307159,"2022-03-22"
"闵行区","上海市闵行区剑川路198弄",121.46883496989064,31.046397670646627,"2022-03-22"
"闵行区","上海市闵行区剑川路综合服务中心工地宿舍",121.45296788780317,31.040653521144332,"2022-03-22"
"闵行区","上海市闵行区江川路241弄",121.42902903409832,31.007747726019506,"2022-03-22"
"闵行区","上海市闵行区江川路248弄",121.42741873164113,31.011031943301752,"2022-03-22"
"闵行区","上海市闵行区江柳路888弄",121.49254138958698,31.10468927146431,"2022-03-22"
"闵行区","上海市闵行区金阳路116弄",121.4295399902724,31.046002183833977,"2022-03-22"
"闵行区","上海市闵行区景谷中路58弄",121.42133325079433,31.025337816029474,"2022-03-22"
"闵行区","上海市闵行区老沪闵路1351弄",121.44156156375968,31.119387921096553,"2022-03-22"
"闵行区","上海市闵行区老沪闵路1498弄",121.44031974622268,31.115698615093955,"2022-03-22"
"闵行区","上海市闵行区老沪闵路2259弄",121.42117326258301,31.09760018366756,"2022-03-22"
"闵行区","上海市闵行区黎安路486号",121.37847275931897,31.135869776874898,"2022-03-22"
"闵行区","上海市闵行区莲花南路1111弄",121.41668398079689,31.110820848001907,"2022-03-22"
"闵行区","上海市闵行区莲花南路155弄",121.41250892627818,31.137370962509983,"2022-03-22"
"闵行区","上海市闵行区莲花南路988弄",121.41391998457324,31.1169198722606,"2022-03-22"
"闵行区","上海市闵行区联航路2165弄",121.51009893121686,31.077578217184772,"2022-03-22"
"闵行区","上海市闵行区龙吴路3355号",121.46078628980926,31.100808760520863,"2022-03-22"
"闵行区","上海市闵行区龙吴路5511弄",121.47244099532627,31.050396277321234,"2022-03-22"
"闵行区","上海市闵行区龙吴路5530弄",121.47467885401272,31.049835299484318,"2022-03-22"
"闵行区","上海市闵行区龙州南路58弄",121.43685821577053,31.129233193307265,"2022-03-22"
"闵行区","上海市闵行区芦胜村",121.48713826160557,31.113515214134704,"2022-03-22"
"闵行区","上海市闵行区罗秀路1339弄",121.42545898834057,31.134816838509607,"2022-03-22"
"闵行区","上海市闵行区罗秀路1501号",121.42003519933242,31.13369882233902,"2022-03-22"
"闵行区","上海市闵行区罗秀路1955弄",121.41051899991247,31.133168865042535,"2022-03-22"
"闵行区","上海市闵行区罗秀路1980弄",121.4099636674462,31.13403172486834,"2022-03-22"
"闵行区","上海市闵行区梅陇二村",121.41705551995581,31.14070474980123,"2022-03-22"
"闵行区","上海市闵行区闵驰一路197弄",121.54980324550667,31.046160668984555,"2022-03-22"
"闵行区","上海市闵行区瓶北路479弄",121.40368936278121,31.057472757245165,"2022-03-22"
"闵行区","上海市闵行区浦驰南路238弄",121.51145655955784,31.07451346340057,"2022-03-22"
"闵行区","上海市闵行区浦连路388弄",121.54246022677646,31.06104362671443,"2022-03-22"
"闵行区","上海市闵行区浦涛路100弄",121.55004192528067,31.056318322716844,"2022-03-22"
"闵行区","上海市闵行区普杰路69弄",121.42891953065666,31.122662451085805,"2022-03-22"
"闵行区","上海市闵行区普乐路425弄",121.43091314007495,31.12098620956612,"2022-03-22"
"闵行区","上海市闵行区普乐路665弄",121.42746194013617,31.12411971896687,"2022-03-22"
"闵行区","上海市闵行区七莘路1818弄",121.36841802574578,31.144411849655285,"2022-03-22"
"闵行区","上海市闵行区瑞丽路61弄",121.41626429246263,31.010142421039447,"2022-03-22"
"闵行区","上海市闵行区山花路108弄",121.38980946468544,31.12716602829225,"2022-03-22"
"闵行区","上海市闵行区上中西路1011弄",121.41775655757581,31.134922472885403,"2022-03-22"
"闵行区","上海市闵行区上中西路738弄",121.42392369439345,31.137688474840502,"2022-03-22"
"闵行区","上海市闵行区上中西路855弄",121.42117425071906,31.136381250601033,"2022-03-22"
"闵行区","上海市闵行区上中西路925弄",121.41958433979696,31.135219206707013,"2022-03-22"
"闵行区","上海市闵行区尚义路229弄",121.4574487255175,31.048501484502985,"2022-03-22"
"闵行区","上海市闵行区申滨路1058弄",121.31639904010453,31.21683683030968,"2022-03-22"
"闵行区","上海市闵行区莘松路958弄",121.3554149636583,31.11287082716113,"2022-03-22"
"闵行区","上海市闵行区莘朱路1760弄",121.42647245661692,31.128238836121053,"2022-03-22"
"闵行区","上海市闵行区疏影路1111弄",121.36535552260116,31.123058688602324,"2022-03-22"
"闵行区","上海市闵行区疏影路758弄",121.37461184223707,31.126199238807647,"2022-03-22"
"闵行区","上海市闵行区曙建路185弄",121.42530340182623,31.098219705877217,"2022-03-22"
"闵行区","上海市闵行区水清路1100弄",121.38134024033737,31.134785078626493,"2022-03-22"
"闵行区","上海市闵行区塘口村",121.4864078493954,31.093782000019353,"2022-03-22"
"闵行区","上海市闵行区塘湾村",121.44902908763356,31.06164598926759,"2022-03-22"
"闵行区","上海市闵行区天山西路4178弄",121.31229477205999,31.221492918911334,"2022-03-22"
"闵行区","上海市闵行区同乐路151弄",121.42503597627591,31.13028982635191,"2022-03-22"
"闵行区","上海市闵行区吴河路328号",121.43789503999015,31.049485392411327,"2022-03-22"
"闵行区","上海市闵行区西环二村",121.37250828022437,31.108932913844914,"2022-03-22"
"闵行区","上海市闵行区向阳路228弄",121.44118526358154,31.081272362452705,"2022-03-22"
"闵行区","上海市闵行区向阳路350号",121.44009388227394,31.080821567788632,"2022-03-22"
"闵行区","上海市闵行区新建村",121.45240653668998,31.06953048171609,"2022-03-22"
"闵行区","上海市闵行区新龙路1111弄",121.34644098144416,31.159594464445956,"2022-03-22"
"闵行区","上海市闵行区新镇路1060弄",121.36905797859109,31.161241278788992,"2022-03-22"
"闵行区","上海市闵行区许泾村",121.43710372266641,31.085241432374588,"2022-03-22"
"闵行区","上海市闵行区许浦村",121.3441344023862,31.230791664007622,"2022-03-22"
"闵行区","上海市闵行区盐铁塘路176弄",121.51800484740336,31.041461150067278,"2022-03-22"
"闵行区","上海市闵行区杨家巷村",121.30853401604246,31.230214548177734,"2022-03-22"
"闵行区","上海市闵行区业祥路111弄",121.44063064975968,31.129810312865363,"2022-03-22"
"闵行区","上海市闵行区益文路101弄",121.41775655757581,31.134922472885403,"2022-03-22"
"闵行区","上海市闵行区银春路2200弄",121.39244401508509,31.030873862853017,"2022-03-22"
"闵行区","上海市闵行区银都路2688弄",121.4131855299883,31.103773268877724,"2022-03-22"
"闵行区","上海市闵行区银都路666弄",121.45226819764144,31.11374121614828,"2022-03-22"
"闵行区","上海市闵行区银林路1002弄",121.37740611135642,31.022098892305028,"2022-03-22"
"闵行区","上海市闵行区银林路100弄",121.394775080496,31.027396064753034,"2022-03-22"
"闵行区","上海市闵行区永德路228弄",121.46870934440727,31.048839329363933,"2022-03-22"
"闵行区","上海市闵行区永德路700弄",121.45851717009106,31.048518809909933,"2022-03-22"
"闵行区","上海市闵行区永颂路299弄",121.50581834502445,31.03802583659167,"2022-03-22"
"闵行区","上海市闵行区永跃路550弄",121.51681845531633,31.03667290244062,"2022-03-22"
"闵行区","上海市闵行区中春路255号",121.40682399985828,31.032147819358087,"2022-03-22"
"闵行区","上海市闵行区颛兴路666弄",121.39609931003575,31.07168435979389,"2022-03-22"
"闵行区","上海市闵行区紫光路801弄",121.45463702927127,31.017745879084558,"2022-03-22"
"闵行区","上海市闵行区已对相关居住地落实终末消毒措施",121.38861193361008,31.118842580087428,"2022-03-22"
"嘉定区","上海市嘉定区安虹路299弄",121.20527496546767,31.285983246555276,"2022-03-22"
"嘉定区","上海市嘉定区墨玉路388弄",121.16864835490934,31.306530657168736,"2022-03-22"
"嘉定区","上海市嘉定区城北路3980号",121.19949616612197,31.453901923227715,"2022-03-22"
"嘉定区","上海市嘉定区大北街208号",121.22000762498405,31.436415488672335,"2022-03-22"
"嘉定区","上海市嘉定区高台路560弄",121.24945488564822,31.352756115626754,"2022-03-22"
"嘉定区","上海市嘉定区恒飞路488弄",121.16759095949352,31.37190756881306,"2022-03-22"
"嘉定区","上海市嘉定区娄塘路864弄",121.22136741249214,31.439892042880604,"2022-03-22"
"嘉定区","上海市嘉定区南新路626弄",121.22217357702017,31.433458082139747,"2022-03-22"
"嘉定区","上海市嘉定区塔城路688弄",121.24527076067172,31.380625786409816,"2022-03-22"
"嘉定区","上海市嘉定区嘉唐公路626号",121.24229179993952,31.414115415344558,"2022-03-22"
"嘉定区","上海市嘉定区吴杨路100弄",121.3031901762247,31.275854060193478,"2022-03-22"
"嘉定区","上海市嘉定区海波路333弄",121.34678197821576,31.272686887163854,"2022-03-22"
"嘉定区","上海市嘉定区海川路58弄",121.35465921923274,31.27186612221923,"2022-03-22"
"嘉定区","上海市嘉定区华江支路328弄",121.34625530169525,31.264974483243215,"2022-03-22"
"嘉定区","上海市嘉定区华江支路677弄",121.34509100792378,31.272631871369274,"2022-03-22"
"嘉定区","上海市嘉定区金园一路1115弄",121.32613936674922,31.25350779199863,"2022-03-22"
"嘉定区","上海市嘉定区金园一路1118弄",121.3197760400082,31.25380584839374,"2022-03-22"
"嘉定区","上海市嘉定区嘉涌路88号",121.34327652062417,31.275305925573086,"2022-03-22"
"嘉定区","上海市嘉定区临夏路800弄",121.3352201574885,31.262195954347277,"2022-03-22"
"嘉定区","上海市嘉定区环城路160弄",121.26150008699828,31.398997552117443,"2022-03-22"
"嘉定区","上海市嘉定区环城路600弄",121.25859873986215,31.400434720951047,"2022-03-22"
"嘉定区","上海市嘉定区汇源路218弄",121.21075085619539,31.42255935330601,"2022-03-22"
"嘉定区","上海市嘉定区秋竹路801弄",121.22598719561122,31.389074616934327,"2022-03-22"
"嘉定区","上海市嘉定区安亭镇老宅村",121.23193793063152,31.29317427484085,"2022-03-22"
"嘉定区","上海市嘉定区嘉定镇街道桃园小区",121.25142639917884,31.393729207105928,"2022-03-22"
"嘉定区","上海市嘉定区马陆镇马陆塘街马陆汽配城",121.29638021198411,31.345512086944307,"2022-03-22"
"嘉定区","上海市嘉定区江桥镇五四村红光村增建村",121.29648118152343,31.24920516257341,"2022-03-22"
"嘉定区","上海市嘉定区嘉定工业区草庵村灯塔村旺泾村陆渡村",121.24646748352676,31.36151930813377,"2022-03-22"
"嘉定区","上海市嘉定区徐行镇徐行村",121.28089683855303,31.425087593431112,"2022-03-22"
"嘉定区","上海市嘉定区华亭镇唐行石村",121.24806269419673,31.467475025845893,"2022-03-22"
"嘉定区","上海市嘉定区已对相关居住地落实终末消毒措施",121.27259505835202,31.3801553396772,"2022-03-22"
"金山区","上海市金山区清泉路79号",121.18428956061851,30.897533711453388,"2022-03-22"
"金山区","上海市金山区金光村",121.3967523781415,30.803094380407835,"2022-03-22"
"金山区","上海市金山区已对相关居住地落实终末消毒措施",121.34848004512126,30.747852376570318,"2022-03-22"
"松江区","上海市松江区涞亭南路888弄",121.34864748926833,31.129727701833797,"2022-03-22"
"松江区","上海市松江区影振路299弄",121.31506459678623,31.010332420418038,"2022-03-22"
"松江区","上海市松江区陈春公路911弄",121.33519419645924,31.076238782826255,"2022-03-22"
"松江区","上海市松江区银都西路85号",121.37600511408304,31.088377447499067,"2022-03-22"
"松江区","上海市松江区庄家村",121.32685792132665,31.137603398022964,"2022-03-22"
"松江区","上海市松江区涞坊路288弄",121.32426181840282,31.160382454462308,"2022-03-22"
"松江区","上海市松江区涞亭北路600弄",121.33258084606962,31.16261420713281,"2022-03-22"
"松江区","上海市松江区米筛浜路475弄",121.22054985395604,31.135919484968515,"2022-03-22"
"松江区","上海市松江区崇南公路599弄",121.14522099636187,31.031109810674604,"2022-03-22"
"松江区","上海市松江区陈春公路555弄",121.36140666140984,31.081980676068873,"2022-03-22"
"松江区","上海市松江区盛龙路817号",121.31685394201477,31.126300245976207,"2022-03-22"
"松江区","上海市松江区九亭大街254号",121.34226889133363,31.138910450707282,"2022-03-22"
"松江区","上海市松江区新南路1259弄",121.34138989939213,31.092319468620286,"2022-03-22"
"松江区","上海市松江区长溇村",121.29298201207042,30.970852091222323,"2022-03-22"
"松江区","上海市松江区莘松路1500弄",121.34328334774605,31.099843709789116,"2022-03-22"
"松江区","上海市松江区已对相关居住地落实终末消毒措施",121.23447959624146,31.037135176464492,"2022-03-22"
"青浦区","上海市青浦区诸光路1588弄",121.30784097334151,31.190397858583918,"2022-03-22"
"青浦区","上海市青浦区诸光路1355弄",121.30626399801875,31.1876238336174,"2022-03-22"
"青浦区","上海市青浦区赵巷村",121.19887938955883,31.1517091783641,"2022-03-22"
"青浦区","上海市青浦区赵华路89弄",121.21262975200004,31.158741264656456,"2022-03-22"
"青浦区","上海市青浦区育才路42弄",121.27654714061023,31.173070510987216,"2022-03-22"
"青浦区","上海市青浦区盈港东路8300弄",121.14859548101009,31.17019932813101,"2022-03-22"
"青浦区","上海市青浦区新府中路1331弄",121.23690897366264,31.23114189963422,"2022-03-22"
"青浦区","上海市青浦区外青松公路6161弄",121.13774592672168,31.16102388890018,"2022-03-22"
"青浦区","上海市青浦区华腾路555弄",121.22998517165628,31.242800296470087,"2022-03-22"
"青浦区","上海市青浦区沪青平公路2103弄",121.26865670733518,31.163480272628686,"2022-03-22"
"青浦区","上海市青浦区光联村",121.31758085083345,31.16595443656359,"2022-03-22"
"青浦区","上海市青浦区已对相关居住地落实终末消毒措施",121.13055310467274,31.155454317980737,"2022-03-22"
"奉贤区","上海市奉贤区运河路200弄",121.47600475294546,30.928573020372045,"2022-03-22"
"奉贤区","上海市奉贤区西闸路1118弄",121.49997783209024,31.010261039967542,"2022-03-22"
"奉贤区","上海市奉贤区西闸路75号",121.49997783209024,31.010261039967542,"2022-03-22"
"奉贤区","上海市奉贤区新奉公路6328号",121.644750005706,30.928737820714264,"2022-03-22"
"奉贤区","上海市奉贤区海滨新一村",121.57557203736589,30.867377434404805,"2022-03-22"
"奉贤区","上海市奉贤区南奉公路3111弄",121.581473994397,30.930073870042108,"2022-03-22"
"奉贤区","上海市奉贤区已对相关居住地落实终末消毒措施",121.48050373643107,30.923720110285377,"2022-03-22"
"崇明区","上海市崇明区南海村",121.69548899582607,31.52630808166582,"2022-03-22"
"崇明区","上海市崇明区四滧村",121.66331654330843,31.532605437620504,"2022-03-22"
"崇明区","上海市崇明区小漾村",121.67945927298383,31.55449914449029,"2022-03-22"
"崇明区","上海市崇明区江南大道",121.76544086783761,31.358963780322465,"2022-03-22"
"崇明区","上海市崇明区已对相关居住地落实终末消毒措施",121.40355686271847,31.62856998440405,"2022-03-22"
"崇明区","上海市崇明区资料各区卫健委新闻办",121.40355686271847,31.62856998440405,"2022-03-22"
"崇明区","上海市崇明区编辑黄景源",121.40355686271847,31.62856998440405,"2022-03-22"
