"district","address","lng","lat","date"
"浦东新区","上海市浦东新区板泉路1555弄",121.53688426481492,31.18970225553777,"2022-05-01"
"浦东新区","上海市浦东新区板泉路50号",121.50119826995608,31.163464745166774,"2022-05-01"
"浦东新区","上海市浦东新区北艾路1765弄",121.52839860147601,31.184265453706548,"2022-05-01"
"浦东新区","上海市浦东新区北艾路73弄",121.55045514581526,31.191186130381443,"2022-05-01"
"浦东新区","上海市浦东新区北蔡镇联勤村冯桥队冯家宅",121.55744791522713,31.171212397581485,"2022-05-01"
"浦东新区","上海市浦东新区北蔡镇联勤村冯桥队张家宅",121.55744791522713,31.171212397581485,"2022-05-01"
"浦东新区","上海市浦东新区北蔡镇联勤村李家队李家宅",121.55718596934042,31.173231011079945,"2022-05-01"
"浦东新区","上海市浦东新区北蔡镇联勤村麦家宅",121.55391344236757,31.16926349405447,"2022-05-01"
"浦东新区","上海市浦东新区北蔡镇南新村赵家厍",121.54343515774643,31.176791383130574,"2022-05-01"
"浦东新区","上海市浦东新区北蔡镇卫行村张浜队曹家宅",121.58720141066752,31.166665202015878,"2022-05-01"
"浦东新区","上海市浦东新区北蔡镇卫行村张浜队杨家宅",121.58720141066752,31.166665202015878,"2022-05-01"
"浦东新区","上海市浦东新区北蔡镇卫行村朱家队朱家宅",121.58720141066752,31.166665202015878,"2022-05-01"
"浦东新区","上海市浦东新区北蔡镇一六村金桥队南赵家宅",121.60272673496593,31.173188295681612,"2022-05-01"
"浦东新区","上海市浦东新区北蔡镇一六村赵家队南赵家宅",121.60272673496593,31.173188295681612,"2022-05-01"
"浦东新区","上海市浦东新区北蔡镇御桥村印家队东印家圈",121.56463768303735,31.17407504173234,"2022-05-01"
"浦东新区","上海市浦东新区北蔡镇中界村陈家队陈家宅",121.57857947438275,31.194413133383005,"2022-05-01"
"浦东新区","上海市浦东新区北蔡镇中界村复兴队苏家宅",121.57702962788638,31.19161049851133,"2022-05-01"
"浦东新区","上海市浦东新区北蔡镇中界村黄家队黄家宅",121.57417373500905,31.19544617406339,"2022-05-01"
"浦东新区","上海市浦东新区北蔡镇中界村季家队季家宅",121.57876102192631,31.19930987845819,"2022-05-01"
"浦东新区","上海市浦东新区北蔡镇中界村林家队中界庙",121.57854102690692,31.190867872329996,"2022-05-01"
"浦东新区","上海市浦东新区北蔡镇中界村陆家队陆家宅",121.50741975425709,31.19056320545643,"2022-05-01"
"浦东新区","上海市浦东新区北蔡镇中界村沈家队沈家宅",121.57417373500905,31.19544617406339,"2022-05-01"
"浦东新区","上海市浦东新区北蔡镇中界村苏家队苏家宅",121.57702962788638,31.19161049851133,"2022-05-01"
"浦东新区","上海市浦东新区北新园路350弄",121.63335446132862,31.32701601446308,"2022-05-01"
"浦东新区","上海市浦东新区北张家浜路172号",121.53232518469068,31.222430470322667,"2022-05-01"
"浦东新区","上海市浦东新区北张家浜路58号",121.52762345365146,31.222173076955738,"2022-05-01"
"浦东新区","上海市浦东新区北中路247弄",121.56372599277528,31.190340323055423,"2022-05-01"
"浦东新区","上海市浦东新区北中路278弄",121.56280280420268,31.189024178541377,"2022-05-01"
"浦东新区","上海市浦东新区北中路280弄",121.56393853185894,31.18991772544677,"2022-05-01"
"浦东新区","上海市浦东新区博华路930弄",121.55674921320147,31.18032002999115,"2022-05-01"
"浦东新区","上海市浦东新区博华路999弄",121.55711392523853,31.17680629046571,"2022-05-01"
"浦东新区","上海市浦东新区博山东路111弄",121.57015076361317,31.257144215743075,"2022-05-01"
"浦东新区","上海市浦东新区博山东路173弄",121.57241332570116,31.257892721582024,"2022-05-01"
"浦东新区","上海市浦东新区博山东路553弄",121.57792748424362,31.261532678902576,"2022-05-01"
"浦东新区","上海市浦东新区博兴路1663弄",121.60720101505002,31.28077609395253,"2022-05-01"
"浦东新区","上海市浦东新区博兴路465弄",121.58987225260978,31.272066665151705,"2022-05-01"
"浦东新区","上海市浦东新区博兴路799弄",121.59697731021042,31.27188533546996,"2022-05-01"
"浦东新区","上海市浦东新区博兴路916弄",121.59799500052266,31.270420178729555,"2022-05-01"
"浦东新区","上海市浦东新区博兴路986弄",121.59726297136258,31.27067103482398,"2022-05-01"
"浦东新区","上海市浦东新区曹路镇东海村范家宅",121.67786990104503,31.30705492876369,"2022-05-01"
"浦东新区","上海市浦东新区曹路镇顾东村船板桥",121.67028056694399,31.30311645627832,"2022-05-01"
"浦东新区","上海市浦东新区曹路镇光明村凌家圈",121.66529263576926,31.295885077434527,"2022-05-01"
"浦东新区","上海市浦东新区曹路镇光明村沙桥宅",121.65818551206597,31.29296768284297,"2022-05-01"
"浦东新区","上海市浦东新区曹路镇联合村路北宅",121.69192757380122,31.275051532610338,"2022-05-01"
"浦东新区","上海市浦东新区曹路镇联合村路南宅",121.34867488758638,31.408630188595996,"2022-05-01"
"浦东新区","上海市浦东新区曹路镇联合村西柴场",121.6774631483101,31.303329042391074,"2022-05-01"
"浦东新区","上海市浦东新区曹路镇五四村沈家宅",121.6580400764039,31.26039873322475,"2022-05-01"
"浦东新区","上海市浦东新区曹路镇新星村胡家宅",121.70827942899935,31.261838735382085,"2022-05-01"
"浦东新区","上海市浦东新区曹路镇迅建村葛家宅",121.69714879491686,31.289202814595352,"2022-05-01"
"浦东新区","上海市浦东新区曹路镇迅建村黄家宅南",121.69922513827262,31.284090892321522,"2022-05-01"
"浦东新区","上海市浦东新区草高支路170弄",121.58842607056927,31.35798885280393,"2022-05-01"
"浦东新区","上海市浦东新区长清路643弄",121.49877580948733,31.164183177280332,"2022-05-01"
"浦东新区","上海市浦东新区长清路693弄",121.53688426481492,31.18970225553777,"2022-05-01"
"浦东新区","上海市浦东新区长清路773弄",121.49801207014275,31.16197386509983,"2022-05-01"
"浦东新区","上海市浦东新区昌里东路411弄",121.51930155140703,31.185511228668684,"2022-05-01"
"浦东新区","上海市浦东新区昌里东路650弄",121.52139900494227,31.18353589919409,"2022-05-01"
"浦东新区","上海市浦东新区昌里路167弄",121.50454544611682,31.181091626219736,"2022-05-01"
"浦东新区","上海市浦东新区陈春路620弄",121.55290760968805,31.178078194108803,"2022-05-01"
"浦东新区","上海市浦东新区成山路1488弄",121.53343153775677,31.18197984224341,"2022-05-01"
"浦东新区","上海市浦东新区成山路1728弄",121.53553420146397,31.181824984316307,"2022-05-01"
"浦东新区","上海市浦东新区成山路2008弄",121.54348528319389,31.183276545290262,"2022-05-01"
"浦东新区","上海市浦东新区成山路24弄",121.49230899795155,31.17414687706441,"2022-05-01"
"浦东新区","上海市浦东新区成山路300弄",121.50788786125835,31.176840044371215,"2022-05-01"
"浦东新区","上海市浦东新区川沙路1666弄",121.67243200864038,31.28581336211361,"2022-05-01"
"浦东新区","上海市浦东新区川沙新镇陈桥村",121.70777440164164,31.20232857380201,"2022-05-01"
"浦东新区","上海市浦东新区川沙新镇高桥村钱家宅",121.73491822974499,31.167107988943496,"2022-05-01"
"浦东新区","上海市浦东新区川沙新镇界龙村费家宅",121.69242190503522,31.1779911279228,"2022-05-01"
"浦东新区","上海市浦东新区川沙新镇连民村明华",121.7060510923513,31.09959641587775,"2022-05-01"
"浦东新区","上海市浦东新区川沙新镇鹿溪村砖桥",121.70279338741936,31.124679790400943,"2022-05-01"
"浦东新区","上海市浦东新区川沙新镇新吉村新华",121.71895920354638,31.115371521688367,"2022-05-01"
"浦东新区","上海市浦东新区川沙新镇药师村",121.68830201276296,31.209451836559015,"2022-05-01"
"浦东新区","上海市浦东新区川沙新镇长丰村陆家宅",121.66622561587194,31.197467509120983,"2022-05-01"
"浦东新区","上海市浦东新区川周公路2928弄",121.62099799954723,31.147934683568153,"2022-05-01"
"浦东新区","上海市浦东新区川周公路3010弄",121.61762315557678,31.147196115555047,"2022-05-01"
"浦东新区","上海市浦东新区创新西路199弄",121.66081045059668,31.207582255485885,"2022-05-01"
"浦东新区","上海市浦东新区创新中路399弄",121.67324470563524,31.215325489578447,"2022-05-01"
"浦东新区","上海市浦东新区创业路798号",121.70320642829286,31.22134908917077,"2022-05-01"
"浦东新区","上海市浦东新区春晖路368弄",121.59019618157669,31.34452056588041,"2022-05-01"
"浦东新区","上海市浦东新区达秀路151号",121.66013375705602,31.243292573416156,"2022-05-01"
"浦东新区","上海市浦东新区德平路100弄",121.56868266291822,31.253939981179144,"2022-05-01"
"浦东新区","上海市浦东新区德平路1189弄",121.57681313625848,31.2458715286161,"2022-05-01"
"浦东新区","上海市浦东新区德平路155弄",121.56795404731908,31.25660183659443,"2022-05-01"
"浦东新区","上海市浦东新区德平路25弄",121.56473182545479,31.260091745972705,"2022-05-01"
"浦东新区","上海市浦东新区丁香路1399弄",121.57049679089563,31.236774283462957,"2022-05-01"
"浦东新区","上海市浦东新区丁香路901弄",121.55712829812667,31.233140000844234,"2022-05-01"
"浦东新区","上海市浦东新区定水路50弄",121.55669666232914,31.24867909969323,"2022-05-01"
"浦东新区","上海市浦东新区东八灶63弄",121.55045460683195,31.227348292436346,"2022-05-01"
"浦东新区","上海市浦东新区东波路49弄",121.58337804275595,31.290723839031642,"2022-05-01"
"浦东新区","上海市浦东新区东方路1800弄",121.5284736099861,31.209089242825165,"2022-05-01"
"浦东新区","上海市浦东新区东海二村",121.90873702219533,30.960845876256776,"2022-05-01"
"浦东新区","上海市浦东新区东环龙路181弄",121.53536361324763,31.209338796414407,"2022-05-01"
"浦东新区","上海市浦东新区东建新村",121.52686142108733,31.222713416923376,"2022-05-01"
"浦东新区","上海市浦东新区东陆路1182弄",121.60235600428196,31.275368269875603,"2022-05-01"
"浦东新区","上海市浦东新区东陆路1268弄",121.60156055475287,31.272878863483545,"2022-05-01"
"浦东新区","上海市浦东新区东陆路429弄",121.59239119109031,31.286284671095828,"2022-05-01"
"浦东新区","上海市浦东新区东三街102弄",121.51710618257118,31.20763978042601,"2022-05-01"
"浦东新区","上海市浦东新区东三里桥路211弄",121.53022853963039,31.198047915743636,"2022-05-01"
"浦东新区","上海市浦东新区东书房路390弄",121.5416177958692,31.16966648705868,"2022-05-01"
"浦东新区","上海市浦东新区渡桥路288弄",121.58485970786411,31.120077939878794,"2022-05-01"
"浦东新区","上海市浦东新区芳甸路333弄",121.52969618510942,31.207201251711854,"2022-05-01"
"浦东新区","上海市浦东新区芳华路253弄",121.56163635449795,31.20224919259546,"2022-05-01"
"浦东新区","上海市浦东新区芳华路310弄",121.56401821155765,31.201334527828102,"2022-05-01"
"浦东新区","上海市浦东新区芳华路411弄",121.56557030381781,31.202399460853744,"2022-05-01"
"浦东新区","上海市浦东新区芳华路478弄",121.53688426481492,31.18970225553777,"2022-05-01"
"浦东新区","上海市浦东新区芳华路503弄",121.53688426481492,31.18970225553777,"2022-05-01"
"浦东新区","上海市浦东新区芳芯路312弄",121.56407749972132,31.19718263286784,"2022-05-01"
"浦东新区","上海市浦东新区高宝路379弄",121.58962611690005,31.28158489894264,"2022-05-01"
"浦东新区","上海市浦东新区高东二路118弄",121.63203026917635,31.32990867036808,"2022-05-01"
"浦东新区","上海市浦东新区高东镇革新村周家桥",121.6415321855387,31.329295306188307,"2022-05-01"
"浦东新区","上海市浦东新区高东镇竞赛村沈家宅",121.65224349060914,31.30482168254854,"2022-05-01"
"浦东新区","上海市浦东新区高东镇珊黄村苍头宅",121.6465324234989,31.336547689860097,"2022-05-01"
"浦东新区","上海市浦东新区高东镇先锋村卢家宅",121.59152154152609,31.290378301115442,"2022-05-01"
"浦东新区","上海市浦东新区高桥镇陆凌村瞿家宅",121.57010962122082,31.352399705849844,"2022-05-01"
"浦东新区","上海市浦东新区高桥镇陆凌村西凌家宅",121.58173863520024,31.35356684063773,"2022-05-01"
"浦东新区","上海市浦东新区高桥镇南塘村龚家宅",121.5746809183,31.34539427690696,"2022-05-01"
"浦东新区","上海市浦东新区高桥镇南塘村顾家宅",121.5746809183,31.34539427690696,"2022-05-01"
"浦东新区","上海市浦东新区高桥镇南塘村姚家宅",121.5746809183,31.34539427690696,"2022-05-01"
"浦东新区","上海市浦东新区高桥镇西浜头",121.61563583429707,31.292504199206448,"2022-05-01"
"浦东新区","上海市浦东新区高桥镇新农村北凌家宅",121.5644546083744,31.36308732015323,"2022-05-01"
"浦东新区","上海市浦东新区高桥镇新农村沈家宅",121.55850126826813,31.362552263234768,"2022-05-01"
"浦东新区","上海市浦东新区拱海路755弄",121.75774740665337,31.07802971646041,"2022-05-01"
"浦东新区","上海市浦东新区古桐南路117弄",121.62298792591292,31.205939961452376,"2022-05-01"
"浦东新区","上海市浦东新区古棕路555弄",121.92490167052519,30.887815475187587,"2022-05-01"
"浦东新区","上海市浦东新区崮山路157号",121.55848599707447,31.253071819138345,"2022-05-01"
"浦东新区","上海市浦东新区崮山路95号",121.55737820671956,31.253687382281104,"2022-05-01"
"浦东新区","上海市浦东新区光泽路428弄",121.62307622934456,31.336400104686092,"2022-05-01"
"浦东新区","上海市浦东新区海鸣路98弄",121.6775482178419,31.28862783374773,"2022-05-01"
"浦东新区","上海市浦东新区海鹏路301弄",121.68073091426376,31.295363983048894,"2022-05-01"
"浦东新区","上海市浦东新区海容路399弄",121.68625863721941,31.287655457702563,"2022-05-01"
"浦东新区","上海市浦东新区海松路52弄",121.68181436053933,31.28191619603565,"2022-05-01"
"浦东新区","上海市浦东新区海阳路1080弄",121.51343947914056,31.16413535922777,"2022-05-01"
"浦东新区","上海市浦东新区海阳路215弄",121.49560461137601,31.159262270593285,"2022-05-01"
"浦东新区","上海市浦东新区航城五路151弄",121.75421535921869,31.148331664371444,"2022-05-01"
"浦东新区","上海市浦东新区航瑞路175弄",121.59887381280308,31.07695788211063,"2022-05-01"
"浦东新区","上海市浦东新区航三路航吉路交界口工地生活区",121.61429035230421,31.04579326766702,"2022-05-01"
"浦东新区","上海市浦东新区航头路988弄",121.60690466406227,31.040624900894645,"2022-05-01"
"浦东新区","上海市浦东新区航头镇航东村",121.60773721360891,31.03214843823002,"2022-05-01"
"浦东新区","上海市浦东新区航头镇鹤东村沿江",121.60803796629367,31.060273364197414,"2022-05-01"
"浦东新区","上海市浦东新区航头镇梅园村沙北",121.59123174816858,31.06555502677004,"2022-05-01"
"浦东新区","上海市浦东新区航绣路50弄",121.60439363067024,31.076577146786715,"2022-05-01"
"浦东新区","上海市浦东新区合庆镇勤奋村卫家宅",121.732101682649,31.261476576156298,"2022-05-01"
"浦东新区","上海市浦东新区合庆镇向东村张家宅",121.7404823340738,31.241826968403426,"2022-05-01"
"浦东新区","上海市浦东新区合庆镇友谊村西钱家宅",121.73478033984921,31.207686649713512,"2022-05-01"
"浦东新区","上海市浦东新区合庆镇跃丰村徐家宅",121.71855613386404,31.229420815107666,"2022-05-01"
"浦东新区","上海市浦东新区和佳路105弄",121.52030208408404,31.133297374938646,"2022-05-01"
"浦东新区","上海市浦东新区和炯路77弄",121.52553031198265,31.139159418419815,"2022-05-01"
"浦东新区","上海市浦东新区和融路55弄",121.50636765884381,31.130799475794813,"2022-05-01"
"浦东新区","上海市浦东新区菏泽路567弄",121.60177210044444,31.270406002106668,"2022-05-01"
"浦东新区","上海市浦东新区菏泽路58弄",121.59668500159746,31.278713042423398,"2022-05-01"
"浦东新区","上海市浦东新区鹤洁路625弄",121.61322873485253,31.0753186370206,"2022-05-01"
"浦东新区","上海市浦东新区鹤永路599弄",121.60966982808309,31.080345152465775,"2022-05-01"
"浦东新区","上海市浦东新区洪山路1889弄",121.5163869991799,31.15759657107878,"2022-05-01"
"浦东新区","上海市浦东新区沪南路3158弄",121.57200872889946,31.12772554060315,"2022-05-01"
"浦东新区","上海市浦东新区沪南路3219弄",121.57455838942843,31.129993849742835,"2022-05-01"
"浦东新区","上海市浦东新区花木路1883弄",121.56865203070033,31.220731846309345,"2022-05-01"
"浦东新区","上海市浦东新区花山路300弄",121.57570166285099,31.352227321137764,"2022-05-01"
"浦东新区","上海市浦东新区华丰路50弄",121.51450495930594,31.197495463859788,"2022-05-01"
"浦东新区","上海市浦东新区华夏东路2026弄",121.6970084795962,31.205438982299057,"2022-05-01"
"浦东新区","上海市浦东新区华夏东路2170弄",121.6998972504552,31.205711633277275,"2022-05-01"
"浦东新区","上海市浦东新区华夏东路2345弄",121.70462197811548,31.206484796404514,"2022-05-01"
"浦东新区","上海市浦东新区华夏二路200弄",121.6906064358877,31.200057534311252,"2022-05-01"
"浦东新区","上海市浦东新区环林东路875弄",121.53759150074292,31.147101543815356,"2022-05-01"
"浦东新区","上海市浦东新区环桥路1137弄",121.58485970786411,31.120077939878794,"2022-05-01"
"浦东新区","上海市浦东新区环庆南路239弄",121.73137998400229,31.234790849212583,"2022-05-01"
"浦东新区","上海市浦东新区环庆南路336弄",121.7346897906538,31.23247181041194,"2022-05-01"
"浦东新区","上海市浦东新区惠南镇汇南村",121.74898102284259,31.041389909445435,"2022-05-01"
"浦东新区","上海市浦东新区惠南镇陆楼村长路",121.78080403451686,31.0810009735505,"2022-05-01"
"浦东新区","上海市浦东新区惠南镇远东村东联",121.81895021867588,31.04036499768895,"2022-05-01"
"浦东新区","上海市浦东新区季景北路185弄",121.59110032607248,31.348164315361803,"2022-05-01"
"浦东新区","上海市浦东新区济阳路65弄",121.48830893334616,31.173016198002603,"2022-05-01"
"浦东新区","上海市浦东新区济阳路95弄",121.48898329129251,31.169708122618275,"2022-05-01"
"浦东新区","上海市浦东新区佳林路959号",121.61950546494239,31.270787858994865,"2022-05-01"
"浦东新区","上海市浦东新区佳林路962弄",121.61936416148566,31.26943966522605,"2022-05-01"
"浦东新区","上海市浦东新区江东路25号",121.55593013823747,31.368827676072844,"2022-05-01"
"浦东新区","上海市浦东新区金港路2528弄",121.62180099484259,31.232713891045904,"2022-05-01"
"浦东新区","上海市浦东新区金高路1058弄",121.61602012939423,31.289339442423078,"2022-05-01"
"浦东新区","上海市浦东新区金高路1068弄",121.61496363228395,31.2871247508902,"2022-05-01"
"浦东新区","上海市浦东新区金高路2388号",121.6128159634707,31.265109834676228,"2022-05-01"
"浦东新区","上海市浦东新区金槐路789号工地生活区",121.6341992620925,31.242158722640546,"2022-05-01"
"浦东新区","上海市浦东新区金口路155弄",121.58424499740363,31.25593427683329,"2022-05-01"
"浦东新区","上海市浦东新区金口路471弄",121.58930820658007,31.25260682548617,"2022-05-01"
"浦东新区","上海市浦东新区金葵路945弄",121.60213861434853,31.244250205910852,"2022-05-01"
"浦东新区","上海市浦东新区金桥路1506弄",121.59646078454217,31.255564377215766,"2022-05-01"
"浦东新区","上海市浦东新区金晓路96弄",121.68123198907722,31.283805739728272,"2022-05-01"
"浦东新区","上海市浦东新区金杨路660弄",121.58839992987893,31.25750168417267,"2022-05-01"
"浦东新区","上海市浦东新区金杨路785弄",121.58943756257352,31.25969878847117,"2022-05-01"
"浦东新区","上海市浦东新区金豫路100号",121.62110750298889,31.261451495825547,"2022-05-01"
"浦东新区","上海市浦东新区锦绣路3088弄",121.5462948235069,31.185731419409098,"2022-05-01"
"浦东新区","上海市浦东新区京浦路160弄",121.57469457254375,31.15991251964416,"2022-05-01"
"浦东新区","上海市浦东新区京浦路82弄",121.57334019732636,31.15969157298491,"2022-05-01"
"浦东新区","上海市浦东新区居家桥路151弄",121.56804217108962,31.266784117232525,"2022-05-01"
"浦东新区","上海市浦东新区居家桥路911弄",121.57857767777172,31.251674052823255,"2022-05-01"
"浦东新区","上海市浦东新区巨峰路176弄",121.60320166908903,31.285412489153977,"2022-05-01"
"浦东新区","上海市浦东新区巨峰路90弄",121.60248023993398,31.284755704928653,"2022-05-01"
"浦东新区","上海市浦东新区巨野路61弄",121.55233260433111,31.250494065864,"2022-05-01"
"浦东新区","上海市浦东新区康涵路58弄",121.58485970786411,31.120077939878794,"2022-05-01"
"浦东新区","上海市浦东新区康桥路90弄",121.58485970786411,31.120077939878794,"2022-05-01"
"浦东新区","上海市浦东新区康桥镇花墙村",121.55274169266035,31.156328175262196,"2022-05-01"
"浦东新区","上海市浦东新区康桥镇火箭村",121.61498941365208,31.14512934591589,"2022-05-01"
"浦东新区","上海市浦东新区康桥镇汤巷村",121.61059382513065,31.144564683154275,"2022-05-01"
"浦东新区","上海市浦东新区康杉路118号",121.5643592981598,31.163154813399263,"2022-05-01"
"浦东新区","上海市浦东新区康杉路608弄",121.53688426481492,31.18970225553777,"2022-05-01"
"浦东新区","上海市浦东新区康泽路550弄",121.55045460683195,31.227348292436346,"2022-05-01"
"浦东新区","上海市浦东新区蓝村路30弄",121.53864979446423,31.21674943185774,"2022-05-01"
"浦东新区","上海市浦东新区崂山路310弄",121.52727985179388,31.23962527591257,"2022-05-01"
"浦东新区","上海市浦东新区崂山路502号",121.52356526867958,31.242727884421647,"2022-05-01"
"浦东新区","上海市浦东新区崂山路551弄",121.52875567791624,31.232572857538436,"2022-05-01"
"浦东新区","上海市浦东新区崂山路571弄",121.52954349184849,31.232309393717138,"2022-05-01"
"浦东新区","上海市浦东新区崂山三村",121.52639681747759,31.238932508563483,"2022-05-01"
"浦东新区","上海市浦东新区崂山四村",121.52454199626058,31.24117281086977,"2022-05-01"
"浦东新区","上海市浦东新区历城路100弄",121.49791550230043,31.179897773390458,"2022-05-01"
"浦东新区","上海市浦东新区利川路王桥路交界口工地生活区",121.6986327057888,31.215171381638122,"2022-05-01"
"浦东新区","上海市浦东新区利津路729弄",121.59658295409153,31.280678570870514,"2022-05-01"
"浦东新区","上海市浦东新区莲安西路125弄",121.55974578072166,31.18532718248633,"2022-05-01"
"浦东新区","上海市浦东新区莲溪路1099弄",121.56986339568053,31.18174774834683,"2022-05-01"
"浦东新区","上海市浦东新区莲溪路477弄",121.56893382913881,31.188689385868962,"2022-05-01"
"浦东新区","上海市浦东新区莲园路8弄",121.55045460683195,31.227348292436346,"2022-05-01"
"浦东新区","上海市浦东新区莲振路269号",121.57436094187736,31.173909356804987,"2022-05-01"
"浦东新区","上海市浦东新区莲中路250弄",121.5642366794577,31.187769568702244,"2022-05-01"
"浦东新区","上海市浦东新区莲中路356弄",121.56492999165029,31.185761076768486,"2022-05-01"
"浦东新区","上海市浦东新区林鸣路326弄",121.5321656456321,31.13857122920478,"2022-05-01"
"浦东新区","上海市浦东新区林培路红临路交界口工地生活区",121.50051187471591,31.12843690468946,"2022-05-01"
"浦东新区","上海市浦东新区林展路267弄",121.5139930149958,31.13367888524202,"2022-05-01"
"浦东新区","上海市浦东新区林展路278弄",121.51290103481787,31.132805821704117,"2022-05-01"
"浦东新区","上海市浦东新区林展路411弄",121.51568173952401,31.128169902288004,"2022-05-01"
"浦东新区","上海市浦东新区临沂路101弄",121.52104049121323,31.201323022068365,"2022-05-01"
"浦东新区","上海市浦东新区临沂路181弄",121.52066814357934,31.19757925080322,"2022-05-01"
"浦东新区","上海市浦东新区临沂路280弄",121.51602965324803,31.198943924920997,"2022-05-01"
"浦东新区","上海市浦东新区临沂路301弄",121.51651446873176,31.19676037501184,"2022-05-01"
"浦东新区","上海市浦东新区灵山路1415弄",121.57078020628401,31.244998737805226,"2022-05-01"
"浦东新区","上海市浦东新区灵山路1671弄",121.57231100870358,31.245771344870743,"2022-05-01"
"浦东新区","上海市浦东新区灵山路600弄",121.55040475087615,31.234124986355546,"2022-05-01"
"浦东新区","上海市浦东新区灵岩南路156弄",121.50071075955583,31.164839185970084,"2022-05-01"
"浦东新区","上海市浦东新区凌河路188弄",121.60216197029179,31.281903851498075,"2022-05-01"
"浦东新区","上海市浦东新区凌河路618弄",121.60815285956838,31.276965751274,"2022-05-01"
"浦东新区","上海市浦东新区凌兆路379弄",121.52553031198265,31.139159418419815,"2022-05-01"
"浦东新区","上海市浦东新区凌兆路396弄",121.52553031198265,31.139159418419815,"2022-05-01"
"浦东新区","上海市浦东新区凌兆路428弄",121.52553031198265,31.139159418419815,"2022-05-01"
"浦东新区","上海市浦东新区凌兆路521弄",121.52553031198265,31.139159418419815,"2022-05-01"
"浦东新区","上海市浦东新区凌兆路586弄",121.52553031198265,31.139159418419815,"2022-05-01"
"浦东新区","上海市浦东新区凌兆路99弄",121.49790094975117,31.147618905696845,"2022-05-01"
"浦东新区","上海市浦东新区龙居路180弄",121.56897173763133,31.258551238155807,"2022-05-01"
"浦东新区","上海市浦东新区罗山路108弄",121.55887945488784,31.254641589752865,"2022-05-01"
"浦东新区","上海市浦东新区罗山路1502弄",121.575171482939,31.234888265801676,"2022-05-01"
"浦东新区","上海市浦东新区苗圃路415弄",121.55650451478056,31.244040881421867,"2022-05-01"
"浦东新区","上海市浦东新区民唐路秦家港路交界口工地生活区",121.69745116455151,31.27622735160854,"2022-05-01"
"浦东新区","上海市浦东新区牟平路154弄",121.58962611690005,31.28158489894264,"2022-05-01"
"浦东新区","上海市浦东新区牟平路384弄",121.58962611690005,31.28158489894264,"2022-05-01"
"浦东新区","上海市浦东新区牡丹路399弄",121.55843739874638,31.215045531779246,"2022-05-01"
"浦东新区","上海市浦东新区南码头路144弄",121.51408347436066,31.20463778072207,"2022-05-01"
"浦东新区","上海市浦东新区南码头路1675弄",121.52084888264797,31.18090401847181,"2022-05-01"
"浦东新区","上海市浦东新区南码头路450弄",121.5163195364361,31.200368116304254,"2022-05-01"
"浦东新区","上海市浦东新区南桥路237弄",121.71515946106972,31.197580409147527,"2022-05-01"
"浦东新区","上海市浦东新区南桥路459弄",121.70791184238466,31.195454514332024,"2022-05-01"
"浦东新区","上海市浦东新区南桥路86弄",121.71613160729262,31.198286764843505,"2022-05-01"
"浦东新区","上海市浦东新区泥城镇横港村",121.85411366921956,30.916207684924256,"2022-05-01"
"浦东新区","上海市浦东新区鹏飞路333弄",121.53688426481492,31.18970225553777,"2022-05-01"
"浦东新区","上海市浦东新区鹏岳路152弄",121.56093334060584,31.177214966797443,"2022-05-01"
"浦东新区","上海市浦东新区鹏岳路233弄",121.53688426481492,31.18970225553777,"2022-05-01"
"浦东新区","上海市浦东新区浦电路221号",121.53004456666196,31.22498830738765,"2022-05-01"
"浦东新区","上海市浦东新区浦电路29弄",121.52179830174146,31.22198277216662,"2022-05-01"
"浦东新区","上海市浦东新区浦电路305弄",121.53191394042821,31.225381642362095,"2022-05-01"
"浦东新区","上海市浦东新区浦电路330弄",121.53452881793721,31.22662717934152,"2022-05-01"
"浦东新区","上海市浦东新区浦电路48弄",121.52301829045456,31.224774384963634,"2022-05-01"
"浦东新区","上海市浦东新区浦东大道136弄",121.52017353656555,31.24402420953977,"2022-05-01"
"浦东新区","上海市浦东新区浦东大道140弄",121.52166903557857,31.244048831438676,"2022-05-01"
"浦东新区","上海市浦东新区浦东大道1460弄",121.543161354227,31.248489774989338,"2022-05-01"
"浦东新区","上海市浦东新区浦东大道1585弄",121.54725475277486,31.250760642806057,"2022-05-01"
"浦东新区","上海市浦东新区浦东大道1615弄",121.54779571235296,31.25197620550338,"2022-05-01"
"浦东新区","上海市浦东新区浦东大道1851弄",121.5524974433922,31.253101686701353,"2022-05-01"
"浦东新区","上海市浦东新区浦东大道2639弄",121.57382941450709,31.27009640284229,"2022-05-01"
"浦东新区","上海市浦东新区浦东大道2894号",121.5828239679174,31.278944432984467,"2022-05-01"
"浦东新区","上海市浦东新区浦东大道290弄",121.52343779912772,31.24488774737473,"2022-05-01"
"浦东新区","上海市浦东新区浦东大道2920弄",121.58360261913344,31.280936343289373,"2022-05-01"
"浦东新区","上海市浦东新区浦东大道2970弄",121.58527436568751,31.2829352319847,"2022-05-01"
"浦东新区","上海市浦东新区浦东南路1288号",121.52355987884653,31.230896186745355,"2022-05-01"
"浦东新区","上海市浦东新区浦东南路1475弄",121.52575174429087,31.228549414736456,"2022-05-01"
"浦东新区","上海市浦东新区浦东南路1533号",121.5276446536615,31.227372301137734,"2022-05-01"
"浦东新区","上海市浦东新区浦东南路1700弄",121.5250607676926,31.22378497774176,"2022-05-01"
"浦东新区","上海市浦东新区浦东南路1862弄",121.5241351536951,31.221747612042826,"2022-05-01"
"浦东新区","上海市浦东新区浦东南路2108号",121.52288614971404,31.215786267718542,"2022-05-01"
"浦东新区","上海市浦东新区浦东南路2178弄",121.52048210450825,31.213021101599512,"2022-05-01"
"浦东新区","上海市浦东新区浦东南路2192弄",121.5198796110027,31.212275556710914,"2022-05-01"
"浦东新区","上海市浦东新区浦东南路2351弄",121.51946171927945,31.20559866583432,"2022-05-01"
"浦东新区","上海市浦东新区浦东南路2362号",121.51810914067308,31.205290958198496,"2022-05-01"
"浦东新区","上海市浦东新区浦东南路3643弄",121.51224617010111,31.19512553650647,"2022-05-01"
"浦东新区","上海市浦东新区浦东南路3905弄",121.50819768682872,31.188934282771708,"2022-05-01"
"浦东新区","上海市浦东新区浦东南路4200弄",121.50735920846572,31.188928336055383,"2022-05-01"
"浦东新区","上海市浦东新区浦东南路4800弄",121.50525196340041,31.186248877197798,"2022-05-01"
"浦东新区","上海市浦东新区浦建路60弄",121.52445369282894,31.213159230587877,"2022-05-01"
"浦东新区","上海市浦东新区浦建路83弄",121.5253901763231,31.215623976480853,"2022-05-01"
"浦东新区","上海市浦东新区浦明路688弄",121.51806826777238,31.22846279919593,"2022-05-01"
"浦东新区","上海市浦东新区浦三路12弄",121.51782779138736,31.202722003983574,"2022-05-01"
"浦东新区","上海市浦东新区浦三路741弄",121.52688172279186,31.19210877143124,"2022-05-01"
"浦东新区","上海市浦东新区浦三路786弄",121.52432613344654,31.18874414212256,"2022-05-01"
"浦东新区","上海市浦东新区栖山路1489弄",121.5710317318268,31.26382352513684,"2022-05-01"
"浦东新区","上海市浦东新区栖山路1899弄",121.58012761409864,31.267992295212288,"2022-05-01"
"浦东新区","上海市浦东新区栖山路401弄",121.55603344337112,31.253987830572694,"2022-05-01"
"浦东新区","上海市浦东新区栖山路450弄",121.55795312224595,31.253811250753607,"2022-05-01"
"浦东新区","上海市浦东新区栖霞路190弄",121.52608115292138,31.244186142787363,"2022-05-01"
"浦东新区","上海市浦东新区栖霞路86号",121.5242515740892,31.24224323405418,"2022-05-01"
"浦东新区","上海市浦东新区齐河路10弄",121.508225444469,31.18342313671538,"2022-05-01"
"浦东新区","上海市浦东新区清溪路260弄",121.58022328363546,31.348955343285247,"2022-05-01"
"浦东新区","上海市浦东新区清溪路365弄",121.57808163346913,31.347103664355974,"2022-05-01"
"浦东新区","上海市浦东新区清溪路400弄",121.57747563657209,31.347650837499692,"2022-05-01"
"浦东新区","上海市浦东新区晴阁路700弄",121.55045460683195,31.227348292436346,"2022-05-01"
"浦东新区","上海市浦东新区乳山路161弄",121.52801807926198,31.24159718403063,"2022-05-01"
"浦东新区","上海市浦东新区瑞福路52弄",121.60760264744353,31.101758418286778,"2022-05-01"
"浦东新区","上海市浦东新区瑞浦路8弄",121.55045460683195,31.227348292436346,"2022-05-01"
"浦东新区","上海市浦东新区瑞意路399弄",121.59268628445034,31.102791860761887,"2022-05-01"
"浦东新区","上海市浦东新区三彩路166弄",121.52553031198265,31.139159418419815,"2022-05-01"
"浦东新区","上海市浦东新区三彩路52弄",121.52553031198265,31.139159418419815,"2022-05-01"
"浦东新区","上海市浦东新区三彩路59弄",121.50635553171944,31.132930313734967,"2022-05-01"
"浦东新区","上海市浦东新区三林路168号",121.50263852318024,31.141592189223104,"2022-05-01"
"浦东新区","上海市浦东新区三林路184号",121.5025309960107,31.14241486936929,"2022-05-01"
"浦东新区","上海市浦东新区三林路235号",121.50273652831137,31.143691257217654,"2022-05-01"
"浦东新区","上海市浦东新区三林路788弄",121.51430643378824,31.147340445444716,"2022-05-01"
"浦东新区","上海市浦东新区三林路88弄",121.53688426481492,31.18970225553777,"2022-05-01"
"浦东新区","上海市浦东新区三林镇胡巷村金家宅",121.52500489308987,31.158715770519464,"2022-05-01"
"浦东新区","上海市浦东新区三林镇临江村丁家队丁家宅",121.4843862128452,31.127340605764598,"2022-05-01"
"浦东新区","上海市浦东新区三林镇临江村王家渡队王家渡",121.48103454515693,31.130823354677393,"2022-05-01"
"浦东新区","上海市浦东新区三林镇南阜村东汤队东汤家宅",121.52616765974199,31.136051601892248,"2022-05-01"
"浦东新区","上海市浦东新区三林镇南阜村瞿弄队瞿家里",121.52616765974199,31.136051601892248,"2022-05-01"
"浦东新区","上海市浦东新区三林镇三林村镇前队金家宅",121.59324952200511,31.131094754366096,"2022-05-01"
"浦东新区","上海市浦东新区三林镇天花庵村北陈队大陈家宅",121.53193954213525,31.128535900177152,"2022-05-01"
"浦东新区","上海市浦东新区三林镇天花庵村东瞿队大瞿家宅",121.53261120516505,31.1270776188598,"2022-05-01"
"浦东新区","上海市浦东新区三林镇天花庵村芦家队芦家油车",121.53315971050945,31.130072519334625,"2022-05-01"
"浦东新区","上海市浦东新区三林镇天花庵村闵北队闵家宅",121.53989017471241,31.12623849791897,"2022-05-01"
"浦东新区","上海市浦东新区三林镇天花庵村南陈队大陈家宅",121.53193954213525,31.128535900177152,"2022-05-01"
"浦东新区","上海市浦东新区三林镇天花庵村南周家队大周家宅",121.53193954213525,31.128535900177152,"2022-05-01"
"浦东新区","上海市浦东新区三林镇西林村圈门队西林街",121.50505047347453,31.142465402882358,"2022-05-01"
"浦东新区","上海市浦东新区三林镇西林村万家队西林街",121.50505047347453,31.142465402882358,"2022-05-01"
"浦东新区","上海市浦东新区三林镇西林村西林队金家宅",121.50671332680406,31.140756597820538,"2022-05-01"
"浦东新区","上海市浦东新区三林镇新任村",121.50281306394082,31.161867720395563,"2022-05-01"
"浦东新区","上海市浦东新区三林镇懿德村康家队康家宅",121.52282254968392,31.124973851684217,"2022-05-01"
"浦东新区","上海市浦东新区三林镇懿德村吴家队吴家宅",121.5221809798887,31.125604863131734,"2022-05-01"
"浦东新区","上海市浦东新区三林镇中林村三林桥队天打桥",121.50504616160806,31.14249746924122,"2022-05-01"
"浦东新区","上海市浦东新区三舒路288弄",121.52553031198265,31.139159418419815,"2022-05-01"
"浦东新区","上海市浦东新区三舒路62弄",121.50989269949552,31.130409298630166,"2022-05-01"
"浦东新区","上海市浦东新区商城路991弄",121.53038996513054,31.239703853545254,"2022-05-01"
"浦东新区","上海市浦东新区上川路538号",121.65282469427407,31.27863766097976,"2022-05-01"
"浦东新区","上海市浦东新区上南路1000弄",121.50066746123024,31.180593835385782,"2022-05-01"
"浦东新区","上海市浦东新区上南路1251弄",121.50260627401242,31.178521236106434,"2022-05-01"
"浦东新区","上海市浦东新区上南路3339弄",121.51310917220454,31.16583609100493,"2022-05-01"
"浦东新区","上海市浦东新区上南路3651弄",121.51345942152287,31.160585322193327,"2022-05-01"
"浦东新区","上海市浦东新区上南路3827弄",121.51337641809376,31.157441286606257,"2022-05-01"
"浦东新区","上海市浦东新区上南路3848弄",121.51183600380526,31.156075235710073,"2022-05-01"
"浦东新区","上海市浦东新区上南路4185弄",121.51939174128022,31.151945982231677,"2022-05-01"
"浦东新区","上海市浦东新区上南路4265弄",121.51980478215371,31.151809926314225,"2022-05-01"
"浦东新区","上海市浦东新区上南路6733弄",121.58485970786411,31.120077939878794,"2022-05-01"
"浦东新区","上海市浦东新区上南路7992弄",121.58100651620961,31.12500136433539,"2022-05-01"
"浦东新区","上海市浦东新区上南路929弄",121.50767882556616,31.18609371739358,"2022-05-01"
"浦东新区","上海市浦东新区上浦路510弄",121.50622294182614,31.152101739360106,"2022-05-01"
"浦东新区","上海市浦东新区盛荣路288弄",121.63626380338377,31.194416454082223,"2022-05-01"
"浦东新区","上海市浦东新区世博家园大道站路94弄",121.5456103147083,31.165459346349106,"2022-05-01"
"浦东新区","上海市浦东新区寿光路161弄",121.59052532071554,31.280396185422553,"2022-05-01"
"浦东新区","上海市浦东新区思浦路13弄",121.50015946946435,31.164910255877725,"2022-05-01"
"浦东新区","上海市浦东新区思浦路15弄",121.49998277277055,31.164508710192244,"2022-05-01"
"浦东新区","上海市浦东新区思浦路17弄",121.49938162672326,31.16382581592963,"2022-05-01"
"浦东新区","上海市浦东新区松林路283号",121.5404480224341,31.233375904274755,"2022-05-01"
"浦东新区","上海市浦东新区松林路333弄",121.54064564964631,31.23286465076705,"2022-05-01"
"浦东新区","上海市浦东新区唐镇虹四村吴张家宅",121.65836822740671,31.246790543527457,"2022-05-01"
"浦东新区","上海市浦东新区唐镇暮二村小丁家宅",121.66972460566384,31.2288207632593,"2022-05-01"
"浦东新区","上海市浦东新区唐镇前进村顾家宅",121.64855217360753,31.2141666626809,"2022-05-01"
"浦东新区","上海市浦东新区唐镇前进村西李家宅",121.64855217360753,31.2141666626809,"2022-05-01"
"浦东新区","上海市浦东新区唐镇唐四村龚家宅",121.66768949453099,31.221019816280922,"2022-05-01"
"浦东新区","上海市浦东新区唐镇小湾村小湾新村",121.69666496756919,31.239619872733037,"2022-05-01"
"浦东新区","上海市浦东新区唐镇小湾村张家老宅",121.69965803169788,31.23859395766161,"2022-05-01"
"浦东新区","上海市浦东新区唐镇新虹村刘家宅",121.65503362752312,31.248713367963926,"2022-05-01"
"浦东新区","上海市浦东新区唐镇新虹村陆家宅",121.65503362752312,31.248713367963926,"2022-05-01"
"浦东新区","上海市浦东新区唐镇新镇村谢家宅",121.64851480409831,31.22184743550307,"2022-05-01"
"浦东新区","上海市浦东新区唐镇一心村袁家宅",121.68884881132688,31.250038784030753,"2022-05-01"
"浦东新区","上海市浦东新区塘南路159弄",121.51640083308476,31.208002070914677,"2022-05-01"
"浦东新区","上海市浦东新区桃林路299弄",121.54378900028682,31.245226892963494,"2022-05-01"
"浦东新区","上海市浦东新区万安街333弄",121.62048704337315,31.302043336402377,"2022-05-01"
"浦东新区","上海市浦东新区万德路45弄",121.56391661320447,31.25764761918562,"2022-05-01"
"浦东新区","上海市浦东新区万德路52弄",121.56530314775914,31.255246569531966,"2022-05-01"
"浦东新区","上海市浦东新区万和路118弄",121.8252413216539,30.979408598090973,"2022-05-01"
"浦东新区","上海市浦东新区潍坊路282号",121.5407624293626,31.234285006925273,"2022-05-01"
"浦东新区","上海市浦东新区潍坊路335弄",121.53827061970847,31.233788347881376,"2022-05-01"
"浦东新区","上海市浦东新区潍坊路355弄",121.53821797900558,31.23514539261892,"2022-05-01"
"浦东新区","上海市浦东新区潍坊路375弄",121.54147209071549,31.234748161879693,"2022-05-01"
"浦东新区","上海市浦东新区潍坊新村",121.53626066112989,31.234929949572674,"2022-05-01"
"浦东新区","上海市浦东新区五莲路100弄",121.58579735915542,31.281678100479343,"2022-05-01"
"浦东新区","上海市浦东新区五莲路1047弄",121.60139041568928,31.277745809783077,"2022-05-01"
"浦东新区","上海市浦东新区五莲路108弄",121.58877362497108,31.277157873113886,"2022-05-01"
"浦东新区","上海市浦东新区五莲路1728弄",121.6057738770863,31.287944455956875,"2022-05-01"
"浦东新区","上海市浦东新区五莲路1769弄",121.60380012021979,31.290088693222955,"2022-05-01"
"浦东新区","上海市浦东新区五莲路201弄",121.58708615807058,31.282666663701544,"2022-05-01"
"浦东新区","上海市浦东新区五莲路30弄",121.58450074498232,31.281555271944608,"2022-05-01"
"浦东新区","上海市浦东新区五莲路759弄",121.59770287157082,31.276387222961237,"2022-05-01"
"浦东新区","上海市浦东新区五星路151弄",121.53688426481492,31.18970225553777,"2022-05-01"
"浦东新区","上海市浦东新区五星路231弄",121.53688426481492,31.18970225553777,"2022-05-01"
"浦东新区","上海市浦东新区五星路239弄",121.56995448385925,31.181781423237346,"2022-05-01"
"浦东新区","上海市浦东新区西三里桥路9弄",121.55045460683195,31.227348292436346,"2022-05-01"
"浦东新区","上海市浦东新区西市街175弄",121.70535750075872,31.201617833982294,"2022-05-01"
"浦东新区","上海市浦东新区西泰林路850弄",121.5468220390107,31.14873915128947,"2022-05-01"
"浦东新区","上海市浦东新区西泰林路901弄",121.54507097208011,31.149459936767588,"2022-05-01"
"浦东新区","上海市浦东新区西营南路18弄",121.4931336424097,31.165473482991562,"2022-05-01"
"浦东新区","上海市浦东新区西营南路68弄",121.52553031198265,31.139159418419815,"2022-05-01"
"浦东新区","上海市浦东新区下南路225弄",121.55278588929146,31.17539958371751,"2022-05-01"
"浦东新区","上海市浦东新区下南路276弄",121.53688426481492,31.18970225553777,"2022-05-01"
"浦东新区","上海市浦东新区下南路309弄",121.52969618510942,31.207201251711854,"2022-05-01"
"浦东新区","上海市浦东新区下南路320弄",121.547891741212,31.175548813657176,"2022-05-01"
"浦东新区","上海市浦东新区下南路339弄",121.55064127471694,31.17679107417024,"2022-05-01"
"浦东新区","上海市浦东新区下南路474号",121.5464937083468,31.177988210602106,"2022-05-01"
"浦东新区","上海市浦东新区下南路500弄",121.5437208188986,31.177967587760506,"2022-05-01"
"浦东新区","上海市浦东新区下南路501弄",121.53688426481492,31.18970225553777,"2022-05-01"
"浦东新区","上海市浦东新区下南路518弄",121.53688426481492,31.18970225553777,"2022-05-01"
"浦东新区","上海市浦东新区下南路526弄",121.54440200396682,31.17804189176027,"2022-05-01"
"浦东新区","上海市浦东新区下南路551弄",121.54679904238965,31.179016875274282,"2022-05-01"
"浦东新区","上海市浦东新区翔川路458弄",121.70152318342825,31.18903143816163,"2022-05-01"
"浦东新区","上海市浦东新区新德路365弄",121.704561252663,31.203165624453405,"2022-05-01"
"浦东新区","上海市浦东新区新德路908弄",121.69147312104373,31.20310423584524,"2022-05-01"
"浦东新区","上海市浦东新区新德西路508弄",121.67638760712302,31.198096102613977,"2022-05-01"
"浦东新区","上海市浦东新区新金桥路230号",121.60603779924514,31.255251663107057,"2022-05-01"
"浦东新区","上海市浦东新区新浦路629弄",121.54201269097139,31.17757706597876,"2022-05-01"
"浦东新区","上海市浦东新区新元南路正茂路交界口工地生活区",121.82788341781985,30.883671131631182,"2022-05-01"
"浦东新区","上海市浦东新区新园路32弄",121.63550275895574,31.324576801348986,"2022-05-01"
"浦东新区","上海市浦东新区行南路1150弄",121.5914713262481,31.33675164077381,"2022-05-01"
"浦东新区","上海市浦东新区秀康路958弄",121.58485970786411,31.120077939878794,"2022-05-01"
"浦东新区","上海市浦东新区秀沿路1168弄",121.58485970786411,31.120077939878794,"2022-05-01"
"浦东新区","上海市浦东新区秀沿路1弄",121.58485970786411,31.120077939878794,"2022-05-01"
"浦东新区","上海市浦东新区秀沿路2585弄",121.58485970786411,31.120077939878794,"2022-05-01"
"浦东新区","上海市浦东新区秀沿路2875弄",121.61606648195854,31.14493023082232,"2022-05-01"
"浦东新区","上海市浦东新区秀沿西路218弄",121.54052186314703,31.13576460720778,"2022-05-01"
"浦东新区","上海市浦东新区宣桥镇光辉村",121.71870938478405,31.06985788920638,"2022-05-01"
"浦东新区","上海市浦东新区宣桥镇光明村金光",121.73203125549702,31.082491592568985,"2022-05-01"
"浦东新区","上海市浦东新区宣桥镇季桥村蔡圈",121.69289657595483,31.061805221451777,"2022-05-01"
"浦东新区","上海市浦东新区宣桥镇宣桥村",121.70611370424534,31.024736304506646,"2022-05-01"
"浦东新区","上海市浦东新区宣桥镇腰路村",121.70060897791075,31.080771413494947,"2022-05-01"
"浦东新区","上海市浦东新区宣桥镇张家桥村胡桥",121.69352741279583,31.05082231080263,"2022-05-01"
"浦东新区","上海市浦东新区学前二村",121.59049253256443,31.352587432129926,"2022-05-01"
"浦东新区","上海市浦东新区雪野路34弄",121.50382231018129,31.186552940240503,"2022-05-01"
"浦东新区","上海市浦东新区严杨路30弄",121.53251293054227,31.198276108155607,"2022-05-01"
"浦东新区","上海市浦东新区严中路140弄",121.53610588309053,31.199272348787943,"2022-05-01"
"浦东新区","上海市浦东新区严中路47弄",121.53702206488015,31.200757616482992,"2022-05-01"
"浦东新区","上海市浦东新区杨高南路1218弄",121.53687276650439,31.21100851827807,"2022-05-01"
"浦东新区","上海市浦东新区杨高南路2030弄",121.5289322847795,31.19671087465208,"2022-05-01"
"浦东新区","上海市浦东新区杨高南路2140弄",121.5300002802003,31.194284938858367,"2022-05-01"
"浦东新区","上海市浦东新区杨莲路310弄",121.53688426481492,31.18970225553777,"2022-05-01"
"浦东新区","上海市浦东新区杨南路1899弄",121.5254800068741,31.16142174137021,"2022-05-01"
"浦东新区","上海市浦东新区杨南路694弄",121.5075548594058,31.15539096668121,"2022-05-01"
"浦东新区","上海市浦东新区杨思北街118弄",121.49914393508531,31.1698540400458,"2022-05-01"
"浦东新区","上海市浦东新区杨思路430弄",121.49945016743366,31.165366647001502,"2022-05-01"
"浦东新区","上海市浦东新区杨思路436弄",121.50076043585052,31.165660812615332,"2022-05-01"
"浦东新区","上海市浦东新区杨思路855弄",121.50659726573217,31.168965631905674,"2022-05-01"
"浦东新区","上海市浦东新区杨思新村",121.60064563059096,31.22441717742983,"2022-05-01"
"浦东新区","上海市浦东新区杨新路197弄",121.4985201517392,31.168845590720398,"2022-05-01"
"浦东新区","上海市浦东新区杨新路198弄",121.49847972799125,31.16923244104267,"2022-05-01"
"浦东新区","上海市浦东新区杨新路20弄",121.50290855381654,31.170494328286757,"2022-05-01"
"浦东新区","上海市浦东新区杨新路282弄",121.49415285984134,31.16735402369335,"2022-05-01"
"浦东新区","上海市浦东新区洋泾镇路89弄",121.55569693812708,31.24732055331147,"2022-05-01"
"浦东新区","上海市浦东新区耀华路331弄",121.49318888819857,31.18096820214458,"2022-05-01"
"浦东新区","上海市浦东新区耀华路414弄",121.4922269826585,31.1790527910542,"2022-05-01"
"浦东新区","上海市浦东新区耀华路550弄",121.48745123124523,31.17598769660649,"2022-05-01"
"浦东新区","上海市浦东新区耀华路560号",121.48800000608128,31.177453482797617,"2022-05-01"
"浦东新区","上海市浦东新区耀元路228弄",121.48032983521631,31.176939830936618,"2022-05-01"
"浦东新区","上海市浦东新区益丰路55弄",121.62883948800493,31.20710792433072,"2022-05-01"
"浦东新区","上海市浦东新区银冬路568号生活区",121.6430255286185,31.211687980386134,"2022-05-01"
"浦东新区","上海市浦东新区樱花路802弄",121.567473903024,31.213807021168357,"2022-05-01"
"浦东新区","上海市浦东新区永泰路1299弄",121.53314551728239,31.14925557699214,"2022-05-01"
"浦东新区","上海市浦东新区永泰路136弄",121.51114125432383,31.140667892100943,"2022-05-01"
"浦东新区","上海市浦东新区永泰路182号",121.51443605927332,31.14169093903809,"2022-05-01"
"浦东新区","上海市浦东新区永泰路1960弄",121.52553031198265,31.139159418419815,"2022-05-01"
"浦东新区","上海市浦东新区永泰路468弄",121.51868369687726,31.1422970350015,"2022-05-01"
"浦东新区","上海市浦东新区永泰路59弄",121.50784662903543,31.140260061067913,"2022-05-01"
"浦东新区","上海市浦东新区永泰路630弄",121.52411305537956,31.145365857319558,"2022-05-01"
"浦东新区","上海市浦东新区玉泉街77弄",121.50199264151856,31.168991123257296,"2022-05-01"
"浦东新区","上海市浦东新区御衡路68弄",121.58833740781544,31.159592610343985,"2022-05-01"
"浦东新区","上海市浦东新区御青路260弄",121.58485970786411,31.120077939878794,"2022-05-01"
"浦东新区","上海市浦东新区园二路299弄",121.64100182596562,31.32307691964883,"2022-05-01"
"浦东新区","上海市浦东新区源深路600弄",121.54036717493821,31.237760542935803,"2022-05-01"
"浦东新区","上海市浦东新区云山路1050弄",121.57800617580628,31.25499158172126,"2022-05-01"
"浦东新区","上海市浦东新区云山路999弄",121.57850922689187,31.258196243274657,"2022-05-01"
"浦东新区","上海市浦东新区云台路183弄",121.51061853034757,31.18339896227592,"2022-05-01"
"浦东新区","上海市浦东新区运盐河路1255弄",121.72254712558377,31.18783652798957,"2022-05-01"
"浦东新区","上海市浦东新区韵涛路36弄",121.58485970786411,31.120077939878794,"2022-05-01"
"浦东新区","上海市浦东新区枣庄路210弄",121.57738921958203,31.264391559266734,"2022-05-01"
"浦东新区","上海市浦东新区枣庄路552弄",121.58557898108594,31.25736686193547,"2022-05-01"
"浦东新区","上海市浦东新区枣庄路658弄",121.58524858431939,31.25743400297086,"2022-05-01"
"浦东新区","上海市浦东新区张江镇韩荡村汤家宅",121.61058026071746,31.159022163234475,"2022-05-01"
"浦东新区","上海市浦东新区张江镇环东中心村桥弄严家宅",121.5595970213292,31.176807680787,"2022-05-01"
"浦东新区","上海市浦东新区张江镇劳动村孙家宅西",121.63500168414225,31.185503659844144,"2022-05-01"
"浦东新区","上海市浦东新区张江镇沔北村诸家宅南",121.62881011341473,31.167725971391313,"2022-05-01"
"浦东新区","上海市浦东新区张江镇钱堂村立达宅",121.59951870632868,31.16388174546565,"2022-05-01"
"浦东新区","上海市浦东新区张江镇中心村安乐宅",121.6647867999366,31.192715005059494,"2022-05-01"
"浦东新区","上海市浦东新区张江镇中心村蔡家圈宅",121.64654302350391,31.17777889241122,"2022-05-01"
"浦东新区","上海市浦东新区张江镇中心村吴家宅",121.66212952240754,31.202966632554727,"2022-05-01"
"浦东新区","上海市浦东新区张杨北路2899弄",121.59411198512524,31.310569871178334,"2022-05-01"
"浦东新区","上海市浦东新区张杨北路555弄",121.59349026788176,31.27206427314543,"2022-05-01"
"浦东新区","上海市浦东新区张杨北路588弄",121.59521528395258,31.275260170384,"2022-05-01"
"浦东新区","上海市浦东新区张杨路1515弄",121.54214959273111,31.240309161544037,"2022-05-01"
"浦东新区","上海市浦东新区张杨路1673弄",121.54977189464437,31.243332632552367,"2022-05-01"
"浦东新区","上海市浦东新区张杨路2100弄",121.58962611690005,31.28158489894264,"2022-05-01"
"浦东新区","上海市浦东新区张杨路310弄",121.51973938551258,31.230805867990643,"2022-05-01"
"浦东新区","上海市浦东新区赵高公路958号",121.63712932074266,31.316872849079196,"2022-05-01"
"浦东新区","上海市浦东新区中大街134弄",121.5834410139722,31.123819240464343,"2022-05-01"
"浦东新区","上海市浦东新区周东路599弄",121.59048480713705,31.124973001574077,"2022-05-01"
"浦东新区","上海市浦东新区周浦镇沈西村",121.57207196960738,31.096648242037833,"2022-05-01"
"浦东新区","上海市浦东新区周市路148号",121.5910256768846,31.11830457829532,"2022-05-01"
"浦东新区","上海市浦东新区周祝公路周泰北路交界口工地生活区",121.60866363608137,31.109520206494043,"2022-05-01"
"浦东新区","上海市浦东新区竹柏路500弄",121.91008501944361,30.908902876239964,"2022-05-01"
"浦东新区","上海市浦东新区祝家港路155弄",121.59218143675373,31.11641857211224,"2022-05-01"
"浦东新区","上海市浦东新区祝桥镇共和村陈家宅",121.74016397460105,31.17659805099963,"2022-05-01"
"浦东新区","上海市浦东新区祝桥镇红星村红二",121.78822322955432,31.095598342991988,"2022-05-01"
"浦东新区","上海市浦东新区祝桥镇军民村周家宅",121.7485447158564,31.173449608564322,"2022-05-01"
"浦东新区","上海市浦东新区祝桥镇星火村小桥",121.7906518577887,31.088190109829767,"2022-05-01"
"浦东新区","上海市浦东新区紫薇路35弄",121.63626380338377,31.194416454082223,"2022-05-01"
"浦东新区","上海市浦东新区紫薇路750弄",121.63626380338377,31.194416454082223,"2022-05-01"
"浦东新区","上海市浦东新区紫叶路115弄",121.55858804458039,31.189245596705973,"2022-05-01"
"浦东新区","上海市浦东新区紫叶路65弄",121.53688426481492,31.18970225553777,"2022-05-01"
"浦东新区","上海市浦东新区紫叶路66弄",121.53688426481492,31.18970225553777,"2022-05-01"
"黄浦区","上海市黄浦区白河路11弄",121.47839586255192,31.240917089990603,"2022-05-01"
"黄浦区","上海市黄浦区白河路21弄",121.47833055574132,31.241085357958376,"2022-05-01"
"黄浦区","上海市黄浦区半淞园路650号",121.50102139360118,31.204231463270702,"2022-05-01"
"黄浦区","上海市黄浦区半淞园路698弄",121.50065066291721,31.203280216414342,"2022-05-01"
"黄浦区","上海市黄浦区保屯路211弄",121.4983058160445,31.209535149529046,"2022-05-01"
"黄浦区","上海市黄浦区保屯路50弄",121.4963149913733,31.211889115666636,"2022-05-01"
"黄浦区","上海市黄浦区保屯路99弄",121.4967787865081,31.213092289398723,"2022-05-01"
"黄浦区","上海市黄浦区北京东路288弄",121.49064632428312,31.24648026991378,"2022-05-01"
"黄浦区","上海市黄浦区北京东路316弄",121.47709924837882,31.20540045126984,"2022-05-01"
"黄浦区","上海市黄浦区北京东路431弄",121.48868846742414,31.24544624864965,"2022-05-01"
"黄浦区","上海市黄浦区北京东路492号",121.48725468199966,31.24556572858875,"2022-05-01"
"黄浦区","上海市黄浦区北京西路206号",121.47630694291901,31.242105997038976,"2022-05-01"
"黄浦区","上海市黄浦区北京西路239弄",121.4757437951948,31.241462338857026,"2022-05-01"
"黄浦区","上海市黄浦区北京西路240弄",121.47583308676249,31.24201761876455,"2022-05-01"
"黄浦区","上海市黄浦区北京西路256号",121.47543316114945,31.241795244763107,"2022-05-01"
"黄浦区","上海市黄浦区北京西路266号",121.47505937622675,31.241763289552495,"2022-05-01"
"黄浦区","上海市黄浦区曹家街17号",121.49245003191662,31.224912882611903,"2022-05-01"
"黄浦区","上海市黄浦区曹市弄23弄",121.49158559252436,31.23724715206362,"2022-05-01"
"黄浦区","上海市黄浦区曹市弄42弄",121.49565482665402,31.22491172460565,"2022-05-01"
"黄浦区","上海市黄浦区长乐路169弄",121.46880061224708,31.227226936462426,"2022-05-01"
"黄浦区","上海市黄浦区重庆北路104号",121.47690808896628,31.231385759195998,"2022-05-01"
"黄浦区","上海市黄浦区重庆北路126号",121.47687440250965,31.23177404962082,"2022-05-01"
"黄浦区","上海市黄浦区重庆北路212号",121.4764415090844,31.233133439385597,"2022-05-01"
"黄浦区","上海市黄浦区重庆北路216弄",121.47648597520714,31.233229391023045,"2022-05-01"
"黄浦区","上海市黄浦区重庆北路235号",121.47546702726717,31.233620838718963,"2022-05-01"
"黄浦区","上海市黄浦区重庆北路94弄",121.4771076924506,31.23127452102585,"2022-05-01"
"黄浦区","上海市黄浦区重庆南路189号",121.47739856377473,31.220672939742197,"2022-05-01"
"黄浦区","上海市黄浦区重庆南路18号",121.47785274704057,31.226858853258328,"2022-05-01"
"黄浦区","上海市黄浦区车站支路9弄",121.49158559252436,31.23724715206362,"2022-05-01"
"黄浦区","上海市黄浦区成都北路140弄",121.47444089288312,31.232465171712263,"2022-05-01"
"黄浦区","上海市黄浦区成都北路254号",121.47418891818758,31.23436899252721,"2022-05-01"
"黄浦区","上海市黄浦区成都北路262弄",121.47445122339649,31.23499100854444,"2022-05-01"
"黄浦区","上海市黄浦区打浦路339弄",121.4785522575412,31.20529674944314,"2022-05-01"
"黄浦区","上海市黄浦区打浦路398弄",121.47878797290703,31.203810858761482,"2022-05-01"
"黄浦区","上海市黄浦区打浦路399号",121.47889208651563,31.20453585404698,"2022-05-01"
"黄浦区","上海市黄浦区打浦路470弄",121.4793632477556,31.203063078428812,"2022-05-01"
"黄浦区","上海市黄浦区打浦路500弄",121.47975158522758,31.202108344841587,"2022-05-01"
"黄浦区","上海市黄浦区大沽路179号",121.47742138073468,31.23203759214419,"2022-05-01"
"黄浦区","上海市黄浦区大沽路183弄",121.4776655401723,31.231942951592927,"2022-05-01"
"黄浦区","上海市黄浦区大沽路185号",121.47727657388648,31.232072329679774,"2022-05-01"
"黄浦区","上海市黄浦区大沽路191号",121.47719725350996,31.23195283250325,"2022-05-01"
"黄浦区","上海市黄浦区大沽路193号",121.4771249399164,31.23196919775867,"2022-05-01"
"黄浦区","上海市黄浦区大沽路197号",121.47710778228115,31.23191454396995,"2022-05-01"
"黄浦区","上海市黄浦区大沽路201号",121.4769540822084,31.231906438532462,"2022-05-01"
"黄浦区","上海市黄浦区大沽路250号",121.47606574788958,31.23213933448975,"2022-05-01"
"黄浦区","上海市黄浦区大沽路252号",121.47607482077522,31.232000152785847,"2022-05-01"
"黄浦区","上海市黄浦区大沽路254号",121.47588581729593,31.231991738577477,"2022-05-01"
"黄浦区","上海市黄浦区大吉路173弄",121.49031718514428,31.22014540391755,"2022-05-01"
"黄浦区","上海市黄浦区大吉路26弄",121.44960310485445,31.229682897526317,"2022-05-01"
"黄浦区","上海市黄浦区大吉路310弄",121.4683930510372,31.223077810739706,"2022-05-01"
"黄浦区","上海市黄浦区大林路256号",121.49097833799962,31.2181194626927,"2022-05-01"
"黄浦区","上海市黄浦区大林路31弄",121.494257961586,31.21938293066933,"2022-05-01"
"黄浦区","上海市黄浦区大林路86号",121.49345460696843,31.21877934021254,"2022-05-01"
"黄浦区","上海市黄浦区大林路94号",121.49339136626051,31.218733094121642,"2022-05-01"
"黄浦区","上海市黄浦区淡水路199号",121.47988192935706,31.223807288928132,"2022-05-01"
"黄浦区","上海市黄浦区淡水路201号",121.4799040276726,31.223737884908786,"2022-05-01"
"黄浦区","上海市黄浦区淡水路214弄",121.47901048318184,31.22338754436811,"2022-05-01"
"黄浦区","上海市黄浦区淡水路216号",121.47979901575849,31.223348094304406,"2022-05-01"
"黄浦区","上海市黄浦区淡水路222号",121.47968555977259,31.22317585713875,"2022-05-01"
"黄浦区","上海市黄浦区淡水路223弄",121.47991148360833,31.222843579792674,"2022-05-01"
"黄浦区","上海市黄浦区淡水路225弄",121.47987824630448,31.222755183320498,"2022-05-01"
"黄浦区","上海市黄浦区淡水路227弄",121.4798842649514,31.222721059943833,"2022-05-01"
"黄浦区","上海市黄浦区淡水路228号",121.47963723093615,31.223154086214915,"2022-05-01"
"黄浦区","上海市黄浦区淡水路91弄",121.47957596650036,31.227227862844504,"2022-05-01"
"黄浦区","上海市黄浦区东江阴街232号",121.50299389283998,31.21974054344005,"2022-05-01"
"黄浦区","上海市黄浦区方浜西路63弄",121.48894178957794,31.22685144217224,"2022-05-01"
"黄浦区","上海市黄浦区方斜路269号",121.49163589763292,31.221482959693272,"2022-05-01"
"黄浦区","上海市黄浦区方斜路401弄",121.49001086296538,31.22040782112921,"2022-05-01"
"黄浦区","上海市黄浦区方斜路534号",121.48921954564165,31.218438786243258,"2022-05-01"
"黄浦区","上海市黄浦区丰记码头街125弄",121.51036359124384,31.215720872567648,"2022-05-01"
"黄浦区","上海市黄浦区凤阳路358弄",121.47565019176066,31.240041088234957,"2022-05-01"
"黄浦区","上海市黄浦区福建中路195弄",121.48805704848118,31.239509570614192,"2022-05-01"
"黄浦区","上海市黄浦区福州路531号",121.48950484747161,31.238861494795984,"2022-05-01"
"黄浦区","上海市黄浦区福州路614弄",121.48585503218456,31.238969867958666,"2022-05-01"
"黄浦区","上海市黄浦区抚安街9弄",121.49158559252436,31.23724715206362,"2022-05-01"
"黄浦区","上海市黄浦区复兴东路260号",121.5060019586707,31.22624589269622,"2022-05-01"
"黄浦区","上海市黄浦区复兴东路346号",121.50437126467844,31.226603324847012,"2022-05-01"
"黄浦区","上海市黄浦区复兴东路663弄",121.49812238205936,31.227977302939546,"2022-05-01"
"黄浦区","上海市黄浦区复兴东路673号",121.49788082770775,31.2278543266236,"2022-05-01"
"黄浦区","上海市黄浦区复兴中路408弄",121.48013579049419,31.222547895195856,"2022-05-01"
"黄浦区","上海市黄浦区高家横弄18弄",121.47198797985759,31.216227432867615,"2022-05-01"
"黄浦区","上海市黄浦区高家弄37弄",121.49158559252436,31.23724715206362,"2022-05-01"
"黄浦区","上海市黄浦区高家弄47号",121.49158559252436,31.23724715206362,"2022-05-01"
"黄浦区","上海市黄浦区高家弄66弄",121.48457854005488,31.235498236464565,"2022-05-01"
"黄浦区","上海市黄浦区高家弄74号",121.49158559252436,31.23724715206362,"2022-05-01"
"黄浦区","上海市黄浦区牯岭路145弄",121.47755549774732,31.24176792074311,"2022-05-01"
"黄浦区","上海市黄浦区光启路111号",121.50087721556682,31.22962600370282,"2022-05-01"
"黄浦区","上海市黄浦区广东路138号",121.49468869907803,31.239072374652263,"2022-05-01"
"黄浦区","上海市黄浦区广东路212号",121.4937263443852,31.2388859636763,"2022-05-01"
"黄浦区","上海市黄浦区广东路542号",121.48753989399908,31.237949194654796,"2022-05-01"
"黄浦区","上海市黄浦区广西北路200号",121.48480940457094,31.238537223635465,"2022-05-01"
"黄浦区","上海市黄浦区广西北路228弄",121.48509955725068,31.239119228201453,"2022-05-01"
"黄浦区","上海市黄浦区广西北路425号",121.48325982756623,31.242142814863154,"2022-05-01"
"黄浦区","上海市黄浦区广西北路493号",121.48292565791652,31.243146075696743,"2022-05-01"
"黄浦区","上海市黄浦区贵州路163号",121.48247138482013,31.242721786749875,"2022-05-01"
"黄浦区","上海市黄浦区贵州路169号",121.48244407633263,31.242832856936698,"2022-05-01"
"黄浦区","上海市黄浦区贵州路174号",121.48254199163321,31.242890977697655,"2022-05-01"
"黄浦区","上海市黄浦区贵州路68号",121.48297003420872,31.24088088918182,"2022-05-01"
"黄浦区","上海市黄浦区国货路370弄",121.49096774352816,31.212175378451143,"2022-05-01"
"黄浦区","上海市黄浦区海潮路222弄",121.50365558467864,31.213898746099275,"2022-05-01"
"黄浦区","上海市黄浦区海潮路93弄",121.50591203828914,31.214961528834515,"2022-05-01"
"黄浦区","上海市黄浦区海口路9号",121.48752713806084,31.237148039743957,"2022-05-01"
"黄浦区","上海市黄浦区汉口路130号",121.49411566999322,31.242184186656683,"2022-05-01"
"黄浦区","上海市黄浦区汉口路429弄",121.48884495224397,31.240580321584385,"2022-05-01"
"黄浦区","上海市黄浦区汉口路678号",121.48426682804292,31.239647583321876,"2022-05-01"
"黄浦区","上海市黄浦区合肥路271号",121.4813038571488,31.22028753701466,"2022-05-01"
"黄浦区","上海市黄浦区河南南路720号",121.4981872397172,31.223393180090138,"2022-05-01"
"黄浦区","上海市黄浦区河南南路790弄",121.49854009412151,31.222041137489935,"2022-05-01"
"黄浦区","上海市黄浦区河南中路192号",121.49274207103791,31.23997192782091,"2022-05-01"
"黄浦区","上海市黄浦区河南中路575弄",121.49014084777266,31.245905566366485,"2022-05-01"
"黄浦区","上海市黄浦区湖北路20号",121.4884643401994,31.237066372348682,"2022-05-01"
"黄浦区","上海市黄浦区湖滨路150号",121.48576861519452,31.226622315804303,"2022-05-01"
"黄浦区","上海市黄浦区淮海东路89弄",121.48837091642636,31.230855813500817,"2022-05-01"
"黄浦区","上海市黄浦区淮海中路606弄",121.47366709251683,31.226468072064126,"2022-05-01"
"黄浦区","上海市黄浦区淮海中路613弄",121.47382303835336,31.225783544850167,"2022-05-01"
"黄浦区","上海市黄浦区淮海中路697弄",121.47197423578328,31.224941446761353,"2022-05-01"
"黄浦区","上海市黄浦区淮海中路774号",121.46976215846496,31.224850736256624,"2022-05-01"
"黄浦区","上海市黄浦区淮海中路833弄",121.46898988521804,31.224196151207956,"2022-05-01"
"黄浦区","上海市黄浦区淮海中路855弄",121.46839296120665,31.22374050975584,"2022-05-01"
"黄浦区","上海市黄浦区淮海中路927弄",121.46719695725068,31.22261969336921,"2022-05-01"
"黄浦区","上海市黄浦区黄陂北路249弄",121.47628116155087,31.235480405184227,"2022-05-01"
"黄浦区","上海市黄浦区黄陂南路596弄",121.48299842066284,31.2218577034941,"2022-05-01"
"黄浦区","上海市黄浦区黄河路107弄",121.47663239900527,31.240460526525432,"2022-05-01"
"黄浦区","上海市黄浦区黄河路215弄",121.4344569553118,31.2533728868238,"2022-05-01"
"黄浦区","上海市黄浦区黄河路223弄",121.47603987669088,31.242534611188706,"2022-05-01"
"黄浦区","上海市黄浦区黄河路253弄",121.47529419328706,31.242852770826993,"2022-05-01"
"黄浦区","上海市黄浦区黄河路281弄",121.47563276463377,31.243446480678184,"2022-05-01"
"黄浦区","上海市黄浦区黄家路55弄",121.50334800487202,31.22150874557353,"2022-05-01"
"黄浦区","上海市黄浦区黄家路99弄",121.5020006364376,31.22216574270126,"2022-05-01"
"黄浦区","上海市黄浦区黄家阙路76弄",121.49405377674357,31.2203405763063,"2022-05-01"
"黄浦区","上海市黄浦区黄家阙路86号",121.49426317175795,31.220242140915843,"2022-05-01"
"黄浦区","上海市黄浦区黄家阙路88弄",121.49395819703733,31.219937955604067,"2022-05-01"
"黄浦区","上海市黄浦区徽宁路355号",121.49661071354718,31.216150688502086,"2022-05-01"
"黄浦区","上海市黄浦区徽宁路509号",121.49441642267796,31.215144281468078,"2022-05-01"
"黄浦区","上海市黄浦区建国东路10号",121.4873932007093,31.219734444269964,"2022-05-01"
"黄浦区","上海市黄浦区建国东路143弄",121.48532709803635,31.21823318708983,"2022-05-01"
"黄浦区","上海市黄浦区建国东路61弄",121.48644240421402,31.219232432313035,"2022-05-01"
"黄浦区","上海市黄浦区建国东路65号",121.48637047988619,31.219213928821944,"2022-05-01"
"黄浦区","上海市黄浦区建国西路120弄",121.47145348807915,31.214046756593756,"2022-05-01"
"黄浦区","上海市黄浦区建国西路44号",121.47266997340077,31.214555873847576,"2022-05-01"
"黄浦区","上海市黄浦区建国中路103弄",121.47583488337352,31.215426014761544,"2022-05-01"
"黄浦区","上海市黄浦区建国中路145号",121.47476895405538,31.215141347546062,"2022-05-01"
"黄浦区","上海市黄浦区建国中路155弄",121.47445041492153,31.21479027995086,"2022-05-01"
"黄浦区","上海市黄浦区建国中路26号",121.47441798609263,31.215156866448304,"2022-05-01"
"黄浦区","上海市黄浦区建国中路61弄",121.47635392429719,31.21572604550333,"2022-05-01"
"黄浦区","上海市黄浦区建国中路65弄",121.476221514065,31.215645826364163,"2022-05-01"
"黄浦区","上海市黄浦区江滨路99号",121.4799350192127,31.19785385522803,"2022-05-01"
"黄浦区","上海市黄浦区江西中路135弄",121.49403509198896,31.239906240817817,"2022-05-01"
"黄浦区","上海市黄浦区江西中路170号",121.49454497019643,31.24051486657119,"2022-05-01"
"黄浦区","上海市黄浦区江西中路34弄",121.49485066356148,31.238477093249102,"2022-05-01"
"黄浦区","上海市黄浦区江西中路412弄",121.49218557077448,31.246727331150872,"2022-05-01"
"黄浦区","上海市黄浦区江西中路44弄",121.49473334486187,31.238583382750505,"2022-05-01"
"黄浦区","上海市黄浦区江西中路451号",121.4916062535511,31.24738391965078,"2022-05-01"
"黄浦区","上海市黄浦区江西中路452号",121.4919360215038,31.247525857007712,"2022-05-01"
"黄浦区","上海市黄浦区江西中路46号",121.49466480415147,31.238474160058534,"2022-05-01"
"黄浦区","上海市黄浦区江阴街404号",121.49517818575042,31.218213576782734,"2022-05-01"
"黄浦区","上海市黄浦区江阴路130弄",121.47452066241242,31.235710744924816,"2022-05-01"
"黄浦区","上海市黄浦区江阴路136号",121.47461884720465,31.235566705461796,"2022-05-01"
"黄浦区","上海市黄浦区江阴路142号",121.47451877597085,31.23553413058999,"2022-05-01"
"黄浦区","上海市黄浦区江阴路88弄",121.47555173747676,31.235860033180316,"2022-05-01"
"黄浦区","上海市黄浦区金陵东路55号",121.49797362266693,31.237086904989745,"2022-05-01"
"黄浦区","上海市黄浦区金陵东路57号",121.49795053621531,31.237093157409618,"2022-05-01"
"黄浦区","上海市黄浦区金陵东路59号",121.4978543276952,31.237064905731295,"2022-05-01"
"黄浦区","上海市黄浦区金陵东路63号",121.49771877339374,31.23702291414992,"2022-05-01"
"黄浦区","上海市黄浦区金坛路35弄",121.50458335460934,31.2247265978234,"2022-05-01"
"黄浦区","上海市黄浦区进贤路180弄",121.46526569023477,31.22773798918161,"2022-05-01"
"黄浦区","上海市黄浦区静修路104弄",121.49324548144571,31.225768104909392,"2022-05-01"
"黄浦区","上海市黄浦区静修路126弄",121.48653334267514,31.22551241911987,"2022-05-01"
"黄浦区","上海市黄浦区静修路37弄",121.49472499062064,31.22592482018991,"2022-05-01"
"黄浦区","上海市黄浦区静修路7弄",121.49158559252436,31.23724715206362,"2022-05-01"
"黄浦区","上海市黄浦区九江路218弄",121.49263508285166,31.24293589969533,"2022-05-01"
"黄浦区","上海市黄浦区九江路619号",121.4851466284594,31.240162350399974,"2022-05-01"
"黄浦区","上海市黄浦区局门后路15号",121.48711095311806,31.214735230085406,"2022-05-01"
"黄浦区","上海市黄浦区局门后路3号",121.48678037669039,31.215416209314483,"2022-05-01"
"黄浦区","上海市黄浦区局门后路5号",121.48708121920568,31.21525368581015,"2022-05-01"
"黄浦区","上海市黄浦区局门后路77号",121.48715254466318,31.214357678242408,"2022-05-01"
"黄浦区","上海市黄浦区局门路1弄",121.49158559252436,31.23724715206362,"2022-05-01"
"黄浦区","上海市黄浦区局门路241弄",121.48761041098162,31.212027091902875,"2022-05-01"
"黄浦区","上海市黄浦区局门路434弄",121.48772763985068,31.208410534000432,"2022-05-01"
"黄浦区","上海市黄浦区局门路599弄",121.48965782889995,31.206398855387498,"2022-05-01"
"黄浦区","上海市黄浦区巨鹿路391弄",121.46500832570615,31.228665210788414,"2022-05-01"
"黄浦区","上海市黄浦区聚奎新村",121.50270850117947,31.22949600466016,"2022-05-01"
"黄浦区","上海市黄浦区丽水路88号",121.49690302216013,31.233913863766865,"2022-05-01"
"黄浦区","上海市黄浦区丽园路1016弄",121.47893781026609,31.210734878963738,"2022-05-01"
"黄浦区","上海市黄浦区丽园路333弄",121.49070920566882,31.21505942931798,"2022-05-01"
"黄浦区","上海市黄浦区丽园路567号",121.487316036266,31.21319189045863,"2022-05-01"
"黄浦区","上海市黄浦区丽园路710弄",121.48600639666299,31.212344042699645,"2022-05-01"
"黄浦区","上海市黄浦区丽园路842弄",121.483621395534,31.211378208045655,"2022-05-01"
"黄浦区","上海市黄浦区丽园路883号",121.48180780653992,31.21263396873738,"2022-05-01"
"黄浦区","上海市黄浦区丽园路885号",121.48191407608175,31.212574671021603,"2022-05-01"
"黄浦区","上海市黄浦区丽园路888弄",121.48132981817805,31.212081988938653,"2022-05-01"
"黄浦区","上海市黄浦区丽园路891号",121.48129963511292,31.212524406912802,"2022-05-01"
"黄浦区","上海市黄浦区柳江街16弄",121.49604271497321,31.225163860826832,"2022-05-01"
"黄浦区","上海市黄浦区柳江街5号",121.49627591508361,31.225356629549346,"2022-05-01"
"黄浦区","上海市黄浦区柳市路1弄",121.49158559252436,31.23724715206362,"2022-05-01"
"黄浦区","上海市黄浦区六合路158号",121.48141596567645,31.24270588648996,"2022-05-01"
"黄浦区","上海市黄浦区龙华东路39号",121.49292209146212,31.202759532271777,"2022-05-01"
"黄浦区","上海市黄浦区龙华东路72号",121.49311248323174,31.201493916502013,"2022-05-01"
"黄浦区","上海市黄浦区龙华东路888弄",121.47773012833846,31.19906060703334,"2022-05-01"
"黄浦区","上海市黄浦区鲁班路168弄",121.48069247041873,31.2107777316744,"2022-05-01"
"黄浦区","上海市黄浦区鲁班路400弄",121.4821266151654,31.2064886571851,"2022-05-01"
"黄浦区","上海市黄浦区鲁班路509弄",121.48325407841098,31.206749413937416,"2022-05-01"
"黄浦区","上海市黄浦区鲁班路529号",121.48338424287937,31.205601291189975,"2022-05-01"
"黄浦区","上海市黄浦区鲁班路88弄",121.47993304294059,31.212396777648934,"2022-05-01"
"黄浦区","上海市黄浦区陆家浜路1034弄",121.4960365166652,31.21713616166859,"2022-05-01"
"黄浦区","上海市黄浦区陆家浜路1060弄",121.49486800085782,31.217355119982727,"2022-05-01"
"黄浦区","上海市黄浦区陆家浜路1088号",121.49459024479414,31.21760364785768,"2022-05-01"
"黄浦区","上海市黄浦区陆家浜路1256弄",121.49144069584561,31.217196769010613,"2022-05-01"
"黄浦区","上海市黄浦区陆家浜路1396号",121.48888789124734,31.216801469461743,"2022-05-01"
"黄浦区","上海市黄浦区陆家浜路305弄",121.50738552881717,31.21716202595311,"2022-05-01"
"黄浦区","上海市黄浦区陆家浜路468弄",121.50449810541643,31.21610714338139,"2022-05-01"
"黄浦区","上海市黄浦区陆家浜路521弄",121.5055121126761,31.21920721197658,"2022-05-01"
"黄浦区","上海市黄浦区陆家浜路812号",121.4995463759538,31.218148878181378,"2022-05-01"
"黄浦区","上海市黄浦区陆家浜路976号",121.49660379659475,31.217753196621352,"2022-05-01"
"黄浦区","上海市黄浦区陆家宅路91弄",121.50235061985752,31.2301080052278,"2022-05-01"
"黄浦区","上海市黄浦区马当路278弄",121.48038956180075,31.223680369859316,"2022-05-01"
"黄浦区","上海市黄浦区马当路284号",121.48115797233399,31.223701600250823,"2022-05-01"
"黄浦区","上海市黄浦区马当路290号",121.48118806556857,31.22354596206898,"2022-05-01"
"黄浦区","上海市黄浦区马当路306弄",121.48012563964191,31.223088619009204,"2022-05-01"
"黄浦区","上海市黄浦区马当路316号",121.48125705543174,31.223082597259207,"2022-05-01"
"黄浦区","上海市黄浦区马当路318弄",121.48114997741496,31.223044305096334,"2022-05-01"
"黄浦区","上海市黄浦区马当路320号",121.48129568256866,31.223012189076673,"2022-05-01"
"黄浦区","上海市黄浦区马当路357弄",121.48227007455534,31.219236318303054,"2022-05-01"
"黄浦区","上海市黄浦区茂名南路143号",121.46821356959632,31.222875464263897,"2022-05-01"
"黄浦区","上海市黄浦区茂名南路169弄",121.46913352426908,31.221248493144664,"2022-05-01"
"黄浦区","上海市黄浦区茂名南路22弄",121.49158559252436,31.23724715206362,"2022-05-01"
"黄浦区","上海市黄浦区蒙自路255号",121.48486986053177,31.210761439925438,"2022-05-01"
"黄浦区","上海市黄浦区蒙自路345弄",121.48562317953244,31.210186208109956,"2022-05-01"
"黄浦区","上海市黄浦区蒙自路490弄",121.48548061844801,31.20723285827842,"2022-05-01"
"黄浦区","上海市黄浦区蒙自路501弄",121.48643192398308,31.207440952462846,"2022-05-01"
"黄浦区","上海市黄浦区蒙自路601弄",121.48752812619689,31.205122548647797,"2022-05-01"
"黄浦区","上海市黄浦区蒙自西路6号",121.48305290289201,31.21333387969341,"2022-05-01"
"黄浦区","上海市黄浦区蒙自西路72弄",121.48209804905018,31.2132159800014,"2022-05-01"
"黄浦区","上海市黄浦区蒙自西路76号",121.4812300164359,31.213192971399792,"2022-05-01"
"黄浦区","上海市黄浦区梦花街13弄",121.49248865905355,31.22366492957156,"2022-05-01"
"黄浦区","上海市黄浦区梦花街151号",121.4936189070462,31.22432237476919,"2022-05-01"
"黄浦区","上海市黄浦区梦花街198弄",121.49318233056835,31.223949648068164,"2022-05-01"
"黄浦区","上海市黄浦区梦花街23号",121.49580466401308,31.225271323455605,"2022-05-01"
"黄浦区","上海市黄浦区梦花街27号",121.4957344165222,31.225248009016447,"2022-05-01"
"黄浦区","上海市黄浦区梦花街31号",121.49549492827323,31.225392527565543,"2022-05-01"
"黄浦区","上海市黄浦区梦花街32号",121.49563111138855,31.225050067650066,"2022-05-01"
"黄浦区","上海市黄浦区梦花街35号",121.49552789608546,31.225171117646155,"2022-05-01"
"黄浦区","上海市黄浦区梦花街3弄",121.49158559252436,31.23724715206362,"2022-05-01"
"黄浦区","上海市黄浦区梦花街9号",121.4959380623813,31.225388976364556,"2022-05-01"
"黄浦区","上海市黄浦区面筋弄11号",121.5047911326738,31.225824383481207,"2022-05-01"
"黄浦区","上海市黄浦区面筋弄12弄",121.5047955343708,31.226327415138474,"2022-05-01"
"黄浦区","上海市黄浦区面筋弄17号",121.5047955343708,31.226327415138474,"2022-05-01"
"黄浦区","上海市黄浦区面筋弄24号",121.5047955343708,31.226327415138474,"2022-05-01"
"黄浦区","上海市黄浦区面筋弄40号",121.5047955343708,31.226327415138474,"2022-05-01"
"黄浦区","上海市黄浦区面筋弄48号",121.5047955343708,31.226327415138474,"2022-05-01"
"黄浦区","上海市黄浦区面筋弄60弄",121.5352036250363,31.216555718920326,"2022-05-01"
"黄浦区","上海市黄浦区面筋弄8号",121.5047955343708,31.226327415138474,"2022-05-01"
"黄浦区","上海市黄浦区南昌路110弄",121.4683930510372,31.223077810739706,"2022-05-01"
"黄浦区","上海市黄浦区南昌路352号",121.46736637766985,31.2218906691419,"2022-05-01"
"黄浦区","上海市黄浦区南昌路68号",121.47595381902305,31.22556483785164,"2022-05-01"
"黄浦区","上海市黄浦区南昌路74弄",121.47776749784768,31.225337329534938,"2022-05-01"
"黄浦区","上海市黄浦区南车站路450弄",121.50015381013964,31.21062068218494,"2022-05-01"
"黄浦区","上海市黄浦区南京东路98号",121.49464926346614,31.244571833001338,"2022-05-01"
"黄浦区","上海市黄浦区南塘浜路102号",121.47897113740049,31.20918004581703,"2022-05-01"
"黄浦区","上海市黄浦区南塘浜路93弄",121.48067306701971,31.209789334703416,"2022-05-01"
"黄浦区","上海市黄浦区宁波路120弄",121.49121189743221,31.245492713088552,"2022-05-01"
"黄浦区","上海市黄浦区宁波路439弄",121.48565183547821,31.24323344949589,"2022-05-01"
"黄浦区","上海市黄浦区宁波路540号",121.48389996007263,31.242886037820316,"2022-05-01"
"黄浦区","上海市黄浦区宁波路542弄",121.48377877865934,31.242755902832418,"2022-05-01"
"黄浦区","上海市黄浦区宁波路545号",121.4837924329031,31.24270125534579,"2022-05-01"
"黄浦区","上海市黄浦区宁波路617号",121.48255124417997,31.24240486164171,"2022-05-01"
"黄浦区","上海市黄浦区宁波路620弄",121.48223072877401,31.242562629657368,"2022-05-01"
"黄浦区","上海市黄浦区宁海东路261弄",121.4875020753371,31.234060453139513,"2022-05-01"
"黄浦区","上海市黄浦区牌楼路29号",121.49293269146713,31.219766947437606,"2022-05-01"
"黄浦区","上海市黄浦区牌楼路31弄",121.49298712878104,31.219945019817317,"2022-05-01"
"黄浦区","上海市黄浦区蓬莱路208号",121.49739861731,31.223580857160044,"2022-05-01"
"黄浦区","上海市黄浦区蓬莱路252弄",121.49668257798798,31.223207201084016,"2022-05-01"
"黄浦区","上海市黄浦区蓬莱路303弄",121.495558797795,31.223221483420122,"2022-05-01"
"黄浦区","上海市黄浦区蓬莱路338号",121.49533278412869,31.22250875358783,"2022-05-01"
"黄浦区","上海市黄浦区蓬莱路402弄",121.49430134974213,31.221763979083036,"2022-05-01"
"黄浦区","上海市黄浦区平望街22号",121.48582996946084,31.23752781535236,"2022-05-01"
"黄浦区","上海市黄浦区普育东路101弄",121.50287621481819,31.21521747507171,"2022-05-01"
"黄浦区","上海市黄浦区普育东路200弄",121.50230875522753,31.21362364824667,"2022-05-01"
"黄浦区","上海市黄浦区普育东路26号",121.50261265198155,31.21670040530525,"2022-05-01"
"黄浦区","上海市黄浦区普育东路28号",121.50262253334216,31.216466776058315,"2022-05-01"
"黄浦区","上海市黄浦区普育东路32号",121.50255327398733,31.21609301437511,"2022-05-01"
"黄浦区","上海市黄浦区普育东路71弄",121.50353934394565,31.215349192530727,"2022-05-01"
"黄浦区","上海市黄浦区普育西路112弄",121.49655600674163,31.217129830708306,"2022-05-01"
"黄浦区","上海市黄浦区普育西路46号",121.50044611875259,31.217555007784973,"2022-05-01"
"黄浦区","上海市黄浦区普育西支路71号",121.49932332669567,31.217830557323246,"2022-05-01"
"黄浦区","上海市黄浦区青岛路59号",121.47461273872719,31.24329658704907,"2022-05-01"
"黄浦区","上海市黄浦区瞿溪路1003弄",121.48385693123872,31.205771630284882,"2022-05-01"
"黄浦区","上海市黄浦区瞿溪路1072弄",121.48143060805627,31.20475592286575,"2022-05-01"
"黄浦区","上海市黄浦区瞿溪路1111弄",121.48016264982894,31.204909430212833,"2022-05-01"
"黄浦区","上海市黄浦区瞿溪路114号",121.50180076346163,31.21261119162443,"2022-05-01"
"黄浦区","上海市黄浦区瞿溪路1195号",121.47796755048476,31.20416829935808,"2022-05-01"
"黄浦区","上海市黄浦区瞿溪路1199弄",121.50147369042544,31.212658135634207,"2022-05-01"
"黄浦区","上海市黄浦区瞿溪路1200弄",121.47791751486785,31.202302396543868,"2022-05-01"
"黄浦区","上海市黄浦区瞿溪路120弄",121.5017221617295,31.212085926699476,"2022-05-01"
"黄浦区","上海市黄浦区瞿溪路121号",121.50109586312794,31.21231331280335,"2022-05-01"
"黄浦区","上海市黄浦区瞿溪路122号",121.50094297153015,31.211909499409913,"2022-05-01"
"黄浦区","上海市黄浦区瞿溪路123号",121.50092249016453,31.21218189991694,"2022-05-01"
"黄浦区","上海市黄浦区瞿溪路301弄",121.49833546012634,31.210375378694277,"2022-05-01"
"黄浦区","上海市黄浦区瞿溪路305号",121.49777671409915,31.210322874243882,"2022-05-01"
"黄浦区","上海市黄浦区瞿溪路601号",121.49164407221306,31.208042994517765,"2022-05-01"
"黄浦区","上海市黄浦区瞿溪路883弄",121.4857689745167,31.2063427195683,"2022-05-01"
"黄浦区","上海市黄浦区瞿溪路886号",121.48557098798231,31.205865834003056,"2022-05-01"
"黄浦区","上海市黄浦区瞿溪路904弄",121.4856468947979,31.20580761302777,"2022-05-01"
"黄浦区","上海市黄浦区瞿溪路937弄",121.48468409095231,31.206350981651095,"2022-05-01"
"黄浦区","上海市黄浦区汝南街70弄",121.49138401276792,31.208191323125448,"2022-05-01"
"黄浦区","上海市黄浦区汝南街76号",121.49069555142508,31.208430069146864,"2022-05-01"
"黄浦区","上海市黄浦区瑞金二路200弄",121.47290227520564,31.215027156141527,"2022-05-01"
"黄浦区","上海市黄浦区瑞金二路225弄",121.47352803482389,31.213905849373006,"2022-05-01"
"黄浦区","上海市黄浦区瑞金二路352号",121.47272180562868,31.213254121764763,"2022-05-01"
"黄浦区","上海市黄浦区瑞金二路410弄",121.47339849916935,31.213301683132133,"2022-05-01"
"黄浦区","上海市黄浦区瑞金二路48弄",121.47000784502195,31.221921087082976,"2022-05-01"
"黄浦区","上海市黄浦区瑞金二路52弄",121.47064600125623,31.221863184902386,"2022-05-01"
"黄浦区","上海市黄浦区瑞金二路70弄",121.47087210475308,31.221357118319393,"2022-05-01"
"黄浦区","上海市黄浦区三牌楼路11号",121.498994546879,31.229987282754184,"2022-05-01"
"黄浦区","上海市黄浦区三牌楼路135号",121.49906416555602,31.22802477962844,"2022-05-01"
"黄浦区","上海市黄浦区山东中路230号",121.49121423302654,31.240914697187044,"2022-05-01"
"黄浦区","上海市黄浦区山西南路264号",121.48844412832543,31.244049140177182,"2022-05-01"
"黄浦区","上海市黄浦区山西南路5号",121.49002002568157,31.24016983761952,"2022-05-01"
"黄浦区","上海市黄浦区陕西南路271弄",121.46934498538613,31.21423985704883,"2022-05-01"
"黄浦区","上海市黄浦区陕西南路287弄",121.46860289520434,31.21362758594266,"2022-05-01"
"黄浦区","上海市黄浦区尚文路133弄",121.49799257691318,31.221508436760633,"2022-05-01"
"黄浦区","上海市黄浦区尚文路185号",121.49733995796018,31.221459875920175,"2022-05-01"
"黄浦区","上海市黄浦区尚文路257弄",121.49558044695779,31.22100723208888,"2022-05-01"
"黄浦区","上海市黄浦区尚文路267弄",121.49583781148641,31.22064916093395,"2022-05-01"
"黄浦区","上海市黄浦区顺昌路612弄46号",121.4855653286576,31.220331389007576,"2022-05-01"
"黄浦区","上海市黄浦区思南路26弄",121.47224929693044,31.224894354510305,"2022-05-01"
"黄浦区","上海市黄浦区思南路78号",121.47663374646353,31.215861391017313,"2022-05-01"
"黄浦区","上海市黄浦区四川中路126弄",121.49640239649942,31.240246948227217,"2022-05-01"
"黄浦区","上海市黄浦区四川中路653号",121.492475364132,31.24857984512661,"2022-05-01"
"黄浦区","上海市黄浦区四川中路668号",121.49268502863804,31.24871159280607,"2022-05-01"
"黄浦区","上海市黄浦区四牌楼路81弄",121.50211858395106,31.229726127545458,"2022-05-01"
"黄浦区","上海市黄浦区四牌楼路83号",121.50202453136417,31.229780319434113,"2022-05-01"
"黄浦区","上海市黄浦区四牌楼路95弄",121.50207604918516,31.229580534937064,"2022-05-01"
"黄浦区","上海市黄浦区孙家弄38号",121.50471423772214,31.22769877254614,"2022-05-01"
"黄浦区","上海市黄浦区泰康路274弄",121.47503000163657,31.214044826359295,"2022-05-01"
"黄浦区","上海市黄浦区天津路478弄",121.48354683617669,31.242347049322753,"2022-05-01"
"黄浦区","上海市黄浦区天津路480号",121.48384462445323,31.242193371809854,"2022-05-01"
"黄浦区","上海市黄浦区天津路524号",121.48324734111965,31.241943597071305,"2022-05-01"
"黄浦区","上海市黄浦区天柱山路17弄",121.50017698642179,31.216806951166113,"2022-05-01"
"黄浦区","上海市黄浦区威海路151号",121.47533165262682,31.232874068416944,"2022-05-01"
"黄浦区","上海市黄浦区文庙路169号",121.49529837902766,31.223685310750867,"2022-05-01"
"黄浦区","上海市黄浦区文庙路87弄",121.49642467447606,31.224311026235792,"2022-05-01"
"黄浦区","上海市黄浦区吾园街140号",121.49757288857892,31.223185816176674,"2022-05-01"
"黄浦区","上海市黄浦区西仓桥街103弄",121.49644982703035,31.226330039912906,"2022-05-01"
"黄浦区","上海市黄浦区西仓桥街106号",121.49652079316563,31.225967279949785,"2022-05-01"
"黄浦区","上海市黄浦区西仓桥街107号",121.49654307114228,31.22633413147289,"2022-05-01"
"黄浦区","上海市黄浦区西仓桥街109号",121.49652609316814,31.226208219422396,"2022-05-01"
"黄浦区","上海市黄浦区西仓桥街111号",121.4964898914561,31.226311666490396,"2022-05-01"
"黄浦区","上海市黄浦区西仓桥街112弄",121.49629127610783,31.225973533112793,"2022-05-01"
"黄浦区","上海市黄浦区西仓桥街129号",121.49610667432553,31.226085626778833,"2022-05-01"
"黄浦区","上海市黄浦区西仓桥街138弄",121.51727686061808,31.260385305447492,"2022-05-01"
"黄浦区","上海市黄浦区西仓桥街144号",121.49588497252567,31.225969595936128,"2022-05-01"
"黄浦区","上海市黄浦区西仓桥街149号",121.49581211994881,31.2260867075711,"2022-05-01"
"黄浦区","上海市黄浦区西仓桥街155号",121.49573585381101,31.22604308987316,"2022-05-01"
"黄浦区","上海市黄浦区西仓桥街161弄",121.49530475699677,31.22575390016163,"2022-05-01"
"黄浦区","上海市黄浦区西仓桥街162弄",121.49564243003799,31.225699011143245,"2022-05-01"
"黄浦区","上海市黄浦区西仓桥街92号",121.49668329663238,31.226019775626273,"2022-05-01"
"黄浦区","上海市黄浦区西仓桥街98号",121.49666524069164,31.226005956914285,"2022-05-01"
"黄浦区","上海市黄浦区西仓桥街99号",121.49671401868083,31.226246047094847,"2022-05-01"
"黄浦区","上海市黄浦区西藏南路1090弄",121.49265879811713,31.216956115167616,"2022-05-01"
"黄浦区","上海市黄浦区西藏南路1225号",121.49374161557886,31.215063289745043,"2022-05-01"
"黄浦区","上海市黄浦区西藏南路1341弄",121.4946357888835,31.211611849990653,"2022-05-01"
"黄浦区","上海市黄浦区西藏南路1374弄",121.493515512082,31.211693925657812,"2022-05-01"
"黄浦区","上海市黄浦区西藏南路1383弄",121.49478679403973,31.21117313386863,"2022-05-01"
"黄浦区","上海市黄浦区西藏南路381号",121.4883917571142,31.228126217546457,"2022-05-01"
"黄浦区","上海市黄浦区西藏南路555弄",121.48905380827505,31.225934624536166,"2022-05-01"
"黄浦区","上海市黄浦区西藏南路688弄",121.4895768915735,31.222731250636816,"2022-05-01"
"黄浦区","上海市黄浦区西藏南路897号",121.492501774314,31.218914604106843,"2022-05-01"
"黄浦区","上海市黄浦区西凌家宅路111弄",121.49301659320176,31.210318627559108,"2022-05-01"
"黄浦区","上海市黄浦区西凌家宅路27弄",121.49375212575332,31.210565784292413,"2022-05-01"
"黄浦区","上海市黄浦区西凌家宅路34号",121.49397867840294,31.210128298671012,"2022-05-01"
"黄浦区","上海市黄浦区西凌家宅路46号",121.49380629357559,31.210111157470216,"2022-05-01"
"黄浦区","上海市黄浦区西姚家弄18号",121.50312010476414,31.228298059613252,"2022-05-01"
"黄浦区","上海市黄浦区先棉祠北弄53号",121.49756947501798,31.22334647306856,"2022-05-01"
"黄浦区","上海市黄浦区先棉祠街65号",121.49739574273235,31.223017207205473,"2022-05-01"
"黄浦区","上海市黄浦区县左街20弄",121.50137038529179,31.22977360334704,"2022-05-01"
"黄浦区","上海市黄浦区县左街24弄",121.50137757173589,31.229682743133356,"2022-05-01"
"黄浦区","上海市黄浦区斜土东路158弄",121.49544579096184,31.21356450557723,"2022-05-01"
"黄浦区","上海市黄浦区斜土东路23弄",121.4968869424915,31.214477738349405,"2022-05-01"
"黄浦区","上海市黄浦区斜土东路265弄",121.49341975271463,31.213289483952547,"2022-05-01"
"黄浦区","上海市黄浦区斜土东路68弄",121.49727096809701,31.21408003382973,"2022-05-01"
"黄浦区","上海市黄浦区斜土路108号",121.48909270490363,31.21181584224979,"2022-05-01"
"黄浦区","上海市黄浦区斜土路118弄",121.48937099995062,31.211599882225087,"2022-05-01"
"黄浦区","上海市黄浦区斜土路195弄",121.4886325928214,31.21209418827557,"2022-05-01"
"黄浦区","上海市黄浦区斜土路251弄",121.48710259887683,31.211316361550864,"2022-05-01"
"黄浦区","上海市黄浦区斜土路2号",121.49101382106726,31.212375467482666,"2022-05-01"
"黄浦区","上海市黄浦区斜土路330弄",121.48571839991651,31.21017856406608,"2022-05-01"
"黄浦区","上海市黄浦区斜土路352号",121.48572289144406,31.21041359882715,"2022-05-01"
"黄浦区","上海市黄浦区斜土路460弄",121.48399823469545,31.20840937579005,"2022-05-01"
"黄浦区","上海市黄浦区斜土路486弄",121.48399823469545,31.20840937579005,"2022-05-01"
"黄浦区","上海市黄浦区斜土路520号",121.48301135626217,31.209060442197963,"2022-05-01"
"黄浦区","上海市黄浦区斜土路530号",121.48280223073945,31.208908177072594,"2022-05-01"
"黄浦区","上海市黄浦区斜土路540号",121.48267853407073,31.208983846384914,"2022-05-01"
"黄浦区","上海市黄浦区斜土路550弄",121.48303138847504,31.20882324205738,"2022-05-01"
"黄浦区","上海市黄浦区斜土路645号",121.48075220773512,31.20891620728824,"2022-05-01"
"黄浦区","上海市黄浦区斜土路80弄",121.49047914962772,31.21070993944921,"2022-05-01"
"黄浦区","上海市黄浦区斜土路85弄",121.48975502555614,31.212280343782787,"2022-05-01"
"黄浦区","上海市黄浦区斜土支路5号",121.49068333447015,31.21176990156404,"2022-05-01"
"黄浦区","上海市黄浦区新昌路288号",121.47481809136676,31.241871582166482,"2022-05-01"
"黄浦区","上海市黄浦区新昌路290号",121.4748523168067,31.241918202754274,"2022-05-01"
"黄浦区","上海市黄浦区新昌路330号",121.47445706238231,31.242430873314277,"2022-05-01"
"黄浦区","上海市黄浦区新闸路126号",121.47776426394785,31.244713157154198,"2022-05-01"
"黄浦区","上海市黄浦区新闸路274号",121.47443599711809,31.24521981136301,"2022-05-01"
"黄浦区","上海市黄浦区徐家汇路101号",121.4871600005989,31.21574627399532,"2022-05-01"
"黄浦区","上海市黄浦区徐家汇路135弄",121.4847466130158,31.215348343239388,"2022-05-01"
"黄浦区","上海市黄浦区徐家汇路518号",121.47771431816149,31.21351076755797,"2022-05-01"
"黄浦区","上海市黄浦区徐家汇路536弄",121.47704984157576,31.213221384705662,"2022-05-01"
"黄浦区","上海市黄浦区徐家汇路7号",121.48769592966616,31.216566913979435,"2022-05-01"
"黄浦区","上海市黄浦区薛家浜路236号",121.50870262435589,31.216563130821683,"2022-05-01"
"黄浦区","上海市黄浦区薛家浜路242弄",121.50862932262628,31.216213998747815,"2022-05-01"
"黄浦区","上海市黄浦区学前街111弄",121.49611448958346,31.22191560567808,"2022-05-01"
"黄浦区","上海市黄浦区学前街118号",121.49611161500583,31.22156826924007,"2022-05-01"
"黄浦区","上海市黄浦区学前街156号",121.49659472370911,31.220583691976135,"2022-05-01"
"黄浦区","上海市黄浦区学前街56号",121.49547714182414,31.222458263205375,"2022-05-01"
"黄浦区","上海市黄浦区学西街19号",121.49366454096611,31.223388161981504,"2022-05-01"
"黄浦区","上海市黄浦区学院路129号",121.50136346833938,31.22901190331114,"2022-05-01"
"黄浦区","上海市黄浦区学院路228号",121.49958895563495,31.228699563589586,"2022-05-01"
"黄浦区","上海市黄浦区学院路79弄",121.5024726959831,31.229039617042307,"2022-05-01"
"黄浦区","上海市黄浦区巡道街43弄",121.50419977815658,31.225780611261605,"2022-05-01"
"黄浦区","上海市黄浦区巡道街50弄",121.50388555088918,31.225747415384767,"2022-05-01"
"黄浦区","上海市黄浦区巡道街53弄",121.50428781209655,31.22573336503335,"2022-05-01"
"黄浦区","上海市黄浦区巡道街54号",121.50406539165228,31.225668980428978,"2022-05-01"
"黄浦区","上海市黄浦区巡道街58号",121.50402981875409,31.22558822941172,"2022-05-01"
"黄浦区","上海市黄浦区巡道街64号",121.50402218315726,31.225488641541144,"2022-05-01"
"黄浦区","上海市黄浦区延安东路1292弄",121.47803330644808,31.231757993110342,"2022-05-01"
"黄浦区","上海市黄浦区延安东路1310弄",121.43025647874715,31.230194477204673,"2022-05-01"
"黄浦区","上海市黄浦区延安东路158弄",121.4955776622107,31.23813329181246,"2022-05-01"
"黄浦区","上海市黄浦区雁荡路18号",121.47639758194497,31.226749539678952,"2022-05-01"
"黄浦区","上海市黄浦区雁荡路31号",121.47674055498867,31.226416117033335,"2022-05-01"
"黄浦区","上海市黄浦区雁荡路36号",121.4763678480326,31.226363235583076,"2022-05-01"
"黄浦区","上海市黄浦区永年路140号",121.48540264552975,31.21796072698275,"2022-05-01"
"黄浦区","上海市黄浦区永年路146号",121.48526170139522,31.217959337272042,"2022-05-01"
"黄浦区","上海市黄浦区永年路74号",121.48680957161946,31.218216510608467,"2022-05-01"
"黄浦区","上海市黄浦区永年路84号",121.48662389187055,31.21832359518475,"2022-05-01"
"黄浦区","上海市黄浦区永年路98号",121.48642392906403,31.218164164967117,"2022-05-01"
"黄浦区","上海市黄浦区鸳鸯厅弄60号",121.49158559252436,31.23724715206362,"2022-05-01"
"黄浦区","上海市黄浦区肇嘉浜路168弄",121.47033518754978,31.209930943034088,"2022-05-01"
"黄浦区","上海市黄浦区肇周路421弄",121.48844628425866,31.217591680858007,"2022-05-01"
"黄浦区","上海市黄浦区浙江中路118弄",121.48669764275293,31.237833410093312,"2022-05-01"
"黄浦区","上海市黄浦区浙江中路128弄",121.4866102376268,31.237968878016,"2022-05-01"
"黄浦区","上海市黄浦区浙江中路137弄",121.48637928328019,31.23804367475078,"2022-05-01"
"黄浦区","上海市黄浦区浙江中路142号",121.4863614968311,31.238122253712167,"2022-05-01"
"黄浦区","上海市黄浦区浙江中路159号",121.48602005090673,31.238268064596273,"2022-05-01"
"黄浦区","上海市黄浦区浙江中路167弄",121.48600864242677,31.238373814010046,"2022-05-01"
"黄浦区","上海市黄浦区浙江中路419号",121.48416963138675,31.242341105998225,"2022-05-01"
"黄浦区","上海市黄浦区制造局后街28号",121.48925179480945,31.216201799947697,"2022-05-01"
"黄浦区","上海市黄浦区制造局路208弄",121.4903367682044,31.213930324779447,"2022-05-01"
"黄浦区","上海市黄浦区制造局路370弄",121.49096774352816,31.212175378451143,"2022-05-01"
"黄浦区","上海市黄浦区制造局路455弄",121.49101040750632,31.210925129406952,"2022-05-01"
"黄浦区","上海市黄浦区制造局路567弄",121.49182867399537,31.209308606024834,"2022-05-01"
"黄浦区","上海市黄浦区制造局路715号",121.49222761147234,31.206766941830466,"2022-05-01"
"黄浦区","上海市黄浦区制造局路721弄",121.45664357428889,31.240502362188455,"2022-05-01"
"黄浦区","上海市黄浦区制造局路729号",121.49226120809843,31.2063831806023,"2022-05-01"
"黄浦区","上海市黄浦区制造局路833弄",121.49317505429372,31.20532933483963,"2022-05-01"
"黄浦区","上海市黄浦区制造局路859弄",121.49300778980776,31.20459407581285,"2022-05-01"
"黄浦区","上海市黄浦区中华路1022号",121.49728210708534,31.22024353059267,"2022-05-01"
"黄浦区","上海市黄浦区中华路1141弄",121.4952663993515,31.22080217900347,"2022-05-01"
"黄浦区","上海市黄浦区中华路1299弄",121.49712880793531,31.218566318105758,"2022-05-01"
"黄浦区","上海市黄浦区中华路211弄",121.50500942091271,31.227310310812573,"2022-05-01"
"黄浦区","上海市黄浦区中华路333号",121.50525627526686,31.225535424693543,"2022-05-01"
"黄浦区","上海市黄浦区中华路989号",121.49759651401384,31.220345362965787,"2022-05-01"
"黄浦区","上海市黄浦区中华路999号",121.49714565447837,31.22050957611955,"2022-05-01"
"黄浦区","上海市黄浦区中山南路1586弄",121.501523995534,31.211132057209905,"2022-05-01"
"黄浦区","上海市黄浦区中山南路1711弄",121.50028954410219,31.209655061393807,"2022-05-01"
"黄浦区","上海市黄浦区中山南路1726号",121.49999175582565,31.21011764333035,"2022-05-01"
"黄浦区","上海市黄浦区中山南路1726弄",121.49944953861981,31.209989701935054,"2022-05-01"
"黄浦区","上海市黄浦区中山南路200弄",121.5079024138076,31.22832384361581,"2022-05-01"
"黄浦区","上海市黄浦区中山南路36号",121.50628303846477,31.229621140321466,"2022-05-01"
"黄浦区","上海市黄浦区中山南一路1022号",121.47886891023347,31.201324720905465,"2022-05-01"
"黄浦区","上海市黄浦区中山南一路1065号",121.47900410521271,31.201882323907988,"2022-05-01"
"黄浦区","上海市黄浦区中山南一路246弄",121.49395101059324,31.20569688497222,"2022-05-01"
"黄浦区","上海市黄浦区中山南一路247弄",121.49296071859904,31.20630496106852,"2022-05-01"
"黄浦区","上海市黄浦区中山南一路252号",121.49359114940593,31.206066518493287,"2022-05-01"
"黄浦区","上海市黄浦区中山南一路254号",121.49335633234564,31.205938262698982,"2022-05-01"
"黄浦区","上海市黄浦区中山南一路256弄",121.49308225933454,31.205811551052427,"2022-05-01"
"黄浦区","上海市黄浦区中山南一路290号",121.49302521693465,31.20588135444261,"2022-05-01"
"黄浦区","上海市黄浦区中山南一路500弄",121.49210643005905,31.205224783551003,"2022-05-01"
"黄浦区","上海市黄浦区庄家街100弄",121.49515413002716,31.225904090942134,"2022-05-01"
"黄浦区","上海市黄浦区庄家街34号",121.49478544658146,31.226400291200992,"2022-05-01"
"黄浦区","上海市黄浦区庄家街35号",121.49510829758174,31.22638678134199,"2022-05-01"
"黄浦区","上海市黄浦区庄家街49号",121.49523055696164,31.226172398918468,"2022-05-01"
"黄浦区","上海市黄浦区庄家街58号",121.4949782229439,31.22613912598119,"2022-05-01"
"黄浦区","上海市黄浦区庄家街64号",121.49505592637051,31.225922272603697,"2022-05-01"
"黄浦区","上海市黄浦区庄家街79弄",121.50150872434034,31.223385768729585,"2022-05-01"
"黄浦区","上海市黄浦区紫霞路119号",121.50992557747718,31.224944303175814,"2022-05-01"
"静安区","上海市静安区安远路389弄",121.44789803116595,31.244852551494432,"2022-05-01"
"静安区","上海市静安区安远路515弄",121.44648391863214,31.243867678946206,"2022-05-01"
"静安区","上海市静安区宝昌路610弄",121.47854309482499,31.266862903537238,"2022-05-01"
"静安区","上海市静安区保德路1316弄",121.448663477291,31.32016700783944,"2022-05-01"
"静安区","上海市静安区保德路525弄",121.46445137628997,31.32274800514444,"2022-05-01"
"静安区","上海市静安区北宝兴路42弄",121.47278828023643,31.277279935860676,"2022-05-01"
"静安区","上海市静安区北京西路1065号",121.46147618844093,31.23630519483176,"2022-05-01"
"静安区","上海市静安区昌化路435弄",121.47698848730943,31.26935362770364,"2022-05-01"
"静安区","上海市静安区昌化路449号",121.4565905742638,31.245112352351452,"2022-05-01"
"静安区","上海市静安区昌化路453弄",121.4566166251236,31.245158122302875,"2022-05-01"
"静安区","上海市静安区昌化路60号",121.46146572318173,31.240988179384562,"2022-05-01"
"静安区","上海市静安区昌平路317号",121.45565642636397,31.243089653173516,"2022-05-01"
"静安区","上海市静安区昌平路418弄",121.46070454400785,31.2135391035576,"2022-05-01"
"静安区","上海市静安区昌平路421弄",121.45413613411888,31.241898443037794,"2022-05-01"
"静安区","上海市静安区昌平路935号",121.44499201284117,31.239293751676527,"2022-05-01"
"静安区","上海市静安区昌平路999弄",121.44392536487862,31.238681026957256,"2022-05-01"
"静安区","上海市静安区常德路617弄",121.4513146463426,31.237565329688536,"2022-05-01"
"静安区","上海市静安区常德路633弄",121.45097823092912,31.237684819696085,"2022-05-01"
"静安区","上海市静安区场中路1500号",121.4632749553941,31.31023474216036,"2022-05-01"
"静安区","上海市静安区长乐路516弄",121.46350806567395,31.226395736448744,"2022-05-01"
"静安区","上海市静安区长乐路638弄",121.46075260335263,31.225207864935424,"2022-05-01"
"静安区","上海市静安区长乐路672弄",121.45994978771837,31.224829969328706,"2022-05-01"
"静安区","上海市静安区长乐路698弄",121.4589990211666,31.224272888977396,"2022-05-01"
"静安区","上海市静安区长宁路155弄",121.43553114904064,31.232367984182794,"2022-05-01"
"静安区","上海市静安区大统路1033弄",121.4661100075836,31.26279586923471,"2022-05-01"
"静安区","上海市静安区大统路107弄",121.47165946953258,31.249101354918455,"2022-05-01"
"静安区","上海市静安区大统路933弄",121.46622139746682,31.261523032628112,"2022-05-01"
"静安区","上海市静安区大统路988号",121.4657222989255,31.26183016951846,"2022-05-01"
"静安区","上海市静安区东宝兴路458弄",121.48566899311345,31.265014533089033,"2022-05-01"
"静安区","上海市静安区东宝兴路490号",121.48534416584104,31.26540291538548,"2022-05-01"
"静安区","上海市静安区汾西路400弄",121.464971944333,31.32330303323762,"2022-05-01"
"静安区","上海市静安区高平路811号",121.43394608896828,31.297576396306795,"2022-05-01"
"静安区","上海市静安区共和新路1207号",121.46810667124062,31.268705527264295,"2022-05-01"
"静安区","上海市静安区共和新路1304弄",121.46583665321691,31.270054040280222,"2022-05-01"
"静安区","上海市静安区共和新路1700弄",121.46231502612613,31.274841119709045,"2022-05-01"
"静安区","上海市静安区共和新路318弄",121.46895314452269,31.254511548301707,"2022-05-01"
"静安区","上海市静安区共和新路619弄",121.4715034338655,31.26046625793751,"2022-05-01"
"静安区","上海市静安区共和新路688弄",121.4691756547975,31.260511171490865,"2022-05-01"
"静安区","上海市静安区共和新路708弄",121.46962381941643,31.261404962147882,"2022-05-01"
"静安区","上海市静安区共和新路710弄",121.46863730030537,31.261505283480474,"2022-05-01"
"静安区","上海市静安区共和新路730弄",121.46838703239028,31.26166263341522,"2022-05-01"
"静安区","上海市静安区共和新路736弄",121.46920377175995,31.262594071693048,"2022-05-01"
"静安区","上海市静安区共和新路802弄",121.46978497542491,31.263048752192734,"2022-05-01"
"静安区","上海市静安区共和新路899弄",121.45580204168715,31.31690084525303,"2022-05-01"
"静安区","上海市静安区共和新路950号",121.46878318512019,31.265230755659505,"2022-05-01"
"静安区","上海市静安区共和新路966号",121.46858007824437,31.265266484037504,"2022-05-01"
"静安区","上海市静安区广延路49弄",121.46370272847795,31.279198120943423,"2022-05-01"
"静安区","上海市静安区广中西路1099号",121.44091469396194,31.280873848395345,"2022-05-01"
"静安区","上海市静安区广中西路288号",121.4537309983339,31.284565758952507,"2022-05-01"
"静安区","上海市静安区广中西路99弄",121.45546068559337,31.28810446154631,"2022-05-01"
"静安区","上海市静安区海防路100弄",121.45616037575508,31.247381141103308,"2022-05-01"
"静安区","上海市静安区海防路391弄",121.45240680618163,31.24365904826551,"2022-05-01"
"静安区","上海市静安区海防路403弄",121.45223594847364,31.244151332565703,"2022-05-01"
"静安区","上海市静安区海宁路1399号",121.4750864152226,31.250056689715176,"2022-05-01"
"静安区","上海市静安区汉中路18号",121.46660838748052,31.24975067183541,"2022-05-01"
"静安区","上海市静安区和田路451弄",121.45816988518091,31.277218673035517,"2022-05-01"
"静安区","上海市静安区恒丰北路100号",121.45802013765238,31.261691340682233,"2022-05-01"
"静安区","上海市静安区恒丰北路108弄",121.45717510165915,31.26142973381002,"2022-05-01"
"静安区","上海市静安区沪太路1170弄",121.43392722455256,31.283330252014437,"2022-05-01"
"静安区","上海市静安区沪太路453弄",121.46328456726306,31.26340627520708,"2022-05-01"
"静安区","上海市静安区沪太路631弄",121.45662632682311,31.26730614278311,"2022-05-01"
"静安区","上海市静安区沪太路651弄",121.4552847973745,31.267443805797818,"2022-05-01"
"静安区","上海市静安区沪太路883弄",121.4427033998934,31.276484441893263,"2022-05-01"
"静安区","上海市静安区黄山路280弄",121.4745494980193,31.272077159114005,"2022-05-01"
"静安区","上海市静安区江场路1428号",121.45930201961512,31.30462290692902,"2022-05-01"
"静安区","上海市静安区江场西路299弄",121.44792201592307,31.302120858773666,"2022-05-01"
"静安区","上海市静安区江宁路301号",121.45969251302031,31.23932262018989,"2022-05-01"
"静安区","上海市静安区江杨南路466弄",121.47443155050583,31.322721398879402,"2022-05-01"
"静安区","上海市静安区胶州路565弄",121.4470871307821,31.239263802514216,"2022-05-01"
"静安区","上海市静安区晋元路88弄",121.4764629785861,31.246995076565483,"2022-05-01"
"静安区","上海市静安区京江路176号",121.4712055557584,31.254375178229523,"2022-05-01"
"静安区","上海市静安区京江路194号",121.47080158777055,31.25446755797758,"2022-05-01"
"静安区","上海市静安区京江路195号",121.47074813859273,31.254784442200776,"2022-05-01"
"静安区","上海市静安区京江路207号",121.47070394196162,31.254775644163296,"2022-05-01"
"静安区","上海市静安区景凤路280弄",121.46873746136974,31.32660845515779,"2022-05-01"
"静安区","上海市静安区康定路281号",121.45733697631205,31.24135883135375,"2022-05-01"
"静安区","上海市静安区康定路307弄",121.43767427642047,31.235369134716155,"2022-05-01"
"静安区","上海市静安区康定路418弄",121.45456130211676,31.24160752704108,"2022-05-01"
"静安区","上海市静安区康定路848弄",121.44699622226449,31.237786478710234,"2022-05-01"
"静安区","上海市静安区康定路859号",121.4472717325644,31.23729084172882,"2022-05-01"
"静安区","上海市静安区康定路861号",121.44721999016701,31.23735683932924,"2022-05-01"
"静安区","上海市静安区康定路863弄",121.44716465454762,31.237318321437105,"2022-05-01"
"静安区","上海市静安区康定路888弄",121.44655057290099,31.237384087447765,"2022-05-01"
"静安区","上海市静安区老沪太路1291弄",121.44778143111076,31.275609930813346,"2022-05-01"
"静安区","上海市静安区老沪太路135号",121.4627211500472,31.274509411719407,"2022-05-01"
"静安区","上海市静安区老沪太路199弄",121.46029761161184,31.274734099837392,"2022-05-01"
"静安区","上海市静安区老沪太路255弄",121.45813422245214,31.273646147535352,"2022-05-01"
"静安区","上海市静安区临汾路1513弄",121.4457690471073,31.31677690620486,"2022-05-01"
"静安区","上海市静安区临汾路299弄",121.46826108995778,31.31580474635182,"2022-05-01"
"静安区","上海市静安区临汾路894弄",121.45622828765163,31.317197850976278,"2022-05-01"
"静安区","上海市静安区临汾路971弄",121.45414439852958,31.316802357298506,"2022-05-01"
"静安区","上海市静安区临山路203弄",121.47979371575599,31.26127292367599,"2022-05-01"
"静安区","上海市静安区临山路20号",121.4827832764932,31.261997859660973,"2022-05-01"
"静安区","上海市静安区灵石路1123弄",121.43409628564955,31.2800337123583,"2022-05-01"
"静安区","上海市静安区岭南路100弄",121.46250061604451,31.313743548841014,"2022-05-01"
"静安区","上海市静安区柳营路309弄",121.470841113213,31.274315664079303,"2022-05-01"
"静安区","上海市静安区柳营路319弄",121.46987678224804,31.273721070046967,"2022-05-01"
"静安区","上海市静安区陆丰路146号",121.48069103312992,31.263195681738683,"2022-05-01"
"静安区","上海市静安区洛川中路1100弄",121.4560534773994,31.27070760991036,"2022-05-01"
"静安区","上海市静安区茂名北路141弄",121.46258873981503,31.232392686344408,"2022-05-01"
"静安区","上海市静安区民德路58号",121.47795102166336,31.255862890102676,"2022-05-01"
"静安区","上海市静安区民立路130号",121.46242973973976,31.25141048844913,"2022-05-01"
"静安区","上海市静安区南汇路10弄",121.46417218293747,31.235661496730362,"2022-05-01"
"静安区","上海市静安区南京西路1025弄",121.4643499575979,31.23358988422801,"2022-05-01"
"静安区","上海市静安区南京西路1081弄",121.46335391644843,31.234414690543645,"2022-05-01"
"静安区","上海市静安区南京西路1522弄",121.45194193308022,31.231597968218317,"2022-05-01"
"静安区","上海市静安区南山路151弄",121.47052913170938,31.263277249144238,"2022-05-01"
"静安区","上海市静安区南山路38号",121.47324147536621,31.262805901223498,"2022-05-01"
"静安区","上海市静安区南山路50号",121.47283678873397,31.26269238534904,"2022-05-01"
"静安区","上海市静安区南山路71弄",121.47256792589482,31.26289688359573,"2022-05-01"
"静安区","上海市静安区南苏州路1539弄",121.46637375008132,31.244828933198924,"2022-05-01"
"静安区","上海市静安区南苏州路1593弄",121.46557102427761,31.24443614308942,"2022-05-01"
"静安区","上海市静安区平陆路397号",121.45239378075175,31.292731158358638,"2022-05-01"
"静安区","上海市静安区平顺路180弄",121.45939122135226,31.319039481289167,"2022-05-01"
"静安区","上海市静安区平顺路600号",121.45891386180426,31.321724776705725,"2022-05-01"
"静安区","上海市静安区平顺路790弄",121.45939229931888,31.32375973165818,"2022-05-01"
"静安区","上海市静安区平型关路2199号",121.467978752536,31.307058708259852,"2022-05-01"
"静安区","上海市静安区平型关路265弄",121.47273442137738,31.276501611147367,"2022-05-01"
"静安区","上海市静安区平型关路300弄",121.47035315365997,31.27688072373114,"2022-05-01"
"静安区","上海市静安区平型关路305弄",121.4716473424082,31.276387994540464,"2022-05-01"
"静安区","上海市静安区平型关路377弄",121.4693380684337,31.27857053518037,"2022-05-01"
"静安区","上海市静安区普善路1029弄",121.45700487276501,31.27485145904127,"2022-05-01"
"静安区","上海市静安区普善路28号",121.46460723229595,31.260526065499487,"2022-05-01"
"静安区","上海市静安区普善路661号",121.45955920448263,31.269057935811805,"2022-05-01"
"静安区","上海市静安区普善路铁路新村15号",121.45899767370835,31.262280146391042,"2022-05-01"
"静安区","上海市静安区普善路铁路新村3号",121.45974452490934,31.2627410791231,"2022-05-01"
"静安区","上海市静安区青云路350弄",121.4796057902433,31.269563127003167,"2022-05-01"
"静安区","上海市静安区青云路439弄",121.47767299610803,31.268397872821048,"2022-05-01"
"静安区","上海市静安区青云路483弄",121.47637162091573,31.268730528483804,"2022-05-01"
"静安区","上海市静安区青云路503弄",121.47612889876692,31.268251260113917,"2022-05-01"
"静安区","上海市静安区青云路604号",121.47532859838809,31.26769459271918,"2022-05-01"
"静安区","上海市静安区青云路608号",121.4752301441042,31.26765647315052,"2022-05-01"
"静安区","上海市静安区青云路650弄",121.473574028066,31.26712812198073,"2022-05-01"
"静安区","上海市静安区青云路753号",121.47170237859245,31.266687942805785,"2022-05-01"
"静安区","上海市静安区虬江路1150弄",121.47786631145377,31.25448708350998,"2022-05-01"
"静安区","上海市静安区虬江路1455弄",121.4715443067662,31.256557461382513,"2022-05-01"
"静安区","上海市静安区虬江路1488弄",121.4713773117719,31.255834721269647,"2022-05-01"
"静安区","上海市静安区曲沃路79弄",121.45147113116244,31.313351279862978,"2022-05-01"
"静安区","上海市静安区三泉路631弄",121.44724190882147,31.31878991201004,"2022-05-01"
"静安区","上海市静安区三泉路717弄",121.44622457783142,31.319808468214518,"2022-05-01"
"静安区","上海市静安区三泉路900弄",121.4472488257739,31.323615982177074,"2022-05-01"
"静安区","上海市静安区山西北路222弄",121.48752426348321,31.249826925564726,"2022-05-01"
"静安区","上海市静安区山西北路388弄",121.4869220394693,31.252247949135892,"2022-05-01"
"静安区","上海市静安区陕西北路1155弄",121.45095550379972,31.246231895915905,"2022-05-01"
"静安区","上海市静安区陕西北路159弄",121.46183667844207,31.232603966754034,"2022-05-01"
"静安区","上海市静安区陕西北路430号",121.4595839977147,31.236482348046916,"2022-05-01"
"静安区","上海市静安区陕西北路470弄",121.46031917094408,31.237256878033257,"2022-05-01"
"静安区","上海市静安区陕西北路513号",121.45884594990771,31.237667143212345,"2022-05-01"
"静安区","上海市静安区陕西北路525弄",121.45861894810534,31.237753595852144,"2022-05-01"
"静安区","上海市静安区陕西北路835弄",121.4545808851769,31.2418672597267,"2022-05-01"
"静安区","上海市静安区少年村路531号",121.43604336284243,31.30733869908063,"2022-05-01"
"静安区","上海市静安区升平街41弄",121.46769003714509,31.23246486293552,"2022-05-01"
"静安区","上海市静安区顺德路58号",121.46627197206705,31.244382885902947,"2022-05-01"
"静安区","上海市静安区谈家桥路163弄",121.45627185546886,31.266914604602174,"2022-05-01"
"静安区","上海市静安区谈家桥路85弄",121.45924623484296,31.266592051222077,"2022-05-01"
"静安区","上海市静安区天目西路285号",121.46088402544875,31.252714874009964,"2022-05-01"
"静安区","上海市静安区天目中路260号",121.47579697488099,31.251435648652805,"2022-05-01"
"静安区","上海市静安区天目中路538弄",121.45873312273565,31.278937951896204,"2022-05-01"
"静安区","上海市静安区通阁路181号",121.47706655005824,31.265926491984274,"2022-05-01"
"静安区","上海市静安区万航渡路623弄",121.44039295812175,31.232727940349175,"2022-05-01"
"静安区","上海市静安区闻喜路590号",121.4630230705291,31.314716038686427,"2022-05-01"
"静安区","上海市静安区闻喜路605号",121.46249558553365,31.3145012418574,"2022-05-01"
"静安区","上海市静安区闻喜路985号",121.45323046250374,31.314143220334046,"2022-05-01"
"静安区","上海市静安区武定路100号",121.46415906767703,31.24248737342087,"2022-05-01"
"静安区","上海市静安区武定路530号",121.45664249632229,31.23995355707733,"2022-05-01"
"静安区","上海市静安区武定路657弄",121.45494667518055,31.23861456715646,"2022-05-01"
"静安区","上海市静安区武定西路1189号",121.44209497757149,31.23269088723708,"2022-05-01"
"静安区","上海市静安区武宁南路195弄",121.44049114291398,31.23546666506114,"2022-05-01"
"静安区","上海市静安区武宁南路438弄",121.43848792162673,31.238931119164207,"2022-05-01"
"静安区","上海市静安区西宝兴路922弄",121.47445373865193,31.275670037316026,"2022-05-01"
"静安区","上海市静安区西藏北路1009号",121.4735375568623,31.266032287282638,"2022-05-01"
"静安区","上海市静安区西藏北路970弄",121.47394700451375,31.265738899880624,"2022-05-01"
"静安区","上海市静安区西藏北路991号",121.47360421113115,31.265764750727644,"2022-05-01"
"静安区","上海市静安区西康路904号",121.44977243544307,31.24523754430708,"2022-05-01"
"静安区","上海市静安区西苏州路85弄",121.45776798329574,31.24807832238473,"2022-05-01"
"静安区","上海市静安区新丰路385号",121.45005082032061,31.244728593968443,"2022-05-01"
"静安区","上海市静安区新闸路1335弄",121.45736662039388,31.237700334860286,"2022-05-01"
"静安区","上海市静安区延安中路504弄",121.47116899472414,31.230550890728047,"2022-05-01"
"静安区","上海市静安区延安中路540弄",121.47016217390856,31.23069918367407,"2022-05-01"
"静安区","上海市静安区延平路230弄",121.4466416610797,31.236847151388755,"2022-05-01"
"静安区","上海市静安区延平路250号",121.44591331497222,31.237226773838245,"2022-05-01"
"静安区","上海市静安区延平路518弄",121.4431162611058,31.241736505828914,"2022-05-01"
"静安区","上海市静安区阳城路280弄",121.43407185173969,31.29077467828222,"2022-05-01"
"静安区","上海市静安区宜川路725号",121.44425198876206,31.276167862729356,"2022-05-01"
"静安区","上海市静安区永兴路258弄",121.47976200557149,31.25913589635148,"2022-05-01"
"静安区","上海市静安区永兴路310号",121.47817559804085,31.258545527379262,"2022-05-01"
"静安区","上海市静安区永兴路973弄",121.46607605163531,31.257837928595784,"2022-05-01"
"静安区","上海市静安区永兴小马路18号",121.4707345741795,31.256457289087546,"2022-05-01"
"静安区","上海市静安区永兴小马路20号",121.47075550469789,31.25644409226719,"2022-05-01"
"静安区","上海市静安区余姚路321弄",121.44443856681647,31.241068068052705,"2022-05-01"
"静安区","上海市静安区余姚路487弄",121.44262336087246,31.238642895555838,"2022-05-01"
"静安区","上海市静安区育婴堂路38弄",121.47318802618837,31.254010906319873,"2022-05-01"
"静安区","上海市静安区原平路128号",121.43901774221652,31.288346398117305,"2022-05-01"
"静安区","上海市静安区粤秀路318弄",121.46632137887009,31.29443233154993,"2022-05-01"
"静安区","上海市静安区运城路623号",121.44008933085937,31.281688361901125,"2022-05-01"
"静安区","上海市静安区止园路320弄",121.46965534993983,31.276394398647767,"2022-05-01"
"静安区","上海市静安区止园路400弄",121.4741771503854,31.266536723173946,"2022-05-01"
"静安区","上海市静安区止园路406弄",121.47494304566321,31.266367343520255,"2022-05-01"
"静安区","上海市静安区芷江西路220弄",121.46884418006431,31.26324414374413,"2022-05-01"
"静安区","上海市静安区芷江西路230号",121.46863783928866,31.263666410345913,"2022-05-01"
"静安区","上海市静安区芷江西路234号",121.46833034931261,31.263625125226874,"2022-05-01"
"静安区","上海市静安区芷江西路239弄",121.46916218021485,31.26398642727618,"2022-05-01"
"静安区","上海市静安区芷江西路285弄",121.46675184687047,31.263678757293864,"2022-05-01"
"静安区","上海市静安区芷江西路393弄",121.46441768983335,31.26439171360241,"2022-05-01"
"静安区","上海市静安区芷江中路413弄",121.47651543962787,31.26565270461663,"2022-05-01"
"静安区","上海市静安区芷江中路459弄",121.4761892648972,31.26521902625382,"2022-05-01"
"静安区","上海市静安区芷江中路493弄",121.47548175947755,31.265302366736005,"2022-05-01"
"静安区","上海市静安区芷江中路497号",121.47545813404263,31.264827016321938,"2022-05-01"
"静安区","上海市静安区芷江中路531弄",121.4749204981949,31.26451934910736,"2022-05-01"
"静安区","上海市静安区芷江中路660弄",121.47506988640122,31.264123477837586,"2022-05-01"
"静安区","上海市静安区芷江中路666弄",121.50777395611968,31.264665427497317,"2022-05-01"
"静安区","上海市静安区芷江中路680号",121.47451140986567,31.263905169162577,"2022-05-01"
"静安区","上海市静安区中华新路455弄",121.47442741830048,31.26149640890541,"2022-05-01"
"静安区","上海市静安区中华新路469号",121.47277848870637,31.260178023537566,"2022-05-01"
"静安区","上海市静安区中华新路487号",121.47132314394966,31.259930689160406,"2022-05-01"
"静安区","上海市静安区中华新路489号",121.47117842693198,31.259916335257582,"2022-05-01"
"静安区","上海市静安区中华新路718号",121.46660991459989,31.259756821576165,"2022-05-01"
"静安区","上海市静安区中华新路730弄",121.46646663487105,31.259655649477487,"2022-05-01"
"静安区","上海市静安区中华新路793弄",121.4642960592673,31.260247786376155,"2022-05-01"
"静安区","上海市静安区中华新路815弄",121.48132308088672,31.26534619762644,"2022-05-01"
"静安区","上海市静安区中华新路870号",121.46297060948733,31.260106177019964,"2022-05-01"
"静安区","上海市静安区中华新路893弄",121.46198462935958,31.261228396340947,"2022-05-01"
"静安区","上海市静安区中华新路950弄",121.46216222435889,31.26028915015851,"2022-05-01"
"静安区","上海市静安区中山北路188弄",121.50760175095341,31.259874894138658,"2022-05-01"
"静安区","上海市静安区中山北路570弄",121.47155418812682,31.26732551130249,"2022-05-01"
"静安区","上海市静安区中山北路758弄",121.46623729747436,31.266185153946342,"2022-05-01"
"静安区","上海市静安区中山北路805弄",121.46433019487667,31.26770616748392,"2022-05-01"
"静安区","上海市静安区中山北路814弄",121.46448443393274,31.265802562401454,"2022-05-01"
"静安区","上海市静安区中兴路1231弄",121.46933709355132,31.259195874290462,"2022-05-01"
"静安区","上海市静安区中兴路1279弄",121.46845790869502,31.258953075299733,"2022-05-01"
"静安区","上海市静安区中兴路1321弄",121.46829612387268,31.25857438994905,"2022-05-01"
"静安区","上海市静安区中兴路1340弄",121.46757667098974,31.258286381233074,"2022-05-01"
"静安区","上海市静安区中兴路1377弄",121.46732810985513,31.259029475867184,"2022-05-01"
"静安区","上海市静安区中兴路1385弄",121.46736062851458,31.258900057899563,"2022-05-01"
"徐汇区","上海市徐汇区安福路53弄",121.45354262366845,31.220909723844116,"2022-05-01"
"徐汇区","上海市徐汇区漕溪三村",121.44401106322428,31.176091044668507,"2022-05-01"
"徐汇区","上海市徐汇区漕溪四村",121.44682527472594,31.178480145130568,"2022-05-01"
"徐汇区","上海市徐汇区茶陵路159弄",121.47424596058747,31.20239088954641,"2022-05-01"
"徐汇区","上海市徐汇区长桥四村",121.44602802858583,31.1399378439366,"2022-05-01"
"徐汇区","上海市徐汇区大木桥路158弄",121.46779792363684,31.205119228328066,"2022-05-01"
"徐汇区","上海市徐汇区东安二村",121.45997781485028,31.19283107711445,"2022-05-01"
"徐汇区","上海市徐汇区东安路149弄",121.45820815299562,31.202221393713444,"2022-05-01"
"徐汇区","上海市徐汇区东安路230弄",121.45903800762575,31.19928385479955,"2022-05-01"
"徐汇区","上海市徐汇区东安路240弄",121.45828873099988,31.197981967646935,"2022-05-01"
"徐汇区","上海市徐汇区东安路452号",121.46202074124108,31.194875558921645,"2022-05-01"
"徐汇区","上海市徐汇区东安四村",121.45666306751846,31.192661177850134,"2022-05-01"
"徐汇区","上海市徐汇区东安一村",121.4637655200331,31.195351033168695,"2022-05-01"
"徐汇区","上海市徐汇区东泉路104弄",121.45199592124136,31.161180171731836,"2022-05-01"
"徐汇区","上海市徐汇区东泉路105弄",121.45073065793056,31.16215015465626,"2022-05-01"
"徐汇区","上海市徐汇区东泉路51弄",121.45088992749749,31.162008551370906,"2022-05-01"
"徐汇区","上海市徐汇区番禺路1160弄",121.4323812407699,31.19832977769461,"2022-05-01"
"徐汇区","上海市徐汇区丰谷路220弄",121.45972637913803,31.174384473964274,"2022-05-01"
"徐汇区","上海市徐汇区复兴中路1196弄",121.46628903987174,31.21969869849298,"2022-05-01"
"徐汇区","上海市徐汇区复兴中路1218弄",121.46588417357839,31.219457742262225,"2022-05-01"
"徐汇区","上海市徐汇区复兴中路1230号",121.46553832595704,31.219331589345497,"2022-05-01"
"徐汇区","上海市徐汇区复兴中路1294弄",121.462652968659,31.218904876230553,"2022-05-01"
"徐汇区","上海市徐汇区广元西路629号",121.43744624655736,31.20057545353597,"2022-05-01"
"徐汇区","上海市徐汇区广元西路881号",121.4379376117808,31.201366737373725,"2022-05-01"
"徐汇区","上海市徐汇区桂林东街218弄",121.42785953015488,31.16298316081824,"2022-05-01"
"徐汇区","上海市徐汇区桂林东街28弄",121.4302217143239,31.161697378752343,"2022-05-01"
"徐汇区","上海市徐汇区桂林路303弄",121.42490751858799,31.175201150784943,"2022-05-01"
"徐汇区","上海市徐汇区桂林路575弄",121.42160804244985,31.184892900028558,"2022-05-01"
"徐汇区","上海市徐汇区桂林西街111弄",121.42572003592177,31.156982461979297,"2022-05-01"
"徐汇区","上海市徐汇区桂林西街15弄",121.42242325470015,31.16171985923182,"2022-05-01"
"徐汇区","上海市徐汇区桂林西街30弄",121.42368438580559,31.161511895277982,"2022-05-01"
"徐汇区","上海市徐汇区桂平路123弄",121.41726823870057,31.157433947284034,"2022-05-01"
"徐汇区","上海市徐汇区桂平路258弄",121.41475774429185,31.164039723049537,"2022-05-01"
"徐汇区","上海市徐汇区桂平路350弄",121.41357925729332,31.166860408583002,"2022-05-01"
"徐汇区","上海市徐汇区虹桥路693弄",121.4318312981367,31.201861397446176,"2022-05-01"
"徐汇区","上海市徐汇区虹桥路772弄",121.43110663508179,31.200929740451226,"2022-05-01"
"徐汇区","上海市徐汇区华发路180弄",121.45821354282869,31.13352974325808,"2022-05-01"
"徐汇区","上海市徐汇区机场新村",121.45808804954895,31.17374220397558,"2022-05-01"
"徐汇区","上海市徐汇区江南二村",121.46864502573276,31.198353871060394,"2022-05-01"
"徐汇区","上海市徐汇区凯旋一村",121.4311022333848,31.199570809638782,"2022-05-01"
"徐汇区","上海市徐汇区康健路100弄",121.43416132296848,31.171079922861633,"2022-05-01"
"徐汇区","上海市徐汇区老沪闵路841弄",121.43960047300084,31.140789360190553,"2022-05-01"
"徐汇区","上海市徐汇区乐山路12弄",121.43849906061506,31.20305651486166,"2022-05-01"
"徐汇区","上海市徐汇区乐山新村",121.43564729994307,31.204450915066346,"2022-05-01"
"徐汇区","上海市徐汇区零陵路289弄",121.46509519184897,31.198713880807226,"2022-05-01"
"徐汇区","上海市徐汇区零陵路357号",121.46208263449071,31.197588749226174,"2022-05-01"
"徐汇区","上海市徐汇区零陵路639号",121.45216183826906,31.193748682270822,"2022-05-01"
"徐汇区","上海市徐汇区零陵路648号",121.45171672788886,31.193136277201003,"2022-05-01"
"徐汇区","上海市徐汇区零陵路677弄",121.45080737322112,31.19344217133077,"2022-05-01"
"徐汇区","上海市徐汇区柳州路460号",121.42982717854393,31.17844206644702,"2022-05-01"
"徐汇区","上海市徐汇区龙漕路58弄",121.4429188135547,31.174063223656315,"2022-05-01"
"徐汇区","上海市徐汇区龙华路2373弄",121.45860403623388,31.18816784832669,"2022-05-01"
"徐汇区","上海市徐汇区龙华路2381弄",121.45735934411924,31.1876758101734,"2022-05-01"
"徐汇区","上海市徐汇区龙华西路31弄",121.4573191000324,31.17462732270924,"2022-05-01"
"徐汇区","上海市徐汇区龙华西路40号",121.45920113990634,31.177843309941142,"2022-05-01"
"徐汇区","上海市徐汇区龙华西路81弄",121.45709973382685,31.17618141619887,"2022-05-01"
"徐汇区","上海市徐汇区龙南六村",121.45937388405592,31.16235850345514,"2022-05-01"
"徐汇区","上海市徐汇区龙南七村",121.45962316383493,31.164571437334498,"2022-05-01"
"徐汇区","上海市徐汇区龙南三村",121.46267803138272,31.16240585890181,"2022-05-01"
"徐汇区","上海市徐汇区龙山新村",121.45220648405292,31.190648697629673,"2022-05-01"
"徐汇区","上海市徐汇区龙吴路11弄",121.45006321693666,31.18027561860353,"2022-05-01"
"徐汇区","上海市徐汇区龙吴路1323弄",121.45619199610904,31.14733588684881,"2022-05-01"
"徐汇区","上海市徐汇区龙吴路2888弄",121.46157679865804,31.11546419311615,"2022-05-01"
"徐汇区","上海市徐汇区龙吴路2889号",121.46026769803835,31.10810738967771,"2022-05-01"
"徐汇区","上海市徐汇区龙吴路9弄",121.44339635276381,31.194556772822725,"2022-05-01"
"徐汇区","上海市徐汇区罗秀路1175弄",121.42882898146125,31.13542738346913,"2022-05-01"
"徐汇区","上海市徐汇区梅陇十一村",121.43363204136199,31.13872183133972,"2022-05-01"
"徐汇区","上海市徐汇区南丹东路99弄",121.4510037428056,31.19724062753446,"2022-05-01"
"徐汇区","上海市徐汇区浦北路948弄",121.42065053860675,31.159596550310614,"2022-05-01"
"徐汇区","上海市徐汇区浦北路959弄",121.42047824360995,31.157926839438225,"2022-05-01"
"徐汇区","上海市徐汇区钦州路900号",121.43206315078882,31.18473356736852,"2022-05-01"
"徐汇区","上海市徐汇区日晖六村",121.46622103814462,31.201232983658134,"2022-05-01"
"徐汇区","上海市徐汇区日晖七村",121.46617612286913,31.20370398924066,"2022-05-01"
"徐汇区","上海市徐汇区双峰路300号",121.45505662777497,31.188107531121762,"2022-05-01"
"徐汇区","上海市徐汇区天平路310弄",121.44606467945064,31.202970725135874,"2022-05-01"
"徐汇区","上海市徐汇区天钥桥路905号",121.45148253964243,31.185997022353316,"2022-05-01"
"徐汇区","上海市徐汇区天钥桥路968弄",121.44949009802129,31.184559868973473,"2022-05-01"
"徐汇区","上海市徐汇区天钥新村",121.45293015897174,31.192061894349106,"2022-05-01"
"徐汇区","上海市徐汇区田林东路414弄",121.43218325423551,31.180041744027342,"2022-05-01"
"徐汇区","上海市徐汇区田林二村",121.42656183801516,31.176380001537815,"2022-05-01"
"徐汇区","上海市徐汇区田林十一村",121.43199613719779,31.178479218266236,"2022-05-01"
"徐汇区","上海市徐汇区田林一村",121.42511817123008,31.17578447598197,"2022-05-01"
"徐汇区","上海市徐汇区宛南二村",121.45570430604766,31.189398279942004,"2022-05-01"
"徐汇区","上海市徐汇区宛南四村",121.45606120282677,31.18846765746841,"2022-05-01"
"徐汇区","上海市徐汇区宛南五村",121.4547047615067,31.18762584162753,"2022-05-01"
"徐汇区","上海市徐汇区宛南一村",121.45705329143199,31.190362719439843,"2022-05-01"
"徐汇区","上海市徐汇区宛平南路485弄",121.45513406170993,31.195965354370287,"2022-05-01"
"徐汇区","上海市徐汇区宛平南路921弄",121.45870383797603,31.190082069187692,"2022-05-01"
"徐汇区","上海市徐汇区宛平南路968弄",121.45857879384904,31.189307843922773,"2022-05-01"
"徐汇区","上海市徐汇区乌鲁木齐中路180号",121.4519457957939,31.219796285203937,"2022-05-01"
"徐汇区","上海市徐汇区吴中东路500弄",121.42878747974667,31.19686501297173,"2022-05-01"
"徐汇区","上海市徐汇区五原路212弄",121.45176586520026,31.218987099914948,"2022-05-01"
"徐汇区","上海市徐汇区武康路73弄",121.44713510029632,31.218698892073107,"2022-05-01"
"徐汇区","上海市徐汇区襄阳南路166弄",121.4628886840248,31.2195145650627,"2022-05-01"
"徐汇区","上海市徐汇区襄阳南路257号",121.4642524016195,31.21683374202655,"2022-05-01"
"徐汇区","上海市徐汇区小木桥路360弄",121.4661279736938,31.20076788678695,"2022-05-01"
"徐汇区","上海市徐汇区小木桥路440弄",121.4648771731017,31.200639932618756,"2022-05-01"
"徐汇区","上海市徐汇区小木桥路518弄",121.4673708691974,31.198267690915767,"2022-05-01"
"徐汇区","上海市徐汇区斜土路1590号",121.46577898200316,31.20319689787984,"2022-05-01"
"徐汇区","上海市徐汇区斜土路1622弄",121.46436145590843,31.202191896001843,"2022-05-01"
"徐汇区","上海市徐汇区斜土路2200弄",121.45723259321178,31.19745530787878,"2022-05-01"
"徐汇区","上海市徐汇区斜土路2590弄",121.45071772233122,31.193440781256193,"2022-05-01"
"徐汇区","上海市徐汇区新乐路100弄",121.46142660197677,31.224125280656754,"2022-05-01"
"徐汇区","上海市徐汇区徐虹北路5弄",121.44339635276381,31.194556772822725,"2022-05-01"
"徐汇区","上海市徐汇区延庆路68弄",121.457926983371,31.222353267827426,"2022-05-01"
"徐汇区","上海市徐汇区医学院路15号",121.46606626010525,31.20682948626791,"2022-05-01"
"徐汇区","上海市徐汇区宜山路50弄",121.43669499365937,31.197869994776887,"2022-05-01"
"徐汇区","上海市徐汇区永康路142弄",121.46302585527619,31.217017031453928,"2022-05-01"
"徐汇区","上海市徐汇区永康路38弄",121.46463696620833,31.217487838119204,"2022-05-01"
"徐汇区","上海市徐汇区永康路81号",121.46430360503359,31.217024134491062,"2022-05-01"
"徐汇区","上海市徐汇区中山南二路1023弄",121.45207820602609,31.186364725565078,"2022-05-01"
"徐汇区","上海市徐汇区中山南二路777弄",121.46190468016918,31.192053399323466,"2022-05-01"
"徐汇区","上海市徐汇区中山西路1536弄",121.42827517611434,31.19409758919547,"2022-05-01"
"长宁区","上海市长宁区安化路311号",121.43112325373373,31.220813450758534,"2022-05-01"
"长宁区","上海市长宁区安顺路169号",121.42473612189667,31.207510136920437,"2022-05-01"
"长宁区","上海市长宁区安顺路220弄",121.42307542450038,31.207642019651153,"2022-05-01"
"长宁区","上海市长宁区安顺路240弄住宅",121.4216636475609,31.206715361941985,"2022-05-01"
"长宁区","上海市长宁区北渔路125弄",121.37853312544922,31.21934502301791,"2022-05-01"
"长宁区","上海市长宁区长宁路1455号",121.41614598562697,31.221901863562994,"2022-05-01"
"长宁区","上海市长宁区长宁路1600弄住宅",121.41384569470756,31.22393482543462,"2022-05-01"
"长宁区","上海市长宁区长宁支路165弄",121.43234081702195,31.233057017657057,"2022-05-01"
"长宁区","上海市长宁区长顺路36弄",121.42425220471846,31.205611252097523,"2022-05-01"
"长宁区","上海市长宁区程家桥路80弄住宅",121.37834448129213,31.194698326958374,"2022-05-01"
"长宁区","上海市长宁区程桥二村",121.38181813886868,31.19595052730638,"2022-05-01"
"长宁区","上海市长宁区定西路711号",121.43028594316787,31.213293730502585,"2022-05-01"
