"district","address","lng","lat","date"
"浦东新区","上海市浦东新区板泉路2000弄",121.536884264815,31.1897022555378,2022-04-26
"浦东新区","上海市浦东新区板泉路2101弄",121.539604693221,31.1688158507634,2022-04-26
"浦东新区","上海市浦东新区北艾路862弄",121.543408388242,31.1902277232209,2022-04-26
"浦东新区","上海市浦东新区北蔡大街31弄",121.560543565845,31.1936780975778,2022-04-26
"浦东新区","上海市浦东新区北蔡镇北蔡村丁家宅",121.569857916017,31.1921842226328,2022-04-26
"浦东新区","上海市浦东新区北蔡镇南新村东钟家宅",121.548654941573,31.1732516349633,2022-04-26
"浦东新区","上海市浦东新区北蔡镇杨桥村蒋家队北季家宅",121.578761021926,31.1993098784582,2022-04-26
"浦东新区","上海市浦东新区北蔡镇一六村船舫队",121.59622237426,31.1750988058813,2022-04-26
"浦东新区","上海市浦东新区北蔡镇一六村油车队",121.596814896574,31.1680199751116,2022-04-26
"浦东新区","上海市浦东新区北蔡镇中界村陈家队陈家宅",121.578579474383,31.194413133383,2022-04-26
"浦东新区","上海市浦东新区北蔡镇中界村复兴队陈家宅",121.578579474383,31.194413133383,2022-04-26
"浦东新区","上海市浦东新区北蔡镇中界村复兴队顾家宅",121.578066721598,31.1937157839413,2022-04-26
"浦东新区","上海市浦东新区北蔡镇中界村黄家队黄家宅",121.574173735009,31.1954461740634,2022-04-26
"浦东新区","上海市浦东新区北蔡镇中界村陆家队陆家宅",121.507419754257,31.1905632054564,2022-04-26
"浦东新区","上海市浦东新区北蔡镇中界村沈家队沈家宅",121.574173735009,31.1954461740634,2022-04-26
"浦东新区","上海市浦东新区北蔡镇中界村沈家队姚家宅",121.574173735009,31.1954461740634,2022-04-26
"浦东新区","上海市浦东新区北蔡镇中界村庄家队蔡家宅",121.578579474383,31.194413133383,2022-04-26
"浦东新区","上海市浦东新区北新园路350弄",121.633354461329,31.3270160144631,2022-04-26
"浦东新区","上海市浦东新区北新园路460弄",121.634743151816,31.3261917171778,2022-04-26
"浦东新区","上海市浦东新区北张家浜路188弄",121.531700772531,31.2222772233074,2022-04-26
"浦东新区","上海市浦东新区博华路1018弄",121.557501993219,31.1768508579768,2022-04-26
"浦东新区","上海市浦东新区博华路237弄",121.551452264931,31.1891341540049,2022-04-26
"浦东新区","上海市浦东新区博山东路811弄",121.57981814785,31.2654428107137,2022-04-26
"浦东新区","上海市浦东新区博山路12弄",121.563217821348,31.2532525679138,2022-04-26
"浦东新区","上海市浦东新区博山路200弄",121.558865980305,31.2503079863726,2022-04-26
"浦东新区","上海市浦东新区博山路78弄",121.562071314026,31.2514665972376,2022-04-26
"浦东新区","上海市浦东新区博兴路462弄",121.589409086289,31.2720183620453,2022-04-26
"浦东新区","上海市浦东新区博兴路465弄",121.58987225261,31.2720666651517,2022-04-26
"浦东新区","上海市浦东新区博兴路616弄",121.590505647825,31.2688501329907,2022-04-26
"浦东新区","上海市浦东新区博兴路760弄",121.594819310884,31.2704315216681,2022-04-26
"浦东新区","上海市浦东新区博兴路799弄",121.59697731021,31.27188533547,2022-04-26
"浦东新区","上海市浦东新区博兴路986弄",121.597262971363,31.270671034824,2022-04-26
"浦东新区","上海市浦东新区曹路镇东海村胡家宅",121.677869901045,31.3070549287637,2022-04-26
"浦东新区","上海市浦东新区曹路镇顾东村顾路老街",121.673381427734,31.2846990760712,2022-04-26
"浦东新区","上海市浦东新区曹路镇顾东村水洞港",121.669643039524,31.2997669268929,2022-04-26
"浦东新区","上海市浦东新区曹路镇顾东村吴家宅",121.668134784572,31.29938100167,2022-04-26
"浦东新区","上海市浦东新区曹路镇顾东村新屋宅",121.66573451225,31.3018178654977,2022-04-26
"浦东新区","上海市浦东新区曹路镇光明村沙桥宅",121.658185512066,31.292967682843,2022-04-26
"浦东新区","上海市浦东新区曹路镇光明村双盘宅",121.659328605827,31.2963633554349,2022-04-26
"浦东新区","上海市浦东新区曹路镇联合村路北宅",121.691927573801,31.2750515326103,2022-04-26
"浦东新区","上海市浦东新区曹路镇联合村路南宅",121.348674887586,31.408630188596,2022-04-26
"浦东新区","上海市浦东新区曹路镇联合村西浜宅",121.681654911311,31.3037331552227,2022-04-26
"浦东新区","上海市浦东新区曹路镇民建村北邵家宅",121.654516473041,31.2803786713243,2022-04-26
"浦东新区","上海市浦东新区曹路镇日新村北万家宅",121.67504212513,31.269511195913,2022-04-26
"浦东新区","上海市浦东新区曹路镇日新村龚家宅",121.677472490687,31.2700067392547,2022-04-26
"浦东新区","上海市浦东新区曹路镇日新村南万家宅",121.678942208332,31.2664553129459,2022-04-26
"浦东新区","上海市浦东新区曹路镇日新村杨薛家宅",121.674955438648,31.2654722113219,2022-04-26
"浦东新区","上海市浦东新区曹路镇五四村沈孙家宅",121.658040076404,31.2603987332248,2022-04-26
"浦东新区","上海市浦东新区曹路镇新华村新宅",121.668753447577,31.2703631553647,2022-04-26
"浦东新区","上海市浦东新区曹路镇新星村胡家宅",121.708279428999,31.2618387353821,2022-04-26
"浦东新区","上海市浦东新区曹路镇新星村黄家圈",121.711425654217,31.2629941165674,2022-04-26
"浦东新区","上海市浦东新区曹路镇星火村",121.708317606984,31.2618230698832,2022-04-26
"浦东新区","上海市浦东新区曹路镇迅建村蔡家宅",121.697148794917,31.2892028145954,2022-04-26
"浦东新区","上海市浦东新区曹路镇迅建村撑圩村",121.699485287548,31.2867503457957,2022-04-26
"浦东新区","上海市浦东新区曹路镇迅建村黄家宅南",121.699225138273,31.2840908923215,2022-04-26
"浦东新区","上海市浦东新区曹路镇永乐村曹家油车",121.647488310392,31.2834265378934,2022-04-26
"浦东新区","上海市浦东新区曹路镇永乐村钱家宅",121.647814934275,31.2776772173624,2022-04-26
"浦东新区","上海市浦东新区曹路镇永利村冯家宅",121.702059022665,31.2701954030718,2022-04-26
"浦东新区","上海市浦东新区草高支路170弄",121.588426070569,31.3579888528039,2022-04-26
"浦东新区","上海市浦东新区长岛路1203弄",121.60099758669,31.2700940107856,2022-04-26
"浦东新区","上海市浦东新区长岛路1280弄",121.599642313167,31.266883120972,2022-04-26
"浦东新区","上海市浦东新区长岛路1560弄",121.608314285069,31.2706988133719,2022-04-26
"浦东新区","上海市浦东新区长岛路823弄",121.593831983298,31.2684288929538,2022-04-26
"浦东新区","上海市浦东新区长岛路99号",121.583231618958,31.2736681381861,2022-04-26
"浦东新区","上海市浦东新区长清路119弄",121.496880384861,31.1744832665162,2022-04-26
"浦东新区","上海市浦东新区长清路773弄",121.498012070143,31.1619738650998,2022-04-26
"浦东新区","上海市浦东新区长清路807弄",121.49922298597,31.1620532804187,2022-04-26
"浦东新区","上海市浦东新区长清路94号工地生活区",121.495131428949,31.1767509093175,2022-04-26
"浦东新区","上海市浦东新区昌里东路395弄",121.518966483452,31.1833023416904,2022-04-26
"浦东新区","上海市浦东新区昌里东路411弄",121.519301551407,31.1855112286687,2022-04-26
"浦东新区","上海市浦东新区昌里东路650弄",121.521399004942,31.1835358991941,2022-04-26
"浦东新区","上海市浦东新区昌里东路675弄",121.524150963872,31.1867623933045,2022-04-26
"浦东新区","上海市浦东新区昌里东路71弄",121.51070692361,31.1826643807287,2022-04-26
"浦东新区","上海市浦东新区昌里路167弄",121.504545446117,31.1810916262197,2022-04-26
"浦东新区","上海市浦东新区昌邑路55弄",121.519121980136,31.2460588518643,2022-04-26
"浦东新区","上海市浦东新区陈春路620弄",121.552907609688,31.1780781941088,2022-04-26
"浦东新区","上海市浦东新区陈邵路103号工地生活区",121.639191186511,31.2932930058445,2022-04-26
"浦东新区","上海市浦东新区成山路1488弄",121.533431537757,31.1819798422434,2022-04-26
"浦东新区","上海市浦东新区成山路2008弄",121.543485283194,31.1832765452903,2022-04-26
"浦东新区","上海市浦东新区成山路24弄",121.492308997952,31.1741468770644,2022-04-26
"浦东新区","上海市浦东新区成山路544弄",121.514758730613,31.174425412251,2022-04-26
"浦东新区","上海市浦东新区成山路608弄",121.515115986714,31.1776118237191,2022-04-26
"浦东新区","上海市浦东新区成山路668弄",121.519473037929,31.1758708312841,2022-04-26
"浦东新区","上海市浦东新区城南路555弄",121.639786957594,30.9092454033942,2022-04-26
"浦东新区","上海市浦东新区川北公路3056号",121.620227972064,31.2117878917848,2022-04-26
"浦东新区","上海市浦东新区川环南路918弄",121.702367590608,31.1925144464194,2022-04-26
"浦东新区","上海市浦东新区川沙路1666弄",121.67243200864,31.2858133621136,2022-04-26
"浦东新区","上海市浦东新区川沙路4586弄",121.699586885901,31.2054954275257,2022-04-26
"浦东新区","上海市浦东新区川沙路4650弄",121.703112735028,31.2041578749919,2022-04-26
"浦东新区","上海市浦东新区川沙新镇陈桥村",121.707774401642,31.202328573802,2022-04-26
"浦东新区","上海市浦东新区川沙新镇陈行村东陈家宅",121.766481451466,31.1970530521115,2022-04-26
"浦东新区","上海市浦东新区川沙新镇陈行村张家宅",121.725438052376,31.1720916696526,2022-04-26
"浦东新区","上海市浦东新区川沙新镇杜尹村",121.753180421441,31.1674497337404,2022-04-26
"浦东新区","上海市浦东新区川沙新镇果园村",121.707774401642,31.202328573802,2022-04-26
"浦东新区","上海市浦东新区川沙新镇华路村瞿家宅",121.734208388731,31.1972533693672,2022-04-26
"浦东新区","上海市浦东新区川沙新镇栏杆村奚家宅",121.669412444499,31.1811456145469,2022-04-26
"浦东新区","上海市浦东新区川沙新镇栏杆村周家宅",121.672901912253,31.1797774372486,2022-04-26
"浦东新区","上海市浦东新区川沙新镇鹿溪村",121.707774401642,31.202328573802,2022-04-26
"浦东新区","上海市浦东新区川沙新镇吴店村郭家宅",121.724791901223,31.1477672526637,2022-04-26
"浦东新区","上海市浦东新区川沙新镇药师村",121.688302012763,31.209451836559,2022-04-26
"浦东新区","上海市浦东新区川沙新镇长丰村杨家宅",121.67899889141,31.1902861855662,2022-04-26
"浦东新区","上海市浦东新区川周公路2788号生活区",121.630962183925,31.1498729044076,2022-04-26
"浦东新区","上海市浦东新区川周路8288弄",121.715516642677,31.1838478903764,2022-04-26
"浦东新区","上海市浦东新区川周路8682弄",121.71448124041,31.1891260448634,2022-04-26
"浦东新区","上海市浦东新区创新西路199弄",121.660810450597,31.2075822554859,2022-04-26
"浦东新区","上海市浦东新区创新西路75弄",121.663731470623,31.2097267922427,2022-04-26
"浦东新区","上海市浦东新区创新中路593弄",121.675777028868,31.2168388376937,2022-04-26
"浦东新区","上海市浦东新区大同路1010弄",121.578601123546,31.3414126263765,2022-04-26
"浦东新区","上海市浦东新区大团镇赵桥村",121.745572222924,30.9940660494586,2022-04-26
"浦东新区","上海市浦东新区德平路100弄",121.568682662918,31.2539399811791,2022-04-26
"浦东新区","上海市浦东新区德平路25弄",121.564731825455,31.2600917459727,2022-04-26
"浦东新区","上海市浦东新区德州路150弄",121.492570315024,31.1720443190957,2022-04-26
"浦东新区","上海市浦东新区德州路255弄",121.497632266573,31.1762287646668,2022-04-26
"浦东新区","上海市浦东新区德州路262号",121.499297545328,31.1734665247442,2022-04-26
"浦东新区","上海市浦东新区德州路295弄",121.497382986794,31.1739791067192,2022-04-26
"浦东新区","上海市浦东新区德州路380弄",121.493341150983,31.1714543276073,2022-04-26
"浦东新区","上海市浦东新区德州路420弄",121.490352488551,31.1723887494362,2022-04-26
"浦东新区","上海市浦东新区东波路195弄",121.58624157123,31.290794581957,2022-04-26
"浦东新区","上海市浦东新区东波路49弄",121.583378042756,31.2907238390316,2022-04-26
"浦东新区","上海市浦东新区东波路585弄",121.592860016736,31.2899795307181,2022-04-26
"浦东新区","上海市浦东新区东昌新村",121.518093689818,31.2389819866023,2022-04-26
"浦东新区","上海市浦东新区东方路1369号",121.535653047283,31.2183103929833,2022-04-26
"浦东新区","上海市浦东新区东高路26弄",121.582672064456,31.2940973759933,2022-04-26
"浦东新区","上海市浦东新区东海二村",121.908737022195,30.9608458762568,2022-04-26
"浦东新区","上海市浦东新区东环龙路181弄",121.535363613248,31.2093387964144,2022-04-26
"浦东新区","上海市浦东新区东靖路315弄",121.5896261169,31.2815848989426,2022-04-26
"浦东新区","上海市浦东新区东靖路393弄",121.588000543249,31.297865826686,2022-04-26
"浦东新区","上海市浦东新区东靖路626弄",121.592519379287,31.2975466201028,2022-04-26
"浦东新区","上海市浦东新区东靖路669弄",121.5896261169,31.2815848989426,2022-04-26
"浦东新区","上海市浦东新区东陆路1018弄",121.599020955246,31.2779119282265,2022-04-26
"浦东新区","上海市浦东新区东陆路1268弄",121.601560554753,31.2728788634835,2022-04-26
"浦东新区","上海市浦东新区东三街102弄",121.517106182571,31.207639780426,2022-04-26
"浦东新区","上海市浦东新区东三里桥路160弄",121.516139875334,31.2060282193702,2022-04-26
"浦东新区","上海市浦东新区东三里桥路170弄",121.517567192959,31.2063591665174,2022-04-26
"浦东新区","上海市浦东新区东三里桥路79弄",121.515301666463,31.2060957833369,2022-04-26
"浦东新区","上海市浦东新区东书房路390弄",121.541617795869,31.1696664870587,2022-04-26
"浦东新区","上海市浦东新区东书房路560弄",121.543073679609,31.1677333099084,2022-04-26
"浦东新区","上海市浦东新区东塘路222弄",121.574045816304,31.3064234422234,2022-04-26
"浦东新区","上海市浦东新区东绣路1155弄",121.541281200795,31.2049419385272,2022-04-26
"浦东新区","上海市浦东新区东义路21弄",121.592054955338,31.3535168836521,2022-04-26
"浦东新区","上海市浦东新区东园四村",121.519432883673,31.2360922245748,2022-04-26
"浦东新区","上海市浦东新区杜鹃路55弄",121.529696185109,31.2072012517119,2022-04-26
"浦东新区","上海市浦东新区峨山路187弄",121.534061519411,31.220750375235,2022-04-26
"浦东新区","上海市浦东新区峨山路605弄",121.528446660821,31.2208930478396,2022-04-26
"浦东新区","上海市浦东新区峨山路681弄",121.526390349678,31.2196070564495,2022-04-26
"浦东新区","上海市浦东新区繁荣东路159弄",121.591870173895,31.1128143261855,2022-04-26
"浦东新区","上海市浦东新区方竹路222弄",121.913596495682,30.898714102519,2022-04-26
"浦东新区","上海市浦东新区芳草路253弄",121.562086764881,31.2023366045818,2022-04-26
"浦东新区","上海市浦东新区芳草路258号",121.563049029743,31.1995335117371,2022-04-26
"浦东新区","上海市浦东新区芳草路352弄",121.561626023985,31.1992148959303,2022-04-26
"浦东新区","上海市浦东新区芳甸路333弄",121.529696185109,31.2072012517119,2022-04-26
"浦东新区","上海市浦东新区芳华路455弄",121.566150609177,31.2026175270033,2022-04-26
"浦东新区","上海市浦东新区芳华路478弄",121.536884264815,31.1897022555378,2022-04-26
"浦东新区","上海市浦东新区芳华路573弄",121.569065790218,31.2028810744024,2022-04-26
"浦东新区","上海市浦东新区芳华路63号",121.558171590146,31.200731052684,2022-04-26
"浦东新区","上海市浦东新区芳华路916弄",121.574598004701,31.2028538934567,2022-04-26
"浦东新区","上海市浦东新区芳华路933弄",121.536884264815,31.1897022555378,2022-04-26
"浦东新区","上海市浦东新区芳华路9弄",121.570372465413,31.2035667729213,2022-04-26
"浦东新区","上海市浦东新区芳芯路210弄",121.562195280186,31.1977535428501,2022-04-26
"浦东新区","上海市浦东新区芳芯路363弄",121.536884264815,31.1897022555378,2022-04-26
"浦东新区","上海市浦东新区高宝路379弄",121.5896261169,31.2815848989426,2022-04-26
"浦东新区","上海市浦东新区高宝路528弄",121.5896261169,31.2815848989426,2022-04-26
"浦东新区","上海市浦东新区高东二路47弄",121.628141504624,31.3304914936925,2022-04-26
"浦东新区","上海市浦东新区高东新路500弄",121.627889080775,31.3423616965753,2022-04-26
"浦东新区","上海市浦东新区高东镇革新村周家桥",121.641532185539,31.3292953061883,2022-04-26
"浦东新区","上海市浦东新区高东镇珊黄村苍头宅",121.646532423499,31.3365476898601,2022-04-26
"浦东新区","上海市浦东新区高东镇先锋村王朱家宅",121.63711090548,31.3105712595124,2022-04-26
"浦东新区","上海市浦东新区高东镇踊跃村东孙家沟",121.664114328432,31.3120800578898,2022-04-26
"浦东新区","上海市浦东新区高荷路428号",121.583017013771,31.3429406639711,2022-04-26
"浦东新区","上海市浦东新区高科东路500弄",121.660184241826,31.2166400292636,2022-04-26
"浦东新区","上海市浦东新区高科西路2960弄",121.566556194115,31.1957119039239,2022-04-26
"浦东新区","上海市浦东新区高科西路3030弄",121.569848753301,31.1958928407386,2022-04-26
"浦东新区","上海市浦东新区高桥镇陆凌村西凌家宅",121.5817386352,31.3535668406377,2022-04-26
"浦东新区","上海市浦东新区高桥镇南塘村龚家宅",121.5746809183,31.345394276907,2022-04-26
"浦东新区","上海市浦东新区高桥镇南塘村顾家宅",121.5746809183,31.345394276907,2022-04-26
"浦东新区","上海市浦东新区高桥镇南塘村姚家宅",121.5746809183,31.345394276907,2022-04-26
"浦东新区","上海市浦东新区高桥镇三岔港村草高路宅",121.518771910478,31.3804045133495,2022-04-26
"浦东新区","上海市浦东新区高桥镇三岔港村三岔港",121.514471272849,31.3715312688423,2022-04-26
"浦东新区","上海市浦东新区高桥镇西浜头",121.615635834297,31.2925041992064,2022-04-26
"浦东新区","上海市浦东新区高青路2878弄",121.534383741597,31.1661478678863,2022-04-26
"浦东新区","上海市浦东新区高青路4567弄",121.536884264815,31.1897022555378,2022-04-26
"浦东新区","上海市浦东新区高翔环路562号",121.639670357539,31.3321766330336,2022-04-26
"浦东新区","上海市浦东新区龚丰路576弄",121.69971210969,31.264329593478,2022-04-26
"浦东新区","上海市浦东新区龚华路425弄",121.652778790863,31.290487771739,2022-04-26
"浦东新区","上海市浦东新区龚华路479弄",121.693823986563,31.2655189744749,2022-04-26
"浦东新区","上海市浦东新区龚华路50弄",121.691832533078,31.2705828378796,2022-04-26
"浦东新区","上海市浦东新区龚新路549弄",121.691114786976,31.2646183552466,2022-04-26
"浦东新区","上海市浦东新区拱海路79弄",121.746781611632,31.0755312765563,2022-04-26
"浦东新区","上海市浦东新区拱乐路2400弄",121.749606962122,31.067545829755,2022-04-26
"浦东新区","上海市浦东新区古桐南路117弄",121.622987925913,31.2059399614524,2022-04-26
"浦东新区","上海市浦东新区古棕路168弄",121.923877781905,30.8902665107794,2022-04-26
"浦东新区","上海市浦东新区顾唐路3281弄",121.652778790863,31.290487771739,2022-04-26
"浦东新区","上海市浦东新区崮山路157号",121.558485997074,31.2530718191383,2022-04-26
"浦东新区","上海市浦东新区崮山路717号",121.566756426413,31.2457458744099,2022-04-26
"浦东新区","上海市浦东新区崮山路968号",121.568139277915,31.2414287626101,2022-04-26
"浦东新区","上海市浦东新区观海路1118弄",121.791006269855,31.0645880678107,2022-04-26
"浦东新区","上海市浦东新区光泽路429弄",121.624748694543,31.3361840469722,2022-04-26
"浦东新区","上海市浦东新区国展路767号工地生活区",121.492116566728,31.1869127920874,2022-04-26
"浦东新区","上海市浦东新区海春路150弄",121.592615138654,31.3549159003979,2022-04-26
"浦东新区","上海市浦东新区海鸣路顾如路交界口工地生活区",121.680259034379,31.2908487384459,2022-04-26
"浦东新区","上海市浦东新区海鹏路380弄",121.676483635982,31.2939871381692,2022-04-26
"浦东新区","上海市浦东新区海顺路359弄",121.68936776242,31.2816070420314,2022-04-26
"浦东新区","上海市浦东新区海松路52弄",121.681814360539,31.2819161960356,2022-04-26
"浦东新区","上海市浦东新区海阳路1065弄",121.512534975323,31.1647564512598,2022-04-26
"浦东新区","上海市浦东新区海阳路1080弄",121.513439479141,31.1641353592278,2022-04-26
"浦东新区","上海市浦东新区航昌路376弄",121.615217673082,31.0849722970713,2022-04-26
"浦东新区","上海市浦东新区航昌路489弄",121.616375094816,31.0804408738662,2022-04-26
"浦东新区","上海市浦东新区航鹤路1858弄",121.590976180251,31.0561511926496,2022-04-26
"浦东新区","上海市浦东新区航梅路525弄",121.580651056719,31.0306667698032,2022-04-26
"浦东新区","上海市浦东新区航三路航吉路交界口工地生活区",121.614290352304,31.045793267667,2022-04-26
"浦东新区","上海市浦东新区航头镇福善村飞桥",121.617373208357,31.056371500333,2022-04-26
"浦东新区","上海市浦东新区航头镇果园村航西",121.642441899529,31.025361102765,2022-04-26
"浦东新区","上海市浦东新区航头镇果园村倪桥",121.609754628123,31.0303461885556,2022-04-26
"浦东新区","上海市浦东新区航头镇鹤东村沙东",121.602978260509,31.061148957304,2022-04-26
"浦东新区","上海市浦东新区航头镇鹤东村沿江",121.608037966294,31.0602733641974,2022-04-26
"浦东新区","上海市浦东新区航头镇鹤鸣村许冯",121.600562088179,31.0502001326859,2022-04-26
"浦东新区","上海市浦东新区航头镇梅园村沙北",121.591231748169,31.06555502677,2022-04-26
"浦东新区","上海市浦东新区航头镇牌楼村谈弄",121.56382300977,31.0616364770888,2022-04-26
"浦东新区","上海市浦东新区航头镇沈庄村大桥",121.574932717826,31.0810149863606,2022-04-26
"浦东新区","上海市浦东新区合庆镇蔡路村东蔡家宅",121.751834430791,31.2301868682127,2022-04-26
"浦东新区","上海市浦东新区合庆镇蔡路村杨家宅",121.744404964744,31.2099848375333,2022-04-26
"浦东新区","上海市浦东新区合庆镇大星村尹家宅",121.728318558824,31.2272876144691,2022-04-26
"浦东新区","上海市浦东新区合庆镇东风村曹家宅",121.705700034558,31.2324508135927,2022-04-26
"浦东新区","上海市浦东新区合庆镇共一村包家宅",121.764207480898,31.2058888444051,2022-04-26
"浦东新区","上海市浦东新区合庆镇共一村张家宅",121.732101682649,31.2614765761563,2022-04-26
"浦东新区","上海市浦东新区合庆镇勤奋村九队新村",121.730730868441,31.2682454727655,2022-04-26
"浦东新区","上海市浦东新区合庆镇勤俭村北杨家宅",121.744404964744,31.2099848375333,2022-04-26
"浦东新区","上海市浦东新区合庆镇庆丰村顾家宅",121.723719504105,31.2470521913717,2022-04-26
"浦东新区","上海市浦东新区合庆镇奚家村卫家宅",121.717943669167,31.2536196211407,2022-04-26
"浦东新区","上海市浦东新区和炯路501弄",121.514792417069,31.1304419100536,2022-04-26
"浦东新区","上海市浦东新区和龙路371弄",121.577359306009,31.3503693082344,2022-04-26
"浦东新区","上海市浦东新区和龙路55弄",121.579757871748,31.3449552012399,2022-04-26
"浦东新区","上海市浦东新区菏泽路567弄",121.601772100444,31.2704060021067,2022-04-26
"浦东新区","上海市浦东新区鹤洁路346弄",121.612595070146,31.074847426098,2022-04-26
"浦东新区","上海市浦东新区鹤洁路625弄",121.613228734853,31.0753186370206,2022-04-26
"浦东新区","上海市浦东新区鹤沙路588弄",121.601468029285,31.0880218851386,2022-04-26
"浦东新区","上海市浦东新区鹤永路750弄",121.609967885851,31.0777774939509,2022-04-26
"浦东新区","上海市浦东新区鹤永路751弄",121.610426021661,31.0775687255746,2022-04-26
"浦东新区","上海市浦东新区洪山路121弄",121.505002773452,31.1847097022013,2022-04-26
"浦东新区","上海市浦东新区洪山路1889弄",121.51638699918,31.1575965710788,2022-04-26
"浦东新区","上海市浦东新区洪山路237弄",121.506882477732,31.1789855165391,2022-04-26
"浦东新区","上海市浦东新区沪南公路3150弄",121.571774899975,31.1279297926786,2022-04-26
"浦东新区","上海市浦东新区沪南公路4699弄工地生活区",121.593928897154,31.0774767499278,2022-04-26
"浦东新区","上海市浦东新区沪南路1168弄",121.536884264815,31.1897022555378,2022-04-26
"浦东新区","上海市浦东新区沪南路1391弄",121.536884264815,31.1897022555378,2022-04-26
"浦东新区","上海市浦东新区沪南路2000号",121.567875804909,31.1700081452879,2022-04-26
"浦东新区","上海市浦东新区沪南路3219弄",121.574558389428,31.1299938497428,2022-04-26
"浦东新区","上海市浦东新区沪南路3468弄",121.571596496501,31.1222910203693,2022-04-26
"浦东新区","上海市浦东新区花木街道龙王庙村南杨家堂",121.558963805775,31.202723239483,2022-04-26
"浦东新区","上海市浦东新区花山路796弄",121.584921331622,31.3547426723196,2022-04-26
"浦东新区","上海市浦东新区华丰路50弄",121.514504959306,31.1974954638598,2022-04-26
"浦东新区","上海市浦东新区华丰路51弄",121.515210847776,31.1993223111234,2022-04-26
"浦东新区","上海市浦东新区华夏东路1881弄",121.692755721651,31.2057829810658,2022-04-26
"浦东新区","上海市浦东新区华夏东路2345弄",121.704621978115,31.2064847964045,2022-04-26
"浦东新区","上海市浦东新区华绣路179弄",121.531950321801,31.1907641544155,2022-04-26
"浦东新区","上海市浦东新区华绣路255弄",121.535849327037,31.1908371353874,2022-04-26
"浦东新区","上海市浦东新区环林东路875弄",121.537591500743,31.1471015438154,2022-04-26
"浦东新区","上海市浦东新区环林东路879弄",121.536437537485,31.1442781008229,2022-04-26
"浦东新区","上海市浦东新区环林西路613弄",121.530575195727,31.14668408262,2022-04-26
"浦东新区","上海市浦东新区环林西路618弄",121.529071701795,31.145718962096,2022-04-26
"浦东新区","上海市浦东新区环龙路259弄",121.533376830951,31.2107953360255,2022-04-26
"浦东新区","上海市浦东新区环龙路439弄",121.531651994542,31.2079199147972,2022-04-26
"浦东新区","上海市浦东新区环桥路1481弄",121.584859707864,31.1200779398788,2022-04-26
"浦东新区","上海市浦东新区环庆南路508弄",121.737905005735,31.233807954925,2022-04-26
"浦东新区","上海市浦东新区环镇东路200弄",121.610552413247,31.0265996238794,2022-04-26
"浦东新区","上海市浦东新区惠南镇黄路村富强",121.772434252589,31.035656061793,2022-04-26
"浦东新区","上海市浦东新区惠南镇惠东村",121.783071627116,31.0463207008159,2022-04-26
"浦东新区","上海市浦东新区惠南镇陆楼村长路",121.780804034517,31.0810009735505,2022-04-26
"浦东新区","上海市浦东新区惠南镇团结村",121.783774012194,31.0272369426051,2022-04-26
"浦东新区","上海市浦东新区惠南镇徐庙村",121.721202721558,31.0362185164271,2022-04-26
"浦东新区","上海市浦东新区吉灿路17弄",121.712895731185,31.1165153388616,2022-04-26
"浦东新区","上海市浦东新区季景北路180弄",121.590926503956,31.3478491358925,2022-04-26
"浦东新区","上海市浦东新区季景路19弄",121.59338067461,31.346510613548,2022-04-26
"浦东新区","上海市浦东新区济阳路65弄",121.488308933346,31.1730161980026,2022-04-26
"浦东新区","上海市浦东新区江东路25号",121.555930138237,31.3688276760728,2022-04-26
"浦东新区","上海市浦东新区江高路118弄",121.485615543936,31.1556652311454,2022-04-26
"浦东新区","上海市浦东新区江耀路123弄",121.483391608985,31.1582245821278,2022-04-26
"浦东新区","上海市浦东新区金高路1058弄",121.616020129394,31.2893394424231,2022-04-26
"浦东新区","上海市浦东新区金高路2131弄",121.61704653327,31.2674719711318,2022-04-26
"浦东新区","上海市浦东新区金沪路1218弄",121.610691291278,31.246915347325,2022-04-26
"浦东新区","上海市浦东新区金口路53弄",121.583033812085,31.2567326468791,2022-04-26
"浦东新区","上海市浦东新区金桥路1490弄",121.595470941701,31.2561680390539,2022-04-26
"浦东新区","上海市浦东新区金桥路1506弄",121.596460784542,31.2555643772158,2022-04-26
"浦东新区","上海市浦东新区金桥路226弄",121.621784825343,31.2606638156741,2022-04-26
"浦东新区","上海市浦东新区金桥路2552弄",121.609184383785,31.2399130333655,2022-04-26
"浦东新区","上海市浦东新区金桥路2618号",121.610079994379,31.2389558967816,2022-04-26
"浦东新区","上海市浦东新区金桥路989弄",121.621784825343,31.2606638156741,2022-04-26
"浦东新区","上海市浦东新区金皖路55号工地生活区",121.620628975644,31.2648998623864,2022-04-26
"浦东新区","上海市浦东新区金杨路220弄",121.581187165448,31.2530563837015,2022-04-26
"浦东新区","上海市浦东新区金杨路660弄",121.588399929879,31.2575016841727,2022-04-26
"浦东新区","上海市浦东新区金杨路785弄",121.589437562574,31.2596987884712,2022-04-26
"浦东新区","上海市浦东新区金豫路100号",121.621107502989,31.2614514958255,2022-04-26
"浦东新区","上海市浦东新区金钻路398弄",121.677268934659,31.2931799063564,2022-04-26
"浦东新区","上海市浦东新区锦和路289弄",121.54364599005,31.2106408345678,2022-04-26
"浦东新区","上海市浦东新区锦绣路1650弄",121.546004042013,31.2188614868018,2022-04-26
"浦东新区","上海市浦东新区锦绣路3336弄",121.547059550988,31.1835749798571,2022-04-26
"浦东新区","上海市浦东新区锦绣路3338弄",121.545288092522,31.1854903757833,2022-04-26
"浦东新区","上海市浦东新区京浦路160弄",121.574694572544,31.1599125196442,2022-04-26
"浦东新区","上海市浦东新区京浦路82弄",121.573340197326,31.1596915729849,2022-04-26
"浦东新区","上海市浦东新区泾东一村",121.563932423381,31.2503981319377,2022-04-26
"浦东新区","上海市浦东新区居家桥路199弄",121.568715091747,31.2641713991858,2022-04-26
"浦东新区","上海市浦东新区居家桥路19弄",121.566890723087,31.2680211548644,2022-04-26
"浦东新区","上海市浦东新区巨峰路176弄",121.603201669089,31.285412489154,2022-04-26
"浦东新区","上海市浦东新区巨峰路399弄",121.602835340102,31.2864912778845,2022-04-26
"浦东新区","上海市浦东新区巨峰路667弄",121.602812792634,31.2880466003474,2022-04-26
"浦东新区","上海市浦东新区巨峰路997弄",121.623727321178,31.2870005408357,2022-04-26
"浦东新区","上海市浦东新区巨野路482弄",121.55494415811,31.2421741524547,2022-04-26
"浦东新区","上海市浦东新区康达路688弄",121.584859707864,31.1200779398788,2022-04-26
"浦东新区","上海市浦东新区康桥路90弄",121.584859707864,31.1200779398788,2022-04-26
"浦东新区","上海市浦东新区康桥镇花墙村",121.55274169266,31.1563281752622,2022-04-26
"浦东新区","上海市浦东新区康桥镇火箭村",121.614989413652,31.1451293459159,2022-04-26
"浦东新区","上海市浦东新区康桥镇人南村",121.633575534315,31.1452932272884,2022-04-26
"浦东新区","上海市浦东新区康桥镇营房村",121.572398952813,31.142485338114,2022-04-26
"浦东新区","上海市浦东新区康沈路250弄",121.584859707864,31.1200779398788,2022-04-26
"浦东新区","上海市浦东新区康沈路465弄",121.584859707864,31.1200779398788,2022-04-26
"浦东新区","上海市浦东新区康士路15弄",121.569516739584,31.1556683987021,2022-04-26
"浦东新区","上海市浦东新区康梧路189号工地生活区",121.557148959153,31.1422771769984,2022-04-26
"浦东新区","上海市浦东新区康新公路79号",121.647301462846,31.034815583858,2022-04-26
"浦东新区","上海市浦东新区康泽路秀海路交界口工地生活区",121.56779935911,31.126095062976,2022-04-26
"浦东新区","上海市浦东新区莱阳路2328弄",121.589657198271,31.3158806376563,2022-04-26
"浦东新区","上海市浦东新区莱阳路301弄",121.585947196514,31.2803576852639,2022-04-26
"浦东新区","上海市浦东新区莱阳路350弄",121.588321507808,31.2804560573812,2022-04-26
"浦东新区","上海市浦东新区莱阳路3777弄",121.586575381558,31.338805467133,2022-04-26
"浦东新区","上海市浦东新区莱阳路880弄",121.590822300517,31.2883369089077,2022-04-26
"浦东新区","上海市浦东新区兰城路115弄",121.585504152237,31.272452471814,2022-04-26
"浦东新区","上海市浦东新区兰嵩路360弄",121.599493553774,31.3291411548124,2022-04-26
"浦东新区","上海市浦东新区蓝村路471弄",121.53360158699,31.2179022047027,2022-04-26
"浦东新区","上海市浦东新区蓝村路60弄",121.536988198762,31.2147912836648,2022-04-26
"浦东新区","上海市浦东新区崂山路502号",121.52356526868,31.2427278844216,2022-04-26
"浦东新区","上海市浦东新区崂山路551弄",121.528755677916,31.2325728575384,2022-04-26
"浦东新区","上海市浦东新区崂山路645弄",121.531348816432,31.2278054602837,2022-04-26
"浦东新区","上海市浦东新区崂山四村",121.524541996261,31.2411728108698,2022-04-26
"浦东新区","上海市浦东新区老港镇大河村港南",121.848497642832,31.0256299442289,2022-04-26
"浦东新区","上海市浦东新区历城路100弄",121.4979155023,31.1798977733905,2022-04-26
"浦东新区","上海市浦东新区历城路22弄",121.536884264815,31.1897022555378,2022-04-26
"浦东新区","上海市浦东新区利川路421弄",121.688665736664,31.2141557761719,2022-04-26
"浦东新区","上海市浦东新区利津路185弄",121.587348373449,31.284879686517,2022-04-26
"浦东新区","上海市浦东新区利津路385弄",121.590995673481,31.2827648790811,2022-04-26
"浦东新区","上海市浦东新区莲安东路243弄",121.566974984144,31.1875098403565,2022-04-26
"浦东新区","上海市浦东新区莲溪路1099弄",121.569863395681,31.1817477483468,2022-04-26
"浦东新区","上海市浦东新区莲溪路126弄",121.56566040386,31.1934831785214,2022-04-26
"浦东新区","上海市浦东新区莲溪路550弄",121.566736484031,31.1865065237717,2022-04-26
"浦东新区","上海市浦东新区林悦路125弄",121.525530311983,31.1391594184198,2022-04-26
"浦东新区","上海市浦东新区林展路411弄",121.515681739524,31.128169902288,2022-04-26
"浦东新区","上海市浦东新区临沂北路100弄",121.526189847888,31.212369290622,2022-04-26
"浦东新区","上海市浦东新区临沂路181弄",121.520668143579,31.1975792508032,2022-04-26
"浦东新区","上海市浦东新区临沂路280弄",121.516029653248,31.198943924921,2022-04-26
"浦东新区","上海市浦东新区临沂路8弄",121.550454606832,31.2273482924363,2022-04-26
"浦东新区","上海市浦东新区临沂路98号",121.520733989373,31.2017990813495,2022-04-26
"浦东新区","上海市浦东新区灵山路1390弄",121.569665768468,31.2431500121506,2022-04-26
"浦东新区","上海市浦东新区灵山路1415弄",121.570780206284,31.2449987378052,2022-04-26
"浦东新区","上海市浦东新区灵山路1671弄",121.572311008704,31.2457713448707,2022-04-26
"浦东新区","上海市浦东新区灵山路1840弄",121.578033843616,31.24805447336,2022-04-26
"浦东新区","上海市浦东新区灵岩路56弄",121.500072962644,31.1725382931417,2022-04-26
"浦东新区","上海市浦东新区灵岩南路144号",121.500507922172,31.1658272846062,2022-04-26
"浦东新区","上海市浦东新区灵岩南路156弄",121.500710759556,31.1648391859701,2022-04-26
"浦东新区","上海市浦东新区灵岩南路380弄",121.503294286203,31.1590254851873,2022-04-26
"浦东新区","上海市浦东新区铃兰路杞青路交界口工地生活区",121.894828827476,30.9001927274634,2022-04-26
"浦东新区","上海市浦东新区凌河路188弄",121.602161970292,31.2819038514981,2022-04-26
"浦东新区","上海市浦东新区凌河路38弄",121.600753606913,31.2825696826637,2022-04-26
"浦东新区","上海市浦东新区凌河路420弄",121.605932248348,31.2799170540613,2022-04-26
"浦东新区","上海市浦东新区凌空北路东靖路交界口工地生活区",121.704172915191,31.2562093274673,2022-04-26
"浦东新区","上海市浦东新区凌兆路285弄",121.525530311983,31.1391594184198,2022-04-26
"浦东新区","上海市浦东新区凌兆路379弄",121.525530311983,31.1391594184198,2022-04-26
"浦东新区","上海市浦东新区凌兆路586弄",121.525530311983,31.1391594184198,2022-04-26
"浦东新区","上海市浦东新区柳埠路135弄",121.588934241996,31.2688910299805,2022-04-26
"浦东新区","上海市浦东新区龙东大道3166号",121.645066299076,31.2292737552847,2022-04-26
"浦东新区","上海市浦东新区龙东大道5401弄",121.688327075487,31.240136029345,2022-04-26
"浦东新区","上海市浦东新区龙汇路168号工地生活区",121.557894373066,31.2051885689342,2022-04-26
"浦东新区","上海市浦东新区龙阳路1188号",121.537174956478,31.2042222743912,2022-04-26
"浦东新区","上海市浦东新区龙阳路1880弄",121.559292495761,31.2066989150554,2022-04-26
"浦东新区","上海市浦东新区罗山路108弄",121.558879454888,31.2546415897529,2022-04-26
"浦东新区","上海市浦东新区罗山路1502弄",121.575171482939,31.2348882658017,2022-04-26
"浦东新区","上海市浦东新区罗山路4088弄",121.584759995952,31.1863358407189,2022-04-26
"浦东新区","上海市浦东新区绿林路320弄",121.554834744499,31.1761626467343,2022-04-26
"浦东新区","上海市浦东新区绿林路50弄",121.554947032687,31.1785308909384,2022-04-26
"浦东新区","上海市浦东新区茂兴路98号",121.520202731495,31.2148484953414,2022-04-26
"浦东新区","上海市浦东新区苗圃路112弄",121.552485226437,31.2507249860617,2022-04-26
"浦东新区","上海市浦东新区苗圃路218弄",121.554079718717,31.2486647440626,2022-04-26
"浦东新区","上海市浦东新区妙境路162弄",121.695020439672,31.2023335930395,2022-04-26
"浦东新区","上海市浦东新区民冬路169号生活区",121.660902796403,31.2925156166073,2022-04-26
"浦东新区","上海市浦东新区民唐路秦家港路交界口工地生活区",121.697451164552,31.2762273516085,2022-04-26
"浦东新区","上海市浦东新区民同路40弄",121.657271755701,31.2792847666426,2022-04-26
"浦东新区","上海市浦东新区民耀路268弄",121.659229253238,31.2782094438455,2022-04-26
"浦东新区","上海市浦东新区民耀路358弄",121.652778790863,31.290487771739,2022-04-26
"浦东新区","上海市浦东新区民耀路97弄",121.659507907607,31.2807116700925,2022-04-26
"浦东新区","上海市浦东新区牡丹路145弄",121.551781493901,31.2135657409336,2022-04-26
"浦东新区","上海市浦东新区牡丹路340弄",121.556393753711,31.214141338034,2022-04-26
"浦东新区","上海市浦东新区南码头路1316弄",121.519583529507,31.1863705952119,2022-04-26
"浦东新区","上海市浦东新区南码头路144弄",121.514083474361,31.2046377807221,2022-04-26
"浦东新区","上海市浦东新区南码头路1453弄",121.522881029373,31.1846493055372,2022-04-26
"浦东新区","上海市浦东新区南码头路260弄",121.514783344183,31.2019764543187,2022-04-26
"浦东新区","上海市浦东新区南码头路450弄",121.516319536436,31.2003681163043,2022-04-26
"浦东新区","上海市浦东新区南码头路551弄",121.518424535738,31.1974252681048,2022-04-26
"浦东新区","上海市浦东新区南门路150弄",121.774859587635,31.0609104552718,2022-04-26
"浦东新区","上海市浦东新区南桥路237弄",121.71515946107,31.1975804091475,2022-04-26
"浦东新区","上海市浦东新区南桥路86弄",121.716131607293,31.1982867648435,2022-04-26
"浦东新区","上海市浦东新区南泉北路101弄",121.522040215415,31.244123854865,2022-04-26
"浦东新区","上海市浦东新区南泉路1211弄",121.529722254645,31.2192635716987,2022-04-26
"浦东新区","上海市浦东新区泥城镇彭庙村学士",121.792459279017,30.9099538466279,2022-04-26
"浦东新区","上海市浦东新区年家浜路28弄",121.592127538423,31.1211568569416,2022-04-26
"浦东新区","上海市浦东新区宁阳路14弄",121.522733437777,31.2174477679163,2022-04-26
"浦东新区","上海市浦东新区农科路21弄",121.550454606832,31.2273482924363,2022-04-26
"浦东新区","上海市浦东新区欧高路138弄",121.584067851557,31.3553669703079,2022-04-26
"浦东新区","上海市浦东新区鹏飞路333弄",121.536884264815,31.1897022555378,2022-04-26
"浦东新区","上海市浦东新区鹏岳路152弄",121.560933340606,31.1772149667974,2022-04-26
"浦东新区","上海市浦东新区鹏岳路233弄",121.536884264815,31.1897022555378,2022-04-26
"浦东新区","上海市浦东新区浦城路580弄",121.521080555639,31.230158967011,2022-04-26
"浦东新区","上海市浦东新区浦电路149弄",121.527706996064,31.2244778572583,2022-04-26
"浦东新区","上海市浦东新区浦电路221号",121.530044566662,31.2249883073877,2022-04-26
"浦东新区","上海市浦东新区浦电路29弄",121.521798301741,31.2219827721666,2022-04-26
"浦东新区","上海市浦东新区浦电路330弄",121.534528817937,31.2266271793415,2022-04-26
"浦东新区","上海市浦东新区浦电路48弄",121.523018290455,31.2247743849636,2022-04-26
"浦东新区","上海市浦东新区浦东北路4588弄",121.569196224178,31.3542177437897,2022-04-26
"浦东新区","上海市浦东新区浦东大道136弄",121.520173536566,31.2440242095398,2022-04-26
"浦东新区","上海市浦东新区浦东大道140弄",121.521669035579,31.2440488314387,2022-04-26
"浦东新区","上海市浦东新区浦东大道1558号工地生活区",121.545713601876,31.2490147892796,2022-04-26
"浦东新区","上海市浦东新区浦东大道1851弄",121.552497443392,31.2531016867014,2022-04-26
"浦东新区","上海市浦东新区浦东大道2511弄",121.566406266925,31.265127505972,2022-04-26
"浦东新区","上海市浦东新区浦东大道2778弄",121.581374821469,31.2756511334779,2022-04-26
"浦东新区","上海市浦东新区浦东大道2894号",121.582823967917,31.2789444329845,2022-04-26
"浦东新区","上海市浦东新区浦东大道2970弄",121.585274365688,31.2829352319847,2022-04-26
"浦东新区","上海市浦东新区浦东大道3036弄",121.584040992222,31.2856868358072,2022-04-26
"浦东新区","上海市浦东新区浦东大道604弄",121.528653810071,31.2451947073744,2022-04-26
"浦东新区","上海市浦东新区浦东大道637号",121.529289091728,31.2467897717038,2022-04-26
"浦东新区","上海市浦东新区浦东南路1288号",121.523559878847,31.2308961867454,2022-04-26
"浦东新区","上海市浦东新区浦东南路1399号",121.524451177574,31.2300668720329,2022-04-26
"浦东新区","上海市浦东新区浦东南路1449号",121.524690037009,31.2293428464114,2022-04-26
"浦东新区","上海市浦东新区浦东南路1533号",121.527644653661,31.2273723011377,2022-04-26
"浦东新区","上海市浦东新区浦东南路1700弄",121.525060767693,31.2237849777418,2022-04-26
"浦东新区","上海市浦东新区浦东南路1862弄",121.524135153695,31.2217476120428,2022-04-26
"浦东新区","上海市浦东新区浦东南路2192弄",121.519879611003,31.2122755567109,2022-04-26
"浦东新区","上海市浦东新区浦东南路2351弄",121.519461719279,31.2055986658343,2022-04-26
"浦东新区","上海市浦东新区浦东南路2362号",121.518109140673,31.2052909581985,2022-04-26
"浦东新区","上海市浦东新区浦东南路2366号",121.517813149008,31.2049444866844,2022-04-26
"浦东新区","上海市浦东新区浦东南路3405弄",121.515403264816,31.2003488111383,2022-04-26
"浦东新区","上海市浦东新区浦东南路3606弄",121.51135909341,31.196098875064,2022-04-26
"浦东新区","上海市浦东新区浦东南路3643弄",121.512246170101,31.1951255365065,2022-04-26
"浦东新区","上海市浦东新区浦东南路3666弄",121.510436084499,31.1946220283019,2022-04-26
"浦东新区","上海市浦东新区浦东南路3905弄",121.508197686829,31.1889342827717,2022-04-26
"浦东新区","上海市浦东新区浦东南路978号",121.521134184478,31.236312064832,2022-04-26
"浦东新区","上海市浦东新区浦建路1086弄",121.544957426264,31.2129164044776,2022-04-26
"浦东新区","上海市浦东新区浦建路60弄",121.524453692829,31.2131592305879,2022-04-26
"浦东新区","上海市浦东新区浦建路729号",121.537867639857,31.2147519071869,2022-04-26
"浦东新区","上海市浦东新区浦建路83弄",121.525390176323,31.2156239764809,2022-04-26
"浦东新区","上海市浦东新区浦明路1188弄",121.52046449772,31.2205370607565,2022-04-26
"浦东新区","上海市浦东新区浦明路258弄",121.515061908722,31.2323783282138,2022-04-26
"浦东新区","上海市浦东新区浦三路12弄",121.517827791387,31.2027220039836,2022-04-26
"浦东新区","上海市浦东新区浦三路2801弄",121.536884264815,31.1897022555378,2022-04-26
"浦东新区","上海市浦东新区浦三路657号",121.536884264815,31.1897022555378,2022-04-26
"浦东新区","上海市浦东新区浦三路817弄",121.525675029,31.1889618539061,2022-04-26
"浦东新区","上海市浦东新区浦三路秀浦路交界口工地生活区",121.616024890413,31.1357172383185,2022-04-26
"浦东新区","上海市浦东新区普庆路301弄",121.730658914169,31.161213390491,2022-04-26
"浦东新区","上海市浦东新区栖山路100弄",121.550437449197,31.2475527934367,2022-04-26
"浦东新区","上海市浦东新区栖山路1636弄",121.573774617871,31.2647932169634,2022-04-26
"浦东新区","上海市浦东新区栖山路1689弄",121.57390154844,31.2651031982935,2022-04-26
"浦东新区","上海市浦东新区栖山路1876弄",121.57928653065,31.267371656205,2022-04-26
"浦东新区","上海市浦东新区栖山路1899弄",121.580127614099,31.2679922952123,2022-04-26
"浦东新区","上海市浦东新区栖山路400弄",121.557578978001,31.2520178816585,2022-04-26
"浦东新区","上海市浦东新区栖山路401弄",121.556033443371,31.2539878305727,2022-04-26
"浦东新区","上海市浦东新区栖山路465弄",121.557328440594,31.2538809411679,2022-04-26
"浦东新区","上海市浦东新区栖霞路190弄",121.526081152921,31.2441861427874,2022-04-26
"浦东新区","上海市浦东新区齐河路28弄",121.536884264815,31.1897022555378,2022-04-26
"浦东新区","上海市浦东新区齐河路438弄",121.514954830705,31.1854956276215,2022-04-26
"浦东新区","上海市浦东新区千汇路1000弄",121.771261784237,31.1267973202228,2022-04-26
"浦东新区","上海市浦东新区千汇路581弄",121.771476030101,31.1174959081212,2022-04-26
"浦东新区","上海市浦东新区清溪路365弄",121.578081633469,31.347103664356,2022-04-26
"浦东新区","上海市浦东新区清溪路400弄",121.577475636572,31.3476508374997,2022-04-26
"浦东新区","上海市浦东新区庆利路425弄",121.732244782717,31.2375488882221,2022-04-26
"浦东新区","上海市浦东新区人民东路2437弄",121.78355976633,31.0543198576944,2022-04-26
"浦东新区","上海市浦东新区乳山路114弄",121.527850994437,31.240750133905,2022-04-26
"浦东新区","上海市浦东新区瑞安路211弄",121.597322259526,31.0967757195941,2022-04-26
"浦东新区","上海市浦东新区瑞福路52弄",121.607602647444,31.1017584182868,2022-04-26
"浦东新区","上海市浦东新区瑞和路269弄",121.595639912967,31.0935069363829,2022-04-26
"浦东新区","上海市浦东新区瑞浦路611弄",121.592073640093,31.0973300787465,2022-04-26
"浦东新区","上海市浦东新区瑞浦路8弄",121.550454606832,31.2273482924363,2022-04-26
"浦东新区","上海市浦东新区瑞阳路351弄",121.596614933768,31.1008576930601,2022-04-26
"浦东新区","上海市浦东新区瑞意路399弄",121.59268628445,31.1027918607619,2022-04-26
"浦东新区","上海市浦东新区三林路1466弄",121.527799521531,31.1515703407127,2022-04-26
"浦东新区","上海市浦东新区三林路1662弄",121.53161588266,31.1527105494656,2022-04-26
"浦东新区","上海市浦东新区三林路168号",121.50263852318,31.1415921892231,2022-04-26
"浦东新区","上海市浦东新区三林路184号",121.502530996011,31.1424148693693,2022-04-26
"浦东新区","上海市浦东新区三林路235号",121.502736528311,31.1436912572177,2022-04-26
"浦东新区","上海市浦东新区三林路380号",121.505594577122,31.1443861970922,2022-04-26
"浦东新区","上海市浦东新区三林路788弄",121.514306433788,31.1473404454447,2022-04-26
"浦东新区","上海市浦东新区三林路88弄",121.536884264815,31.1897022555378,2022-04-26
"浦东新区","上海市浦东新区三林镇红旗村东桥队毛家塘",121.507890556175,31.1336601072747,2022-04-26
"浦东新区","上海市浦东新区三林镇胡巷村东朱家宅",121.522564466511,31.1662048002723,2022-04-26
"浦东新区","上海市浦东新区三林镇胡巷村金家宅",121.52500489309,31.1587157705195,2022-04-26
"浦东新区","上海市浦东新区三林镇胡巷村马家宅",121.52500489309,31.1587157705195,2022-04-26
"浦东新区","上海市浦东新区三林镇胡巷村张家宅",121.529586520682,31.1678359718402,2022-04-26
"浦东新区","上海市浦东新区三林镇金光村陆家湾队陆家湾",121.526093190215,31.1361674349858,2022-04-26
"浦东新区","上海市浦东新区三林镇联丰村顾家队顾家宅",121.520244592531,31.1570592548077,2022-04-26
"浦东新区","上海市浦东新区三林镇临江村临江队王家渡",121.481034545157,31.1308233546774,2022-04-26
"浦东新区","上海市浦东新区三林镇临江村庞家队庞家宅",121.482806722267,31.124007039641,2022-04-26
"浦东新区","上海市浦东新区三林镇临江村泰保队泰保堂",121.484921243607,31.1239658475081,2022-04-26
"浦东新区","上海市浦东新区三林镇临江村王家宅队王家宅",121.484029855049,31.1268779245209,2022-04-26
"浦东新区","上海市浦东新区三林镇临江村益民队小金家宅",121.488457692739,31.1299419957814,2022-04-26
"浦东新区","上海市浦东新区三林镇临江村张塘队塘湾宅",121.49501181957,31.1315686973293,2022-04-26
"浦东新区","上海市浦东新区三林镇临江村周南队庞信隆",121.479922892088,31.1219352770893,2022-04-26
"浦东新区","上海市浦东新区三林镇临江村周南队周家宅",121.478736410171,31.1240123722048,2022-04-26
"浦东新区","上海市浦东新区三林镇南阜村东汤队东汤家宅",121.526167659742,31.1360516018922,2022-04-26
"浦东新区","上海市浦东新区三林镇南阜村红光队顾家宅",121.526167659742,31.1360516018922,2022-04-26
"浦东新区","上海市浦东新区三林镇三林村镇前队金家宅",121.593249522005,31.1310947543661,2022-04-26
"浦东新区","上海市浦东新区三林镇天花庵村北陈队大陈家宅",121.531939542135,31.1285359001772,2022-04-26
"浦东新区","上海市浦东新区三林镇天花庵村东瞿队大瞿家宅",121.532611205165,31.1270776188598,2022-04-26
"浦东新区","上海市浦东新区三林镇天花庵村乐耕队",121.528534964252,31.1325218308858,2022-04-26
"浦东新区","上海市浦东新区三林镇天花庵村闵北队闵家宅",121.539890174712,31.126238497919,2022-04-26
"浦东新区","上海市浦东新区三林镇天花庵村南陈队大陈家宅",121.531939542135,31.1285359001772,2022-04-26
"浦东新区","上海市浦东新区三林镇天花庵村南王家队南王家宅",121.55380142367,31.1628451123625,2022-04-26
"浦东新区","上海市浦东新区三林镇天花庵村南周家队大周家宅",121.531939542135,31.1285359001772,2022-04-26
"浦东新区","上海市浦东新区三林镇天花庵村卫家队",121.531269675716,31.1327837206808,2022-04-26
"浦东新区","上海市浦东新区三林镇天花庵村西瞿队大瞿家宅",121.532611205165,31.1270776188598,2022-04-26
"浦东新区","上海市浦东新区三林镇西林村圈门队西林街",121.505050473475,31.1424654028824,2022-04-26
"浦东新区","上海市浦东新区三林镇新春村陈桥队陈家桥",121.482444895587,31.1340229536591,2022-04-26
"浦东新区","上海市浦东新区三林镇新春村方家队方巷",121.485071080966,31.1292384482951,2022-04-26
"浦东新区","上海市浦东新区三林镇新春村方家队许家宅",121.485071080966,31.1292384482951,2022-04-26
"浦东新区","上海市浦东新区三林镇新任村",121.502813063941,31.1618677203956,2022-04-26
"浦东新区","上海市浦东新区三林镇懿德村吴家队吴家宅",121.522180979889,31.1256048631317,2022-04-26
"浦东新区","上海市浦东新区三林镇懿德村小陈家队小陈家宅",121.524726687873,31.1243504097577,2022-04-26
"浦东新区","上海市浦东新区三林镇中林村三林桥队天打桥",121.505046161608,31.1424974692412,2022-04-26
"浦东新区","上海市浦东新区三林镇中林村小中林队小中林",121.514264932074,31.1456984094255,2022-04-26
"浦东新区","上海市浦东新区商城路1317弄",121.537666599084,31.2426375770902,2022-04-26
"浦东新区","上海市浦东新区上南路1000弄",121.50066746123,31.1805938353858,2022-04-26
"浦东新区","上海市浦东新区上南路1251弄",121.502606274012,31.1785212361064,2022-04-26
"浦东新区","上海市浦东新区上南路1500弄",121.502331302696,31.1749569131774,2022-04-26
"浦东新区","上海市浦东新区上南路1551弄",121.504524605429,31.1745415069555,2022-04-26
"浦东新区","上海市浦东新区上南路3521号",121.511585466399,31.1615953281232,2022-04-26
"浦东新区","上海市浦东新区上南路3651弄",121.513459421523,31.1605853221933,2022-04-26
"浦东新区","上海市浦东新区上南路3899弄",121.51526214102,31.1581154202187,2022-04-26
"浦东新区","上海市浦东新区上南路4071弄",121.515375686837,31.1527025144341,2022-04-26
"浦东新区","上海市浦东新区上南路4185弄",121.51939174128,31.1519459822317,2022-04-26
"浦东新区","上海市浦东新区上南路4265弄",121.519804782154,31.1518099263142,2022-04-26
"浦东新区","上海市浦东新区上南路6500弄",121.584859707864,31.1200779398788,2022-04-26
"浦东新区","上海市浦东新区上南路6555弄",121.584859707864,31.1200779398788,2022-04-26
"浦东新区","上海市浦东新区上浦路606弄",121.508512183588,31.152423451182,2022-04-26
"浦东新区","上海市浦东新区尚博路650弄",121.528447918449,31.1552413956385,2022-04-26
"浦东新区","上海市浦东新区申江路985弄",121.633735163204,31.2928244259128,2022-04-26
"浦东新区","上海市浦东新区申启路轲桥路交界口工地生活区",121.636677742563,31.2908116312254,2022-04-26
"浦东新区","上海市浦东新区沈家弄路900弄",121.551370339469,31.2449460212264,2022-04-26
"浦东新区","上海市浦东新区沈家弄路936号",121.553671079541,31.2460098406675,2022-04-26
"浦东新区","上海市浦东新区沈梅路123弄",121.581743126728,31.0970363175052,2022-04-26
"浦东新区","上海市浦东新区盛荣路288弄",121.636263803384,31.1944164540822,2022-04-26
"浦东新区","上海市浦东新区世博家园大道站路94弄",121.545610314708,31.1654593463491,2022-04-26
"浦东新区","上海市浦东新区双桥路1108弄",121.5896261169,31.2815848989426,2022-04-26
"浦东新区","上海市浦东新区硕川路125弄",121.693519281334,31.2068003760843,2022-04-26
"浦东新区","上海市浦东新区思浦路13弄",121.500159469464,31.1649102558777,2022-04-26
"浦东新区","上海市浦东新区思浦路17弄",121.499381626723,31.1638258159296,2022-04-26
"浦东新区","上海市浦东新区孙建路665弄",121.64188773486,31.1889728978036,2022-04-26
"浦东新区","上海市浦东新区孙农路397弄",121.6357284133,31.1752104197518,2022-04-26
"浦东新区","上海市浦东新区孙桥路788号工地生活区",121.637555117554,31.1767278145194,2022-04-26
"浦东新区","上海市浦东新区台儿庄路663弄",121.600337960954,31.264978881782,2022-04-26
"浦东新区","上海市浦东新区唐镇大众村包家宅",121.654887203725,31.2451490146246,2022-04-26
"浦东新区","上海市浦东新区唐镇大众村小包新村",121.641589856752,31.2311772550643,2022-04-26
"浦东新区","上海市浦东新区唐镇大众村中心新村",121.654636127335,31.2345319459938,2022-04-26
"浦东新区","上海市浦东新区唐镇虹三村龚家宅",121.679576681514,31.2599663423934,2022-04-26
"浦东新区","上海市浦东新区唐镇虹四村卫家宅",121.662704527764,31.2466238294749,2022-04-26
"浦东新区","上海市浦东新区唐镇虹四村吴张家宅",121.658368227407,31.2467905435275,2022-04-26
"浦东新区","上海市浦东新区唐镇吕三村东蒋家宅",121.648444197285,31.2220812829293,2022-04-26
"浦东新区","上海市浦东新区唐镇吕三村三林新村",121.648444197285,31.2220812829293,2022-04-26
"浦东新区","上海市浦东新区唐镇民丰村东龚家宅",121.644742190448,31.2076757624511,2022-04-26
"浦东新区","上海市浦东新区唐镇民丰村李家宅",121.648615953299,31.2142128338184,2022-04-26
"浦东新区","上海市浦东新区唐镇暮二村顾家宅",121.682574057509,31.2244915217944,2022-04-26
"浦东新区","上海市浦东新区唐镇暮二村小丁家宅",121.669724605664,31.2288207632593,2022-04-26
"浦东新区","上海市浦东新区唐镇前进村顾家宅",121.648552173608,31.2141666626809,2022-04-26
"浦东新区","上海市浦东新区唐镇前进村西李家宅",121.648552173608,31.2141666626809,2022-04-26
"浦东新区","上海市浦东新区唐镇唐四村费家宅",121.666776995794,31.2184358524245,2022-04-26
"浦东新区","上海市浦东新区唐镇小湾村北街",121.697839941295,31.2397379836963,2022-04-26
"浦东新区","上海市浦东新区唐镇小湾村张家宅",121.691947606014,31.2362337931142,2022-04-26
"浦东新区","上海市浦东新区唐镇新虹村刘家宅",121.655033627523,31.2487133679639,2022-04-26
"浦东新区","上海市浦东新区唐镇新虹村陆家宅",121.655033627523,31.2487133679639,2022-04-26
"浦东新区","上海市浦东新区唐镇新虹村缪家宅",121.655033627523,31.2487133679639,2022-04-26
"浦东新区","上海市浦东新区唐镇一心村缪家宅",121.688848811327,31.2500387840308,2022-04-26
"浦东新区","上海市浦东新区唐镇一心村袁家宅",121.688848811327,31.2500387840308,2022-04-26
"浦东新区","上海市浦东新区唐镇一心村朱家宅",121.688848811327,31.2500387840308,2022-04-26
"浦东新区","上海市浦东新区塘南路159弄",121.516400833085,31.2080020709147,2022-04-26
"浦东新区","上海市浦东新区塘桥路400弄",121.524547925077,31.2170740873566,2022-04-26
"浦东新区","上海市浦东新区塘桥路551号",121.527653007903,31.2169058534111,2022-04-26
"浦东新区","上海市浦东新区听民路242弄",121.766289034426,31.0740618888949,2022-04-26
"浦东新区","上海市浦东新区听悦路685弄",121.744980868407,31.0603500040533,2022-04-26
"浦东新区","上海市浦东新区听悦路686弄",121.745538895789,31.0603169043048,2022-04-26
"浦东新区","上海市浦东新区晚霞路715弄",121.760628991068,31.184636677841,2022-04-26
"浦东新区","上海市浦东新区万安街333弄",121.620487043373,31.3020433364024,2022-04-26
"浦东新区","上海市浦东新区万德路45弄",121.563916613204,31.2576476191856,2022-04-26
"浦东新区","上海市浦东新区万德路67弄",121.567109550309,31.2545921971755,2022-04-26
"浦东新区","上海市浦东新区王桥街41弄",121.70667209095,31.2088406151349,2022-04-26
"浦东新区","上海市浦东新区微山二村",121.519896858468,31.2144186734285,2022-04-26
"浦东新区","上海市浦东新区潍坊路154弄",121.532304344003,31.2313464668942,2022-04-26
"浦东新区","上海市浦东新区潍坊路208弄",121.53681994614,31.2319107614326,2022-04-26
"浦东新区","上海市浦东新区潍坊路278号",121.540730090364,31.2342604596487,2022-04-26
"浦东新区","上海市浦东新区潍坊路328号工地生活区",121.541579887377,31.2342464105756,2022-04-26
"浦东新区","上海市浦东新区潍坊路716号",121.528397793001,31.229747279369,2022-04-26
"浦东新区","上海市浦东新区潍坊新村",121.53626066113,31.2349299495727,2022-04-26
"浦东新区","上海市浦东新区五莲路100弄",121.585797359155,31.2816781004793,2022-04-26
"浦东新区","上海市浦东新区五莲路108弄",121.588773624971,31.2771578731139,2022-04-26
"浦东新区","上海市浦东新区五莲路30弄",121.584500744982,31.2815552719446,2022-04-26
"浦东新区","上海市浦东新区五莲路759弄",121.597702871571,31.2763872229612,2022-04-26
"浦东新区","上海市浦东新区五莲路780弄",121.5971369391,31.2743054790071,2022-04-26
"浦东新区","上海市浦东新区五星路239弄",121.569954483859,31.1817814232373,2022-04-26
"浦东新区","上海市浦东新区西门路450弄",121.746596650527,31.0530291856179,2022-04-26
"浦东新区","上海市浦东新区西三里桥路9弄",121.550454606832,31.2273482924363,2022-04-26
"浦东新区","上海市浦东新区西泰林路901弄",121.54507097208,31.1494599367676,2022-04-26
"浦东新区","上海市浦东新区西营路33弄",121.490422736042,31.1765666914554,2022-04-26
"浦东新区","上海市浦东新区西营南路11弄",121.492535011618,31.1670638802906,2022-04-26
"浦东新区","上海市浦东新区西营南路17弄",121.492598252326,31.1659511921051,2022-04-26
"浦东新区","上海市浦东新区西营南路18弄",121.49313364241,31.1654734829916,2022-04-26
"浦东新区","上海市浦东新区下南路1071弄",121.541526977182,31.1913899354429,2022-04-26
"浦东新区","上海市浦东新区下南路161弄",121.549904215046,31.1727314791562,2022-04-26
"浦东新区","上海市浦东新区下南路276弄",121.536884264815,31.1897022555378,2022-04-26
"浦东新区","上海市浦东新区下南路309弄",121.529696185109,31.2072012517119,2022-04-26
"浦东新区","上海市浦东新区下南路320弄",121.547891741212,31.1755488136572,2022-04-26
"浦东新区","上海市浦东新区下南路339弄",121.550641274717,31.1767910741702,2022-04-26
"浦东新区","上海市浦东新区下南路500弄",121.543720818899,31.1779675877605,2022-04-26
"浦东新区","上海市浦东新区下南路526弄",121.544402003967,31.1780418917603,2022-04-26
"浦东新区","上海市浦东新区下沙街北桥弄",121.599245739132,31.0554320015955,2022-04-26
"浦东新区","上海市浦东新区小园浜路88弄",121.586584634104,31.3585373496091,2022-04-26
"浦东新区","上海市浦东新区新场镇金建村长桥",121.680729201195,31.0440834087275,2022-04-26
"浦东新区","上海市浦东新区新场镇坦西村",121.653310677555,31.0918883120652,2022-04-26
"浦东新区","上海市浦东新区新场镇新卫村",121.64761515113,31.044082628274,2022-04-26
"浦东新区","上海市浦东新区新场镇祝桥村",121.680871229584,31.0743287356668,2022-04-26
"浦东新区","上海市浦东新区新村路59弄",121.503186399711,31.1700145566784,2022-04-26
"浦东新区","上海市浦东新区新德路330弄",121.705758604077,31.2052590677383,2022-04-26
"浦东新区","上海市浦东新区新德西路207弄",121.680140008899,31.1975838841804,2022-04-26
"浦东新区","上海市浦东新区新德西路508弄",121.676387607123,31.198096102614,2022-04-26
"浦东新区","上海市浦东新区新德西路511弄",121.674150556911,31.1970359857411,2022-04-26
"浦东新区","上海市浦东新区新金桥路1568号",121.625398079596,31.2627900815484,2022-04-26
"浦东新区","上海市浦东新区新浦路199弄",121.545245782332,31.1712264561122,2022-04-26
"浦东新区","上海市浦东新区新浦路251弄",121.541342016078,31.1742258958661,2022-04-26
"浦东新区","上海市浦东新区新浦路543弄",121.536926664835,31.1758010055361,2022-04-26
"浦东新区","上海市浦东新区新浦路629弄",121.542012690971,31.1775770659788,2022-04-26
"浦东新区","上海市浦东新区新元南路正茂路交界口工地生活区",121.82788341782,30.8836711316312,2022-04-26
"浦东新区","上海市浦东新区秀浦路3188号",121.629644190081,31.136153062108,2022-04-26
"浦东新区","上海市浦东新区秀沿路1028弄",121.585149770713,31.1382153930316,2022-04-26
"浦东新区","上海市浦东新区秀沿路3668号",121.623371502366,31.1432968066237,2022-04-26
"浦东新区","上海市浦东新区秀沿路苗桥路交界口工地生活区",121.636439601772,31.1311225743354,2022-04-26
"浦东新区","上海市浦东新区宣桥镇光明村",121.728425816502,31.0770068270558,2022-04-26
"浦东新区","上海市浦东新区雪野二路246号工地生活区",121.481050175673,31.1830080769437,2022-04-26
"浦东新区","上海市浦东新区雪野路34弄",121.503822310181,31.1865529402405,2022-04-26
"浦东新区","上海市浦东新区严民路40弄",121.535360828501,31.1982091563279,2022-04-26
"浦东新区","上海市浦东新区严桥路58弄",121.532464961028,31.1967998362783,2022-04-26
"浦东新区","上海市浦东新区严杨路165弄",121.535772517227,31.2010332805955,2022-04-26
"浦东新区","上海市浦东新区严杨路30弄",121.532512930542,31.1982761081556,2022-04-26
"浦东新区","上海市浦东新区严镇路75弄",121.534643980704,31.1975138429377,2022-04-26
"浦东新区","上海市浦东新区严中路173弄",121.537969956854,31.1988218371283,2022-04-26
"浦东新区","上海市浦东新区严中路373弄",121.539982161197,31.1948547081198,2022-04-26
"浦东新区","上海市浦东新区杨高北路4705弄",121.611561030673,31.2844008867663,2022-04-26
"浦东新区","上海市浦东新区杨高南路2140弄",121.5300002802,31.1942849388584,2022-04-26
"浦东新区","上海市浦东新区杨高南路3288弄",121.525582413702,31.1746251599369,2022-04-26
"浦东新区","上海市浦东新区杨高南路3340弄",121.525618435753,31.1742592644897,2022-04-26
"浦东新区","上海市浦东新区杨高南路5055弄",121.537526104102,31.1561531881371,2022-04-26
"浦东新区","上海市浦东新区杨高南路5777弄",121.550326957619,31.134223831037,2022-04-26
"浦东新区","上海市浦东新区杨高中路10弄",121.606373585845,31.2634200112248,2022-04-26
"浦东新区","上海市浦东新区杨高中路750弄",121.591252499026,31.258041279869,2022-04-26
"浦东新区","上海市浦东新区杨高中路758号",121.594132646152,31.253475146199,2022-04-26
"浦东新区","上海市浦东新区杨莲路310弄",121.536884264815,31.1897022555378,2022-04-26
"浦东新区","上海市浦东新区杨思路1121弄",121.512446312569,31.1707936532361,2022-04-26
"浦东新区","上海市浦东新区杨思路436弄",121.500760435851,31.1656608126153,2022-04-26
"浦东新区","上海市浦东新区杨思路502弄",121.501390507335,31.1651814797804,2022-04-26
"浦东新区","上海市浦东新区杨思新村",121.600645630591,31.2244171774298,2022-04-26
"浦东新区","上海市浦东新区杨新路197弄",121.498520151739,31.1688455907204,2022-04-26
"浦东新区","上海市浦东新区杨新路198弄",121.498479727991,31.1692324410427,2022-04-26
"浦东新区","上海市浦东新区杨新路20弄",121.502908553817,31.1704943282868,2022-04-26
"浦东新区","上海市浦东新区杨新路281弄",121.49519282813,31.1673534829583,2022-04-26
"浦东新区","上海市浦东新区杨新路282弄",121.494152859841,31.1673540236933,2022-04-26
"浦东新区","上海市浦东新区杨新路77弄",121.500168003367,31.1692430237866,2022-04-26
"浦东新区","上海市浦东新区杨新路80弄",121.500333510246,31.1696131563215,2022-04-26
"浦东新区","上海市浦东新区杨新路93弄",121.500194952532,31.1693279946805,2022-04-26
"浦东新区","上海市浦东新区洋泾镇路61号生活区",121.548050292134,31.2481388325043,2022-04-26
"浦东新区","上海市浦东新区耀华路220弄",121.497392239341,31.1792613340205,2022-04-26
"浦东新区","上海市浦东新区耀华路331弄",121.493188888199,31.1809682021446,2022-04-26
"浦东新区","上海市浦东新区耀华路400弄",121.491561158615,31.1795851153661,2022-04-26
"浦东新区","上海市浦东新区耀华路414弄",121.492226982658,31.1790527910542,2022-04-26
"浦东新区","上海市浦东新区耀华路421弄",121.489669776363,31.1813858197461,2022-04-26
"浦东新区","上海市浦东新区耀华路500弄",121.488759343729,31.1767943182538,2022-04-26
"浦东新区","上海市浦东新区耀华支路2号工地生活区",121.475803802003,31.1816234755384,2022-04-26
"浦东新区","上海市浦东新区沂南路54弄",121.516355558487,31.203704529766,2022-04-26
"浦东新区","上海市浦东新区益江路299弄",121.637229571638,31.2035027591617,2022-04-26
"浦东新区","上海市浦东新区银冬路568号生活区",121.643025528618,31.2116879803861,2022-04-26
"浦东新区","上海市浦东新区银峰路676弄",121.652778790863,31.290487771739,2022-04-26
"浦东新区","上海市浦东新区银融路88弄",121.540303035925,31.2150868383467,2022-04-26
"浦东新区","上海市浦东新区银山路200弄",121.586551217139,31.2497236588597,2022-04-26
"浦东新区","上海市浦东新区银山路342弄",121.589446545629,31.2504821802502,2022-04-26
"浦东新区","上海市浦东新区樱花路802弄",121.567473903024,31.2138070211684,2022-04-26
"浦东新区","上海市浦东新区迎春路1355弄",121.569082498701,31.235478938542,2022-04-26
"浦东新区","上海市浦东新区迎春路736弄",121.558923561688,31.229490292109,2022-04-26
"浦东新区","上海市浦东新区永安新村",121.557080148951,31.2549395653573,2022-04-26
"浦东新区","上海市浦东新区永晨路258弄",121.759451761697,30.9809321712341,2022-04-26
"浦东新区","上海市浦东新区永宁路136弄",121.616396968556,31.2715431229627,2022-04-26
"浦东新区","上海市浦东新区永宁路33弄",121.6209919809,31.2789818535449,2022-04-26
"浦东新区","上海市浦东新区永泰路1129弄",121.529723871595,31.1487997256063,2022-04-26
"浦东新区","上海市浦东新区永泰路136弄",121.511141254324,31.1406678921009,2022-04-26
"浦东新区","上海市浦东新区永泰路2079弄",121.525530311983,31.1391594184198,2022-04-26
"浦东新区","上海市浦东新区永泰路595弄",121.521072740381,31.1462686284638,2022-04-26
"浦东新区","上海市浦东新区永业路94弄",121.621249794582,31.2700010291782,2022-04-26
"浦东新区","上海市浦东新区羽山路600弄",121.554654454583,31.2403090843563,2022-04-26
"浦东新区","上海市浦东新区羽山路801弄",121.556670880961,31.2416966775687,2022-04-26
"浦东新区","上海市浦东新区玉兰路158弄",121.554931402171,31.2116435066535,2022-04-26
"浦东新区","上海市浦东新区玉泉街77弄",121.501992641519,31.1689911232573,2022-04-26
"浦东新区","上海市浦东新区御桥路1679弄",121.578016236828,31.1656276726803,2022-04-26
"浦东新区","上海市浦东新区御青路56弄",121.578469072636,31.1650319243446,2022-04-26
"浦东新区","上海市浦东新区御山路360弄",121.574682445419,31.1620356669102,2022-04-26
"浦东新区","上海市浦东新区园二路299弄",121.641001825966,31.3230769196488,2022-04-26
"浦东新区","上海市浦东新区云汉路1096弄",121.811142237014,30.9176762778764,2022-04-26
"浦东新区","上海市浦东新区云汉路978弄",121.814302296137,30.9166158663587,2022-04-26
"浦东新区","上海市浦东新区云台路1000弄",121.514432735543,31.1609222238042,2022-04-26
"浦东新区","上海市浦东新区云台路183弄",121.510618530348,31.1833989622759,2022-04-26
"浦东新区","上海市浦东新区枣庄路1029弄",121.591822294211,31.2533881678545,2022-04-26
"浦东新区","上海市浦东新区枣庄路998弄",121.59064021399,31.253395808369,2022-04-26
"浦东新区","上海市浦东新区张江镇韩荡村南曹家宅",121.612718497323,31.1619299085374,2022-04-26
"浦东新区","上海市浦东新区张江镇沔北村顾家宅",121.640934632713,31.1733065547205,2022-04-26
"浦东新区","上海市浦东新区张江镇钱堂村立达宅",121.599518706329,31.1638817454656,2022-04-26
"浦东新区","上海市浦东新区张江镇新丰村龚家宅",121.651728671721,31.166540677472,2022-04-26
"浦东新区","上海市浦东新区张江镇长元村徐家宅",121.628372728462,31.1841257374287,2022-04-26
"浦东新区","上海市浦东新区张杨北路5428弄",121.583649690342,31.3484989225353,2022-04-26
"浦东新区","上海市浦东新区张杨北路588弄",121.595215283953,31.275260170384,2022-04-26
"浦东新区","上海市浦东新区张杨路1662弄",121.55120594956,31.2422320420667,2022-04-26
"浦东新区","上海市浦东新区招远路19弄",121.521229943845,31.2416451169276,2022-04-26
"浦东新区","上海市浦东新区赵高公路587号",121.633098983242,31.3221740793311,2022-04-26
"浦东新区","上海市浦东新区赵高公路610号",121.632972950979,31.3220401216688,2022-04-26
"浦东新区","上海市浦东新区赵高公路950968号",121.639170540353,31.3138972629159,2022-04-26
"浦东新区","上海市浦东新区赵高公路958号",121.637129320743,31.3168728490792,2022-04-26
"浦东新区","上海市浦东新区赵高路610号",121.633474115623,31.3217408948772,2022-04-26
"浦东新区","上海市浦东新区中科路2500弄",121.642259274018,31.1948978769969,2022-04-26
"浦东新区","上海市浦东新区中科路2635弄",121.644202488498,31.1969291857144,2022-04-26
"浦东新区","上海市浦东新区中科路2660弄",121.645325011063,31.1944678862922,2022-04-26
"浦东新区","上海市浦东新区周康路869弄",121.581217079021,31.1074874688241,2022-04-26
"浦东新区","上海市浦东新区周浦镇北庄村窑港",121.672602866348,31.1082715675334,2022-04-26
"浦东新区","上海市浦东新区周浦镇里仁村",121.575105367653,31.1138505842326,2022-04-26
"浦东新区","上海市浦东新区周浦镇瓦南村陆弄",121.65220621093,31.1034918958276,2022-04-26
"浦东新区","上海市浦东新区周浦镇周南村",121.589970886555,31.111919735761,2022-04-26
"浦东新区","上海市浦东新区周星路500弄",121.585699803177,31.1080593111742,2022-04-26
"浦东新区","上海市浦东新区周秀路168弄",121.613096863604,31.1040554140853,2022-04-26
"浦东新区","上海市浦东新区周秀路398弄",121.612986012704,31.0980748366869,2022-04-26
"浦东新区","上海市浦东新区周祝公路1218号",121.645873606238,31.1122038661462,2022-04-26
"浦东新区","上海市浦东新区周祝公路周泰北路交界口工地生活区",121.608663636081,31.109520206494,2022-04-26
"浦东新区","上海市浦东新区祝潘公路301弄",121.766842749942,31.1140887975279,2022-04-26
"浦东新区","上海市浦东新区祝桥镇卫东村朱家宅",121.759733560136,31.1839696472998,2022-04-26
"浦东新区","上海市浦东新区梓康路188弄",121.575652795031,31.1286408460994,2022-04-26
"浦东新区","上海市浦东新区梓康路580弄",121.567316070746,31.1288750806472,2022-04-26
"浦东新区","上海市浦东新区紫薇路35弄",121.636263803384,31.1944164540822,2022-04-26
"黄浦区","上海市黄浦区白河路39号",121.478241982818,31.2413981194501,2022-04-26
"黄浦区","上海市黄浦区半淞园路585弄",121.500750913812,31.2054951186599,2022-04-26
"黄浦区","上海市黄浦区保屯路211弄",121.498305816045,31.209535149529,2022-04-26
"黄浦区","上海市黄浦区保屯路50弄",121.496314991373,31.2118891156666,2022-04-26
"黄浦区","上海市黄浦区北海路267弄",121.484519341722,31.2360802599392,2022-04-26
"黄浦区","上海市黄浦区北京东路288弄",121.490646324283,31.2464802699138,2022-04-26
"黄浦区","上海市黄浦区北京东路316弄",121.477099248379,31.2054004512698,2022-04-26
"黄浦区","上海市黄浦区北京东路395号",121.48906279133,31.2457714992372,2022-04-26
"黄浦区","上海市黄浦区北京东路431弄",121.488688467424,31.2454462486496,2022-04-26
"黄浦区","上海市黄浦区北京东路432号",121.488092980702,31.2459944040648,2022-04-26
"黄浦区","上海市黄浦区曹家街62号",121.492939967742,31.2243608980118,2022-04-26
"黄浦区","上海市黄浦区曹家弄3号",121.491585592524,31.2372471520636,2022-04-26
"黄浦区","上海市黄浦区成都北路262弄",121.474451223396,31.2349910085444,2022-04-26
"黄浦区","上海市黄浦区成都南路108弄",121.473771655278,31.2277003165085,2022-04-26
"黄浦区","上海市黄浦区成都南路132弄",121.474190714799,31.2275981061468,2022-04-26
"黄浦区","上海市黄浦区长乐路169弄",121.468800612247,31.2272269364624,2022-04-26
"黄浦区","上海市黄浦区长乐路306号",121.470492480845,31.2275627493642,2022-04-26
"黄浦区","上海市黄浦区重庆北路106号",121.476989116123,31.2315367526421,2022-04-26
"黄浦区","上海市黄浦区重庆北路116号",121.476886349973,31.2315855398385,2022-04-26
"黄浦区","上海市黄浦区重庆北路216弄",121.476485975207,31.233229391023,2022-04-26
"黄浦区","上海市黄浦区重庆北路235号",121.475467027267,31.233620838719,2022-04-26
"黄浦区","上海市黄浦区重庆南路169弄",121.478156104811,31.2231556302522,2022-04-26
"黄浦区","上海市黄浦区重庆南路179弄",121.478110021739,31.2219488801169,2022-04-26
"黄浦区","上海市黄浦区重庆南路22号",121.477628529985,31.226101915861,2022-04-26
"黄浦区","上海市黄浦区重庆南路26弄",121.491585592524,31.2372471520636,2022-04-26
"黄浦区","上海市黄浦区重庆南路30弄",121.477818162278,31.2253379471355,2022-04-26
"黄浦区","上海市黄浦区打浦路303弄",121.478195181101,31.2059046737052,2022-04-26
"黄浦区","上海市黄浦区打浦路316弄",121.477142906027,31.2052986798579,2022-04-26
"黄浦区","上海市黄浦区打浦路339弄",121.478552257541,31.2052967494431,2022-04-26
"黄浦区","上海市黄浦区打浦路38弄",121.476392910756,31.2106707928914,2022-04-26
"黄浦区","上海市黄浦区打浦路457弄",121.480652855146,31.2030750472854,2022-04-26
"黄浦区","上海市黄浦区打浦路470弄",121.479363247756,31.2030630784288,2022-04-26
"黄浦区","上海市黄浦区打浦路58号",121.476443754848,31.2102904450098,2022-04-26
"黄浦区","上海市黄浦区打浦路78号",121.476714773621,31.2097538167679,2022-04-26
"黄浦区","上海市黄浦区打浦路90弄",121.477225280642,31.2085608695874,2022-04-26
"黄浦区","上海市黄浦区打浦路92号",121.477142456874,31.2087272653975,2022-04-26
"黄浦区","上海市黄浦区大沽路139弄",121.478150894639,31.2320037809305,2022-04-26
"黄浦区","上海市黄浦区大沽路145号",121.477941858947,31.2323786369908,2022-04-26
"黄浦区","上海市黄浦区大沽路183弄",121.477665540172,31.2319429515929,2022-04-26
"黄浦区","上海市黄浦区大沽路191号",121.47719725351,31.2319528325033,2022-04-26
"黄浦区","上海市黄浦区大沽路218号",121.476460193839,31.2319900402968,2022-04-26
"黄浦区","上海市黄浦区大沽路254号",121.475885817296,31.2319917385775,2022-04-26
"黄浦区","上海市黄浦区大吉路26弄",121.449603104854,31.2296828975263,2022-04-26
"黄浦区","上海市黄浦区大吉路310弄",121.468393051037,31.2230778107397,2022-04-26
"黄浦区","上海市黄浦区大吉路57号",121.493029977954,31.2210478411933,2022-04-26
"黄浦区","上海市黄浦区大境路50号",121.493632381629,31.231105849433,2022-04-26
"黄浦区","上海市黄浦区大林路43弄",121.49331950182,31.219241105019,2022-04-26
"黄浦区","上海市黄浦区丹凤路102弄",121.501388351402,31.2329378305134,2022-04-26
"黄浦区","上海市黄浦区淡水路205号",121.479829558146,31.2235619427871,2022-04-26
"黄浦区","上海市黄浦区淡水路214弄",121.479010483182,31.2233875443681,2022-04-26
"黄浦区","上海市黄浦区淡水路223弄",121.479911483608,31.2228435797927,2022-04-26
"黄浦区","上海市黄浦区淡水路227弄",121.479884264951,31.2227210599438,2022-04-26
"黄浦区","上海市黄浦区淡水路274号",121.479712059785,31.2221101567539,2022-04-26
"黄浦区","上海市黄浦区淡水路345弄",121.48143608772,31.2190805182856,2022-04-26
"黄浦区","上海市黄浦区淡水路460弄",121.480455677086,31.217062274703,2022-04-26
"黄浦区","上海市黄浦区滇池路116号",121.494156542894,31.2453423596379,2022-04-26
"黄浦区","上海市黄浦区定兴路36号",121.47746629601,31.2411076650195,2022-04-26
"黄浦区","上海市黄浦区东江阴街184号",121.503853571213,31.2196228062258,2022-04-26
"黄浦区","上海市黄浦区东街123号",121.503930286504,31.2299495337904,2022-04-26
"黄浦区","上海市黄浦区多稼路208号",121.508549193775,31.2175481364076,2022-04-26
"黄浦区","上海市黄浦区多稼路2号",121.512277880286,31.2153107427875,2022-04-26
"黄浦区","上海市黄浦区方浜西路63弄",121.488941789578,31.2268514421722,2022-04-26
"黄浦区","上海市黄浦区方浜中路523号",121.494248170056,31.2302400228681,2022-04-26
"黄浦区","上海市黄浦区方斜路401弄",121.490010862965,31.2204078211292,2022-04-26
"黄浦区","上海市黄浦区凤阳路228弄",121.478205960767,31.2405736834601,2022-04-26
"黄浦区","上海市黄浦区福建中路195弄",121.488057048481,31.2395095706142,2022-04-26
"黄浦区","上海市黄浦区福建中路205号",121.487854300928,31.2397661444115,2022-04-26
"黄浦区","上海市黄浦区福州路105号",121.494982804302,31.2408287105927,2022-04-26
"黄浦区","上海市黄浦区福州路384弄",121.489639054315,31.2400334466292,2022-04-26
"黄浦区","上海市黄浦区福州路614弄",121.485855032185,31.2389698679587,2022-04-26
"黄浦区","上海市黄浦区福州路623号",121.485542691359,31.2383066592867,2022-04-26
"黄浦区","上海市黄浦区抚安街10号",121.503848720363,31.2267292363659,2022-04-26
"黄浦区","上海市黄浦区复兴东路330号",121.504685491946,31.2265609425748,2022-04-26
"黄浦区","上海市黄浦区复兴东路404弄",121.503635193144,31.2268925119336,2022-04-26
"黄浦区","上海市黄浦区复兴东路451弄",121.518304791613,31.2003641008301,2022-04-26
"黄浦区","上海市黄浦区复兴东路519弄",121.501400927679,31.2279945952648,2022-04-26
"黄浦区","上海市黄浦区复兴东路663弄",121.498122382059,31.2279773029395,2022-04-26
"黄浦区","上海市黄浦区复兴东路671号",121.498164961741,31.2278288512837,2022-04-26
"黄浦区","上海市黄浦区复兴东路673号",121.497880827708,31.2278543266236,2022-04-26
"黄浦区","上海市黄浦区复兴中路408弄",121.480135790494,31.2225478951959,2022-04-26
"黄浦区","上海市黄浦区复兴中路598弄",121.470635850404,31.2210468375465,2022-04-26
"黄浦区","上海市黄浦区复兴中路616弄",121.470347673996,31.2209954199316,2022-04-26
"黄浦区","上海市黄浦区高家横弄18弄",121.471987979858,31.2162274328676,2022-04-26
"黄浦区","上海市黄浦区高家弄45弄",121.491585592524,31.2372471520636,2022-04-26
"黄浦区","上海市黄浦区高家弄66弄",121.484578540055,31.2354982364646,2022-04-26
"黄浦区","上海市黄浦区牯岭路145弄",121.477555497747,31.2417679207431,2022-04-26
"黄浦区","上海市黄浦区光启路111号",121.500877215567,31.2296260037028,2022-04-26
"黄浦区","上海市黄浦区光启路129号",121.500787744338,31.2293297229611,2022-04-26
"黄浦区","上海市黄浦区光启路135号",121.500859698609,31.2290434768928,2022-04-26
"黄浦区","上海市黄浦区光启路215号",121.500806518923,31.228077968931,2022-04-26
"黄浦区","上海市黄浦区光启南路154弄",121.500580505257,31.2250675921171,2022-04-26
"黄浦区","上海市黄浦区广东路138号",121.494688699078,31.2390723746523,2022-04-26
"黄浦区","上海市黄浦区广东路212号",121.493726344385,31.2388859636763,2022-04-26
"黄浦区","上海市黄浦区广东路543号",121.487577892322,31.237774668671,2022-04-26
"黄浦区","上海市黄浦区广东路544号",121.487356370183,31.2378067796239,2022-04-26
"黄浦区","上海市黄浦区广东路566号",121.487196561633,31.2377830051694,2022-04-26
"黄浦区","上海市黄浦区广西北路109弄",121.485288650561,31.2373064341486,2022-04-26
"黄浦区","上海市黄浦区广西北路228弄",121.485099557251,31.2391192282015,2022-04-26
"黄浦区","上海市黄浦区广西北路425号",121.483259827566,31.2421428148632,2022-04-26
"黄浦区","上海市黄浦区广西北路442号",121.483340854723,31.242387726352,2022-04-26
"黄浦区","上海市黄浦区贵州路131弄",121.482535972986,31.2422948715516,2022-04-26
"黄浦区","上海市黄浦区贵州路151号",121.482534625528,31.242566952065,2022-04-26
"黄浦区","上海市黄浦区贵州路155号",121.482487913642,31.2425820033043,2022-04-26
"黄浦区","上海市黄浦区贵州路157号",121.482478840756,31.2426131863771,2022-04-26
"黄浦区","上海市黄浦区贵州路159号",121.482498872969,31.2426561788639,2022-04-26
"黄浦区","上海市黄浦区贵州路161号",121.482452700066,31.2426906037133,2022-04-26
"黄浦区","上海市黄浦区贵州路167号",121.482425481409,31.2427831493781,2022-04-26
"黄浦区","上海市黄浦区贵州路169号",121.482444076333,31.2428328569367,2022-04-26
"黄浦区","上海市黄浦区贵州路198弄",121.482585828942,31.2434445510501,2022-04-26
"黄浦区","上海市黄浦区贵州路77弄",121.482865022295,31.2414183423931,2022-04-26
"黄浦区","上海市黄浦区国货路370弄",121.490967743528,31.2121753784511,2022-04-26
"黄浦区","上海市黄浦区海潮路222弄",121.503655584679,31.2138987460993,2022-04-26
"黄浦区","上海市黄浦区海潮路230弄",121.504837036085,31.2152778520308,2022-04-26
"黄浦区","上海市黄浦区海潮路256弄",121.50354920089,31.2128867884433,2022-04-26
"黄浦区","上海市黄浦区海南西弄51弄",121.503684959269,31.2165869106679,2022-04-26
"黄浦区","上海市黄浦区海南西弄95号",121.503132142058,31.2167324462834,2022-04-26
"黄浦区","上海市黄浦区汉口路457号",121.488246590944,31.2404915559304,2022-04-26
"黄浦区","上海市黄浦区汉口路558号",121.486326103594,31.2400464142022,2022-04-26
"黄浦区","上海市黄浦区汉口路678号",121.484266828043,31.2396475833219,2022-04-26
"黄浦区","上海市黄浦区合肥路271号",121.481303857149,31.2202875370147,2022-04-26
"黄浦区","上海市黄浦区合肥路349弄",121.479810873391,31.2198448469075,2022-04-26
"黄浦区","上海市黄浦区和顺街45号",121.503311533668,31.2262275964565,2022-04-26
"黄浦区","上海市黄浦区河南南路600弄",121.497305552859,31.2256173337539,2022-04-26
"黄浦区","上海市黄浦区河南中路154号",121.49282390667,31.2392598658968,2022-04-26
"黄浦区","上海市黄浦区河南中路166弄",121.492936733842,31.2395675390638,2022-04-26
"黄浦区","上海市黄浦区河南中路192号",121.492742071038,31.2399719278209,2022-04-26
"黄浦区","上海市黄浦区河南中路541弄",121.490336768204,31.2453628132786,2022-04-26
"黄浦区","上海市黄浦区淮海东路89弄",121.488370916426,31.2308558135008,2022-04-26
"黄浦区","上海市黄浦区淮海中路475号",121.476883205904,31.2272737187458,2022-04-26
"黄浦区","上海市黄浦区淮海中路613弄",121.473823038353,31.2257835448502,2022-04-26
"黄浦区","上海市黄浦区淮海中路697弄",121.471974235783,31.2249414467614,2022-04-26
"黄浦区","上海市黄浦区淮海中路701号",121.471627759348,31.2252848334756,2022-04-26
"黄浦区","上海市黄浦区淮海中路796号",121.469207364982,31.2249785029422,2022-04-26
"黄浦区","上海市黄浦区淮海中路833弄",121.468989885218,31.224196151208,2022-04-26
"黄浦区","上海市黄浦区淮海中路927弄",121.467196957251,31.2226196933692,2022-04-26
"黄浦区","上海市黄浦区黄陂北路249弄",121.476281161551,31.2354804051842,2022-04-26
"黄浦区","上海市黄浦区黄陂南路584号",121.483072800359,31.221956445997,2022-04-26
"黄浦区","上海市黄浦区黄陂南路596弄",121.482998420663,31.2218577034941,2022-04-26
"黄浦区","上海市黄浦区黄陂南路685弄",121.483886215998,31.2201226286321,2022-04-26
"黄浦区","上海市黄浦区黄陂南路783号",121.484188226311,31.2182709407797,2022-04-26
"黄浦区","上海市黄浦区黄河路125弄",121.476317992077,31.2410275448238,2022-04-26
"黄浦区","上海市黄浦区黄河路215弄",121.434456955312,31.2533728868238,2022-04-26
"黄浦区","上海市黄浦区黄河路253弄",121.475294193287,31.242852770827,2022-04-26
"黄浦区","上海市黄浦区黄河路275号",121.475724122304,31.2432075924172,2022-04-26
"黄浦区","上海市黄浦区黄河路288号",121.47590926307,31.2434954160334,2022-04-26
"黄浦区","上海市黄浦区黄家路55弄",121.503348004872,31.2215087455735,2022-04-26
"黄浦区","上海市黄浦区黄家路88弄",121.50359063719,31.2212345193213,2022-04-26
"黄浦区","上海市黄浦区黄家阙路68弄",121.493950022457,31.2207148614576,2022-04-26
"黄浦区","上海市黄浦区黄家阙路72弄",121.493993590274,31.220593342474,2022-04-26
"黄浦区","上海市黄浦区黄家阙路76弄",121.494053776744,31.2203405763063,2022-04-26
"黄浦区","上海市黄浦区黄家阙路88弄",121.493958197037,31.2199379556041,2022-04-26
"黄浦区","上海市黄浦区徽宁路509号",121.494416422678,31.2151442814681,2022-04-26
"黄浦区","上海市黄浦区会稽路38弄",121.488238775686,31.2287334531946,2022-04-26
"黄浦区","上海市黄浦区火腿弄21号",121.491585592524,31.2372471520636,2022-04-26
"黄浦区","上海市黄浦区建国东路119号",121.485438218428,31.2188695161638,2022-04-26
"黄浦区","上海市黄浦区建国东路139号",121.485150850495,31.2187423587827,2022-04-26
"黄浦区","上海市黄浦区建国东路143弄",121.485327098036,31.2182331870898,2022-04-26
"黄浦区","上海市黄浦区建国东路153号",121.484905702922,31.2186465467015,2022-04-26
"黄浦区","上海市黄浦区建国东路187号",121.484295843311,31.2184631060532,2022-04-26
"黄浦区","上海市黄浦区建国东路45号",121.486737168195,31.2193079646066,2022-04-26
"黄浦区","上海市黄浦区建国东路61弄",121.486442404214,31.219232432313,2022-04-26
"黄浦区","上海市黄浦区建国西路25弄",121.47232744951,31.2139085517053,2022-04-26
"黄浦区","上海市黄浦区建国西路91弄",121.478096367495,31.2181663267346,2022-04-26
"黄浦区","上海市黄浦区建国中路155弄",121.474450414922,31.2147902799509,2022-04-26
"黄浦区","上海市黄浦区江西中路128号",121.494365129433,31.2395595114777,2022-04-26
"黄浦区","上海市黄浦区江西中路135弄",121.494035091989,31.2399062408178,2022-04-26
"黄浦区","上海市黄浦区江西中路141号",121.494076234381,31.2399277762798,2022-04-26
"黄浦区","上海市黄浦区江西中路147号",121.493987391966,31.2400644761759,2022-04-26
"黄浦区","上海市黄浦区江西中路304号",121.493110016975,31.2440498348388,2022-04-26
"黄浦区","上海市黄浦区江西中路412弄",121.492185570774,31.2467273311509,2022-04-26
"黄浦区","上海市黄浦区江西中路460弄",121.491700395969,31.2476486531008,2022-04-26
"黄浦区","上海市黄浦区江阴街308弄",121.496799357704,31.2189849381664,2022-04-26
"黄浦区","上海市黄浦区江阴街310号",121.496723989872,31.2191662160478,2022-04-26
"黄浦区","上海市黄浦区江阴路104号",121.475041140625,31.2356509214877,2022-04-26
"黄浦区","上海市黄浦区江阴路106弄",121.475053177919,31.2357426250118,2022-04-26
"黄浦区","上海市黄浦区江阴路130弄",121.474520662412,31.2357107449248,2022-04-26
"黄浦区","上海市黄浦区江阴路140号",121.474555516666,31.2355495689193,2022-04-26
"黄浦区","上海市黄浦区江阴路88弄",121.475551737477,31.2358600331803,2022-04-26
"黄浦区","上海市黄浦区金陵东路59号",121.497854327695,31.2370649057313,2022-04-26
"黄浦区","上海市黄浦区金陵东路63号",121.497718773394,31.2370229141499,2022-04-26
"黄浦区","上海市黄浦区金陵东路67号",121.497575763157,31.2369573022663,2022-04-26
"黄浦区","上海市黄浦区金陵西路60号",121.478167423461,31.2299623483688,2022-04-26
"黄浦区","上海市黄浦区金坛路9号",121.50488024458,31.2247201129753,2022-04-26
"黄浦区","上海市黄浦区进贤路138弄",121.466170463544,31.2278474560023,2022-04-26
"黄浦区","上海市黄浦区进贤路154号",121.465814914224,31.2278022179664,2022-04-26
"黄浦区","上海市黄浦区静修路107号",121.493392444227,31.2254067323682,2022-04-26
"黄浦区","上海市黄浦区静修路114弄",121.493029798293,31.2257417798045,2022-04-26
"黄浦区","上海市黄浦区静修路126弄",121.486533342675,31.2255124191199,2022-04-26
"黄浦区","上海市黄浦区静修路89号",121.493588993473,31.2255120331203,2022-04-26
"黄浦区","上海市黄浦区静修路95号",121.493553600236,31.2254937367371,2022-04-26
"黄浦区","上海市黄浦区九江路218弄",121.492635082852,31.2429358996953,2022-04-26
"黄浦区","上海市黄浦区九江路619号",121.485146628459,31.2401623504,2022-04-26
"黄浦区","上海市黄浦区局门后路5号",121.487081219206,31.2152536858102,2022-04-26
"黄浦区","上海市黄浦区局门后路85号",121.487218659949,31.2142250328777,2022-04-26
"黄浦区","上海市黄浦区局门路241弄",121.487610410982,31.2120270919029,2022-04-26
"黄浦区","上海市黄浦区局门路599弄",121.4896578289,31.2063988553875,2022-04-26
"黄浦区","上海市黄浦区巨鹿路244弄",121.468609991818,31.2290998306917,2022-04-26
"黄浦区","上海市黄浦区巨鹿路260弄",121.468550973146,31.2291308638652,2022-04-26
"黄浦区","上海市黄浦区巨鹿路318号",121.465494129326,31.2289545458972,2022-04-26
"黄浦区","上海市黄浦区巨鹿路367号",121.466125009286,31.2289298428278,2022-04-26
"黄浦区","上海市黄浦区巨鹿路383弄",121.46518663935,31.2286273068965,2022-04-26
"黄浦区","上海市黄浦区巨鹿路391弄",121.465008325706,31.2286652107884,2022-04-26
"黄浦区","上海市黄浦区聚奎新村",121.502708501179,31.2294960046602,2022-04-26
"黄浦区","上海市黄浦区跨龙路67号",121.502476558697,31.2195192745596,2022-04-26
"黄浦区","上海市黄浦区老道前街20号",121.493745657954,31.2239319689893,2022-04-26
"黄浦区","上海市黄浦区老道前街68弄",121.49419660732,31.2232790759534,2022-04-26
"黄浦区","上海市黄浦区丽园路1032弄",121.478540259467,31.2113407564771,2022-04-26
"黄浦区","上海市黄浦区丽园路25号",121.496425033798,31.2168358266177,2022-04-26
"黄浦区","上海市黄浦区丽园路43弄",121.495718606345,31.2169136513198,2022-04-26
"黄浦区","上海市黄浦区丽园路448弄",121.489317910095,31.2139192066145,2022-04-26
"黄浦区","上海市黄浦区丽园路45弄",121.495746633477,31.216842312012,2022-04-26
"黄浦区","上海市黄浦区丽园路514弄",121.488291416389,31.2133187465389,2022-04-26
"黄浦区","上海市黄浦区丽园路565号",121.487551302479,31.2132733470607,2022-04-26
"黄浦区","上海市黄浦区丽园路710弄",121.486006396663,31.2123440426996,2022-04-26
"黄浦区","上海市黄浦区丽园路866弄",121.482159493147,31.2122576437947,2022-04-26
"黄浦区","上海市黄浦区丽园路885号",121.481914076082,31.2125746710216,2022-04-26
"黄浦区","上海市黄浦区丽园路887号",121.481490614864,31.2125579935323,2022-04-26
"黄浦区","上海市黄浦区丽园路8号",121.496630027116,31.2166998648549,2022-04-26
"黄浦区","上海市黄浦区龙华东路526号",121.484575485816,31.2006291217577,2022-04-26
"黄浦区","上海市黄浦区龙华东路888弄",121.477730128338,31.1990606070333,2022-04-26
"黄浦区","上海市黄浦区鲁班路168弄",121.480692470419,31.2107777316744,2022-04-26
"黄浦区","上海市黄浦区鲁班路299弄",121.481672881052,31.2101452082309,2022-04-26
"黄浦区","上海市黄浦区鲁班路738弄",121.484940916498,31.1998880342562,2022-04-26
"黄浦区","上海市黄浦区鲁班路88弄",121.479933042941,31.2123967776489,2022-04-26
"黄浦区","上海市黄浦区陆家浜路1034弄",121.496036516665,31.2171361616686,2022-04-26
"黄浦区","上海市黄浦区陆家浜路1060弄",121.494868000858,31.2173551199827,2022-04-26
"黄浦区","上海市黄浦区陆家浜路1088号",121.494590244794,31.2176036478577,2022-04-26
"黄浦区","上海市黄浦区陆家浜路1300号",121.49057401069,31.2171658862935,2022-04-26
"黄浦区","上海市黄浦区陆家浜路1331号",121.489978344306,31.2175528460034,2022-04-26
"黄浦区","上海市黄浦区陆家浜路305弄",121.507385528817,31.2171620259531,2022-04-26
"黄浦区","上海市黄浦区陆家浜路413弄",121.505863709453,31.2173034687199,2022-04-26
"黄浦区","上海市黄浦区陆家浜路468弄",121.504498105416,31.2161071433814,2022-04-26
"黄浦区","上海市黄浦区陆家浜路688弄",121.501678953234,31.2180530654927,2022-04-26
"黄浦区","上海市黄浦区露香园路18号",121.491120719423,31.2326637149456,2022-04-26
"黄浦区","上海市黄浦区马当路278弄",121.480389561801,31.2236803698593,2022-04-26
"黄浦区","上海市黄浦区马当路306弄",121.480125639642,31.2230886190092,2022-04-26
"黄浦区","上海市黄浦区马当路318弄",121.481149977415,31.2230443050963,2022-04-26
"黄浦区","上海市黄浦区马当路328弄",121.481281040189,31.2228701373191,2022-04-26
"黄浦区","上海市黄浦区马当路357弄",121.482270074555,31.2192363183031,2022-04-26
"黄浦区","上海市黄浦区马当路588弄",121.482317774578,31.2161137832415,2022-04-26
"黄浦区","上海市黄浦区毛家园路161号",121.509788046904,31.2254207055686,2022-04-26
"黄浦区","上海市黄浦区茂名南路159弄",121.4685696579,31.2220690848938,2022-04-26
"黄浦区","上海市黄浦区茂名南路169弄",121.469133524269,31.2212484931447,2022-04-26
"黄浦区","上海市黄浦区蒙自路345弄",121.485623179532,31.21018620811,2022-04-26
"黄浦区","上海市黄浦区蒙自路490弄",121.485480618448,31.2072328582784,2022-04-26
"黄浦区","上海市黄浦区蒙自路601弄",121.487528126197,31.2051225486478,2022-04-26
"黄浦区","上海市黄浦区蒙自西路72弄",121.48209804905,31.2132159800014,2022-04-26
"黄浦区","上海市黄浦区梦花街13弄",121.492488659054,31.2236649295716,2022-04-26
"黄浦区","上海市黄浦区梦花街151号",121.493618907046,31.2243223747692,2022-04-26
"黄浦区","上海市黄浦区梦花街198弄",121.493182330568,31.2239496480682,2022-04-26
"黄浦区","上海市黄浦区梦花街73弄",121.494698310947,31.224742037936,2022-04-26
"黄浦区","上海市黄浦区梦花街9号",121.495938062381,31.2253889763646,2022-04-26
"黄浦区","上海市黄浦区面筋弄13号",121.504795534371,31.2263274151385,2022-04-26
"黄浦区","上海市黄浦区面筋弄17号",121.504795534371,31.2263274151385,2022-04-26
"黄浦区","上海市黄浦区面筋弄24号",121.504795534371,31.2263274151385,2022-04-26
"黄浦区","上海市黄浦区面筋弄48号",121.504795534371,31.2263274151385,2022-04-26
"黄浦区","上海市黄浦区南昌路282号",121.469274737895,31.2234240607528,2022-04-26
"黄浦区","上海市黄浦区南昌路284号",121.469347141319,31.2234542465906,2022-04-26
"黄浦区","上海市黄浦区南昌路310弄",121.468526988389,31.2228980072733,2022-04-26
"黄浦区","上海市黄浦区南昌路328号",121.467758128703,31.2221261377171,2022-04-26
"黄浦区","上海市黄浦区南昌路69弄",121.472100986691,31.2239818409673,2022-04-26
"黄浦区","上海市黄浦区南昌路74弄",121.477767497848,31.2253373295349,2022-04-26
"黄浦区","上海市黄浦区南车站路192弄",121.4977067361,31.2149374397409,2022-04-26
"黄浦区","上海市黄浦区南车站路30弄",121.496219681159,31.2172356812197,2022-04-26
"黄浦区","上海市黄浦区南车站路450弄",121.50015381014,31.2106206821849,2022-04-26
"黄浦区","上海市黄浦区南京东路720号",121.483315792,31.2412792516816,2022-04-26
"黄浦区","上海市黄浦区南京西路455弄",121.474520572582,31.2368317132736,2022-04-26
"黄浦区","上海市黄浦区南京西路465号",121.474682447235,31.2367466492135,2022-04-26
"黄浦区","上海市黄浦区南京西路471弄",121.474744699807,31.2368385060446,2022-04-26
"黄浦区","上海市黄浦区南京西路479弄",121.474402984391,31.2367738975098,2022-04-26
"黄浦区","上海市黄浦区南京西路88号",121.479483261372,31.2405916681445,2022-04-26
"黄浦区","上海市黄浦区南塘浜路93弄",121.48067306702,31.2097893347034,2022-04-26
"黄浦区","上海市黄浦区宁波路120弄",121.491211897432,31.2454927130886,2022-04-26
"黄浦区","上海市黄浦区宁波路201号",121.489942322255,31.2447522894734,2022-04-26
"黄浦区","上海市黄浦区宁波路219号",121.489700767903,31.2447031232236,2022-04-26
"黄浦区","上海市黄浦区宁波路232号",121.489333271119,31.2448215235364,2022-04-26
"黄浦区","上海市黄浦区宁波路266号",121.488618579255,31.2446284089986,2022-04-26
"黄浦区","上海市黄浦区宁波路284弄",121.488411789327,31.2445556243191,2022-04-26
"黄浦区","上海市黄浦区宁波路540号",121.483899960073,31.2428860378203,2022-04-26
"黄浦区","上海市黄浦区宁波路542弄",121.483778778659,31.2427559028324,2022-04-26
"黄浦区","上海市黄浦区宁波路560号",121.483416132725,31.2427553625326,2022-04-26
"黄浦区","上海市黄浦区宁波路561号",121.483345975065,31.2423719032213,2022-04-26
"黄浦区","上海市黄浦区宁波路566号",121.483293514023,31.2427295053217,2022-04-26
"黄浦区","上海市黄浦区宁波路579号",121.483146102089,31.2425288222479,2022-04-26
"黄浦区","上海市黄浦区宁波路587弄",121.48300129524,31.2423587044126,2022-04-26
"黄浦区","上海市黄浦区宁波路620弄",121.482230728774,31.2425626296574,2022-04-26
"黄浦区","上海市黄浦区宁波路634号",121.482217703344,31.2424598952312,2022-04-26
"黄浦区","上海市黄浦区宁波路636号",121.482125986352,31.2424708556337,2022-04-26
"黄浦区","上海市黄浦区宁波路70号",121.492195721627,31.2453803339409,2022-04-26
"黄浦区","上海市黄浦区宁波路74弄",121.491935302859,31.245651788011,2022-04-26
"黄浦区","上海市黄浦区宁海东路4号",121.488760366257,31.2348622638651,2022-04-26
"黄浦区","上海市黄浦区牛庄路620号",121.484859170696,31.2437639425505,2022-04-26
"黄浦区","上海市黄浦区牛庄路692号",121.483394753054,31.2435320789405,2022-04-26
"黄浦区","上海市黄浦区牛庄路736号",121.482628228962,31.24332136351,2022-04-26
"黄浦区","上海市黄浦区牛庄路775号",121.48199043205,31.2428640399258,2022-04-26
"黄浦区","上海市黄浦区牌楼路29号",121.492932691467,31.2197669474376,2022-04-26
"黄浦区","上海市黄浦区牌楼路41弄",121.493170203444,31.2194087943331,2022-04-26
"黄浦区","上海市黄浦区蓬莱路190弄",121.496810496693,31.2233668543172,2022-04-26
"黄浦区","上海市黄浦区蓬莱路199弄",121.49736106814,31.2242824618939,2022-04-26
"黄浦区","上海市黄浦区蓬莱路209号",121.497330525752,31.2237374989019,2022-04-26
"黄浦区","上海市黄浦区蓬莱路252弄",121.496682577988,31.223207201084,2022-04-26
"黄浦区","上海市黄浦区蓬莱路285弄",121.496084126857,31.2231081510931,2022-04-26
"黄浦区","上海市黄浦区蓬莱路291号",121.495933660684,31.2230207584965,2022-04-26
"黄浦区","上海市黄浦区蓬莱路336号",121.495444802826,31.2225912829158,2022-04-26
"黄浦区","上海市黄浦区蓬莱路421弄",121.493672715546,31.2220803564963,2022-04-26
"黄浦区","上海市黄浦区普育东路200弄",121.502308755228,31.2136236482467,2022-04-26
"黄浦区","上海市黄浦区普育东路71弄",121.503539343946,31.2153491925307,2022-04-26
"黄浦区","上海市黄浦区普育西路208号",121.500317840726,31.2151372554968,2022-04-26
"黄浦区","上海市黄浦区青岛路41号",121.475042398253,31.2433855815963,2022-04-26
"黄浦区","上海市黄浦区青岛路43号",121.474939093119,31.243386353448,2022-04-26
"黄浦区","上海市黄浦区青岛路66弄",121.484578540055,31.2354982364646,2022-04-26
"黄浦区","上海市黄浦区瞿溪路1003弄",121.483856931239,31.2057716302849,2022-04-26
"黄浦区","上海市黄浦区瞿溪路1072弄",121.481430608056,31.2047559228658,2022-04-26
"黄浦区","上海市黄浦区瞿溪路1111弄",121.480162649829,31.2049094302128,2022-04-26
"黄浦区","上海市黄浦区瞿溪路1145弄",121.479453976612,31.2046405605389,2022-04-26
"黄浦区","上海市黄浦区瞿溪路115号",121.501601788791,31.2127052340414,2022-04-26
"黄浦区","上海市黄浦区瞿溪路118号",121.501412875142,31.2123154747059,2022-04-26
"黄浦区","上海市黄浦区瞿溪路1200弄",121.477917514868,31.2023023965439,2022-04-26
"黄浦区","上海市黄浦区瞿溪路120弄",121.50172216173,31.2120859266995,2022-04-26
"黄浦区","上海市黄浦区瞿溪路121号",121.501095863128,31.2123133128033,2022-04-26
"黄浦区","上海市黄浦区瞿溪路1254弄",121.476834158423,31.2024935135258,2022-04-26
"黄浦区","上海市黄浦区瞿溪路131号",121.500236544077,31.211707051581,2022-04-26
"黄浦区","上海市黄浦区瞿溪路560号",121.49304075762,31.2073605717956,2022-04-26
"黄浦区","上海市黄浦区瞿溪路800弄",121.487528036366,31.2059858277823,2022-04-26
"黄浦区","上海市黄浦区瞿溪路883弄",121.485768974517,31.2063427195683,2022-04-26
"黄浦区","上海市黄浦区瞿溪路937弄",121.484684090952,31.2063509816511,2022-04-26
"黄浦区","上海市黄浦区人民路1006弄",121.489181187996,31.2280059433515,2022-04-26
"黄浦区","上海市黄浦区瑞金二路132弄",121.472024361231,31.2165498511647,2022-04-26
"黄浦区","上海市黄浦区瑞金二路225弄",121.473528034824,31.213905849373,2022-04-26
"黄浦区","上海市黄浦区瑞金二路24号",121.469941280584,31.2241973092231,2022-04-26
"黄浦区","上海市黄浦区瑞金二路40弄",121.470828986089,31.2228431937821,2022-04-26
"黄浦区","上海市黄浦区瑞金二路450号",121.473527944993,31.2118459546198,2022-04-26
"黄浦区","上海市黄浦区瑞金二路456弄",121.473417183924,31.2114474668059,2022-04-26
"黄浦区","上海市黄浦区瑞金二路48弄",121.470007845022,31.221921087083,2022-04-26
"黄浦区","上海市黄浦区瑞金二路52弄",121.470646001256,31.2218631849024,2022-04-26
"黄浦区","上海市黄浦区瑞金二路70弄",121.470872104753,31.2213571183194,2022-04-26
"黄浦区","上海市黄浦区瑞金二路81号",121.471410728737,31.2219673315988,2022-04-26
"黄浦区","上海市黄浦区瑞金南路1号",121.474173108011,31.2107613627134,2022-04-26
"黄浦区","上海市黄浦区瑞金南路333弄",121.475677949401,31.2040478399445,2022-04-26
"黄浦区","上海市黄浦区桑园街38弄",121.504158366273,31.2190515663212,2022-04-26
"黄浦区","上海市黄浦区桑园街6弄",121.491585592524,31.2372471520636,2022-04-26
"黄浦区","上海市黄浦区山东北路83号",121.488310370635,31.2461642065547,2022-04-26
"黄浦区","上海市黄浦区山西南路239号",121.488861031913,31.2432328320135,2022-04-26
"黄浦区","上海市黄浦区山西南路294号",121.488162329887,31.2445738397904,2022-04-26
"黄浦区","上海市黄浦区山西南路9弄",121.491585592524,31.2372471520636,2022-04-26
"黄浦区","上海市黄浦区陕西南路271弄",121.469344985386,31.2142398570488,2022-04-26
"黄浦区","上海市黄浦区陕西南路287弄",121.468602895204,31.2136275859427,2022-04-26
"黄浦区","上海市黄浦区陕西南路39弄",121.464726257776,31.2253950751662,2022-04-26
"黄浦区","上海市黄浦区尚文路133弄",121.497992576913,31.2215084367606,2022-04-26
"黄浦区","上海市黄浦区尚文路149弄",121.497904932239,31.2213494751875,2022-04-26
"黄浦区","上海市黄浦区尚文路168号",121.49718185619,31.2212952012132,2022-04-26
"黄浦区","上海市黄浦区尚文路185号",121.49733995796,31.2214598759202,2022-04-26
"黄浦区","上海市黄浦区尚文路198号",121.497031929001,31.2208606994705,2022-04-26
"黄浦区","上海市黄浦区尚文路275弄",121.5217899475,31.2464960923493,2022-04-26
"黄浦区","上海市黄浦区绍兴路102弄",121.468610171479,31.2149898643951,2022-04-26
"黄浦区","上海市黄浦区绍兴路45号",121.468916044505,31.2144070148581,2022-04-26
"黄浦区","上海市黄浦区绍兴路96弄",121.468808427505,31.2153315118275,2022-04-26
"黄浦区","上海市黄浦区顺昌路501号",121.486043766172,31.218768299829,2022-04-26
"黄浦区","上海市黄浦区顺昌路504弄",121.485672137183,31.218513521385,2022-04-26
"黄浦区","上海市黄浦区顺昌路507弄",121.483782731204,31.2260687200981,2022-04-26
"黄浦区","上海市黄浦区思南路26弄",121.47224929693,31.2248943545103,2022-04-26
"黄浦区","上海市黄浦区思南路53号",121.474576986168,31.2204748342916,2022-04-26
"黄浦区","上海市黄浦区四川中路126弄",121.496402396499,31.2402469482272,2022-04-26
"黄浦区","上海市黄浦区四川中路611弄",121.492626279458,31.248081486818,2022-04-26
"黄浦区","上海市黄浦区四川中路629号",121.492675416769,31.2481168358455,2022-04-26
"黄浦区","上海市黄浦区四川中路668号",121.492685028638,31.2487115928061,2022-04-26
"黄浦区","上海市黄浦区四牌楼路123号",121.502098372077,31.2291256916703,2022-04-26
"黄浦区","上海市黄浦区泗泾路10号",121.494020988592,31.2394558474917,2022-04-26
"黄浦区","上海市黄浦区泗泾路15号",121.493824619008,31.2391717936875,2022-04-26
"黄浦区","上海市黄浦区泗泾路36号",121.492942033844,31.2392192646958,2022-04-26
"黄浦区","上海市黄浦区泗泾路8号",121.494050183522,31.2393601338062,2022-04-26
"黄浦区","上海市黄浦区泰康路328号",121.473786117997,31.2134772584901,2022-04-26
"黄浦区","上海市黄浦区天津路138弄",121.490158724052,31.2441655345202,2022-04-26
"黄浦区","上海市黄浦区天津路195弄",121.488944304833,31.2434405374235,2022-04-26
"黄浦区","上海市黄浦区天津路478弄",121.483546836177,31.2423470493228,2022-04-26
"黄浦区","上海市黄浦区天津路500号",121.48413100425,31.2421331665878,2022-04-26
"黄浦区","上海市黄浦区天柱山路17弄",121.500176986422,31.2168069511661,2022-04-26
"黄浦区","上海市黄浦区铁道路140号",121.493438437469,31.2058592706323,2022-04-26
"黄浦区","上海市黄浦区威海路151号",121.475331652627,31.2328740684169,2022-04-26
"黄浦区","上海市黄浦区威海路163号",121.474682267574,31.233481659219,2022-04-26
"黄浦区","上海市黄浦区威海路167号",121.474358697929,31.2334587327924,2022-04-26
"黄浦区","上海市黄浦区威海路176号",121.474527669195,31.2337819408544,2022-04-26
"黄浦区","上海市黄浦区文庙路103号",121.496327028667,31.2241666604187,2022-04-26
"黄浦区","上海市黄浦区文庙路105号",121.496301696452,31.2241512202111,2022-04-26
"黄浦区","上海市黄浦区文庙路124号",121.495837901317,31.223755718427,2022-04-26
"黄浦区","上海市黄浦区文庙路137号",121.495833769112,31.2238888906959,2022-04-26
"黄浦区","上海市黄浦区文庙路60弄",121.497072262918,31.2243469246531,2022-04-26
"黄浦区","上海市黄浦区五里桥路252号",121.48682762756,31.2094170134143,2022-04-26
"黄浦区","上海市黄浦区五里桥路269弄",121.48593902375,31.2095841026205,2022-04-26
"黄浦区","上海市黄浦区五里桥路345弄",121.488714121771,31.2096788415192,2022-04-26
"黄浦区","上海市黄浦区西仓桥街112弄",121.496291276108,31.2259735331128,2022-04-26
"黄浦区","上海市黄浦区西仓桥街162弄",121.495642430038,31.2256990111432,2022-04-26
"黄浦区","上海市黄浦区西仓桥街93号",121.49670252037,31.2263716502976,2022-04-26
"黄浦区","上海市黄浦区西藏南路1135弄",121.445046809477,31.2341991686219,2022-04-26
"黄浦区","上海市黄浦区西藏南路1200弄",121.490701031089,31.2139508624973,2022-04-26
"黄浦区","上海市黄浦区西藏南路1265号",121.494041380128,31.2143106578756,2022-04-26
"黄浦区","上海市黄浦区西藏南路1277弄",121.494160585269,31.2139548773889,2022-04-26
"黄浦区","上海市黄浦区西藏南路1335号",121.49451622442,31.2124574652698,2022-04-26
"黄浦区","上海市黄浦区西藏南路1341弄",121.494635788883,31.2116118499907,2022-04-26
"黄浦区","上海市黄浦区西藏南路1374弄",121.493515512082,31.2116939256578,2022-04-26
"黄浦区","上海市黄浦区西藏南路1421弄",121.495165609473,31.2104732067608,2022-04-26
"黄浦区","上海市黄浦区西藏南路1433弄",121.495532028291,31.2103589324505,2022-04-26
"黄浦区","上海市黄浦区西藏南路1501弄",121.495667852084,31.2087940552798,2022-04-26
"黄浦区","上海市黄浦区西藏南路1558弄",121.495110992498,31.2087378436826,2022-04-26
"黄浦区","上海市黄浦区西藏南路1739弄",121.498159482077,31.2045029595054,2022-04-26
"黄浦区","上海市黄浦区西藏南路311弄",121.488194579055,31.2291520930202,2022-04-26
"黄浦区","上海市黄浦区西藏南路381号",121.488391757114,31.2281262175465,2022-04-26
"黄浦区","上海市黄浦区西藏南路555弄",121.489053808275,31.2259346245362,2022-04-26
"黄浦区","上海市黄浦区西藏南路688弄",121.489576891574,31.2227312506368,2022-04-26
"黄浦区","上海市黄浦区西藏南路897号",121.492501774314,31.2189146041068,2022-04-26
"黄浦区","上海市黄浦区西藏中路200号",121.483820010882,31.2374298611814,2022-04-26
"黄浦区","上海市黄浦区西藏中路555号",121.479444095252,31.2423435759513,2022-04-26
"黄浦区","上海市黄浦区西凌家宅路111弄",121.493016593202,31.2103186275591,2022-04-26
"黄浦区","上海市黄浦区西凌家宅路27弄",121.493752125753,31.2105657842924,2022-04-26
"黄浦区","上海市黄浦区西姚家弄29号",121.503160887834,31.2281532367603,2022-04-26
"黄浦区","上海市黄浦区先棉祠街37号",121.497931581969,31.2232062746621,2022-04-26
"黄浦区","上海市黄浦区县左街14号",121.501638080334,31.2301107194437,2022-04-26
"黄浦区","上海市黄浦区县左街20弄",121.501370385292,31.229773603347,2022-04-26
"黄浦区","上海市黄浦区县左街24弄",121.501377571736,31.2296827431334,2022-04-26
"黄浦区","上海市黄浦区县左街32号",121.501298610682,31.230074128472,2022-04-26
"黄浦区","上海市黄浦区香山路36号",121.47164276105,31.2218820224157,2022-04-26
"黄浦区","上海市黄浦区小桃园街30弄",121.496136318407,31.2269871575933,2022-04-26
"黄浦区","上海市黄浦区斜土东路158弄",121.495445790962,31.2135645055772,2022-04-26
"黄浦区","上海市黄浦区斜土东路350号",121.491508338251,31.2124755325692,2022-04-26
"黄浦区","上海市黄浦区斜土东路68弄",121.497270968097,31.2140800338297,2022-04-26
"黄浦区","上海市黄浦区斜土路118弄",121.489370999951,31.2115998822251,2022-04-26
"黄浦区","上海市黄浦区斜土路145弄",121.488508267339,31.2122581070598,2022-04-26
"黄浦区","上海市黄浦区斜土路195弄",121.488632592821,31.2120941882756,2022-04-26
"黄浦区","上海市黄浦区斜土路251弄",121.487102598877,31.2113163615509,2022-04-26
"黄浦区","上海市黄浦区斜土路262弄",121.487484738041,31.2107963397823,2022-04-26
"黄浦区","上海市黄浦区斜土路298弄",121.486648505442,31.2107846035487,2022-04-26
"黄浦区","上海市黄浦区斜土路330弄",121.485718399917,31.2101785640661,2022-04-26
"黄浦区","上海市黄浦区斜土路360弄",121.462399736336,31.2012134470105,2022-04-26
"黄浦区","上海市黄浦区斜土路435弄",121.483547285329,31.2098958884291,2022-04-26
"黄浦区","上海市黄浦区斜土路486弄",121.483998234695,31.2084093757901,2022-04-26
"黄浦区","上海市黄浦区斜土路501弄",121.48315930718,31.2097055586818,2022-04-26
"黄浦区","上海市黄浦区斜土路520号",121.483011356262,31.209060442198,2022-04-26
"黄浦区","上海市黄浦区斜土路550弄",121.483031388475,31.2088232420574,2022-04-26
"黄浦区","上海市黄浦区斜土路556弄",121.482356042393,31.2088778321169,2022-04-26
"黄浦区","上海市黄浦区斜土路645号",121.480752207735,31.2089162072882,2022-04-26
"黄浦区","上海市黄浦区斜土路80弄",121.490479149628,31.2107099394492,2022-04-26
"黄浦区","上海市黄浦区斜土路810弄",121.476500976909,31.2070910142224,2022-04-26
"黄浦区","上海市黄浦区斜土支路5号",121.49068333447,31.211769901564,2022-04-26
"黄浦区","上海市黄浦区新昌路310弄",121.474665109938,31.2421756961782,2022-04-26
"黄浦区","上海市黄浦区新昌路328弄",121.474649209931,31.2424730168396,2022-04-26
"黄浦区","上海市黄浦区新昌路61弄",121.475617852762,31.2383389244356,2022-04-26
"黄浦区","上海市黄浦区新闸路274号",121.474435997118,31.245219811363,2022-04-26
"黄浦区","上海市黄浦区徐家汇路101号",121.487160000599,31.2157462739953,2022-04-26
"黄浦区","上海市黄浦区徐家汇路1弄",121.488376665582,31.2165762560622,2022-04-26
"黄浦区","上海市黄浦区徐家汇路396号",121.480366834671,31.2152804771151,2022-04-26
"黄浦区","上海市黄浦区徐家汇路518号",121.477714318161,31.213510767558,2022-04-26
"黄浦区","上海市黄浦区徐家汇路536弄",121.477049841576,31.2132213847057,2022-04-26
"黄浦区","上海市黄浦区徐家汇路77弄",121.487248843014,31.2162780038186,2022-04-26
"黄浦区","上海市黄浦区薛家浜路236号",121.508702624356,31.2165631308217,2022-04-26
"黄浦区","上海市黄浦区薛家浜路242弄",121.508629322626,31.2162139987478,2022-04-26
"黄浦区","上海市黄浦区学前街100号",121.495914616607,31.2218458914442,2022-04-26
"黄浦区","上海市黄浦区学西街39弄",121.493347304375,31.2232647164243,2022-04-26
"黄浦区","上海市黄浦区学院路127号",121.501305258142,31.2290481087132,2022-04-26
"黄浦区","上海市黄浦区学院路137号",121.501065410571,31.2290059591393,2022-04-26
"黄浦区","上海市黄浦区巡道街14号",121.504073386571,31.226470928432,2022-04-26
"黄浦区","上海市黄浦区巡道街21号",121.504169954414,31.2263027113756,2022-04-26
"黄浦区","上海市黄浦区巡道街37弄",121.504213881553,31.2259766210944,2022-04-26
"黄浦区","上海市黄浦区巡道街49号",121.504146149318,31.2258863747907,2022-04-26
"黄浦区","上海市黄浦区巡道街53弄",121.504287812097,31.2257333650333,2022-04-26
"黄浦区","上海市黄浦区延安东路1256弄",121.478339808288,31.231823222667,2022-04-26
"黄浦区","上海市黄浦区延安东路1292弄",121.478033306448,31.2317579931103,2022-04-26
"黄浦区","上海市黄浦区延安东路1310弄",121.430256478747,31.2301944772047,2022-04-26
"黄浦区","上海市黄浦区永年路118号",121.485738881282,31.2181042531057,2022-04-26
"黄浦区","上海市黄浦区永年路126号",121.485615004952,31.2180808596752,2022-04-26
"黄浦区","上海市黄浦区永年路128号",121.485567125269,31.2180581610934,2022-04-26
"黄浦区","上海市黄浦区永年路44弄",121.487332071019,31.218247392979,2022-04-26
"黄浦区","上海市黄浦区永年路84号",121.486623891871,31.2183235951847,2022-04-26
"黄浦区","上海市黄浦区云南南路297号",121.48894367602,31.2314168688063,2022-04-26
"黄浦区","上海市黄浦区肇嘉浜路18号",121.472288732542,31.2111864142883,2022-04-26
"黄浦区","上海市黄浦区肇嘉浜路18弄",121.472868858241,31.2115529376847,2022-04-26
"黄浦区","上海市黄浦区肇周路179号",121.487564777062,31.2219796840533,2022-04-26
"黄浦区","上海市黄浦区肇周路354号",121.487869482291,31.218845659692,2022-04-26
"黄浦区","上海市黄浦区肇周路384弄",121.48784810262,31.218581925605,2022-04-26
"黄浦区","上海市黄浦区浙江中路118弄",121.486697642753,31.2378334100933,2022-04-26
"黄浦区","上海市黄浦区浙江中路128弄",121.486610237627,31.237968878016,2022-04-26
"黄浦区","上海市黄浦区浙江中路137弄",121.48637928328,31.2380436747508,2022-04-26
"黄浦区","上海市黄浦区浙江中路159号",121.486020050907,31.2382680645963,2022-04-26
"黄浦区","上海市黄浦区浙江中路167弄",121.486008642427,31.23837381401,2022-04-26
"黄浦区","上海市黄浦区浙江中路419号",121.484169631387,31.2423411059982,2022-04-26
"黄浦区","上海市黄浦区浙江中路535号",121.483135052931,31.2439505753583,2022-04-26
"黄浦区","上海市黄浦区制造局路208弄",121.490336768204,31.2139303247794,2022-04-26
"黄浦区","上海市黄浦区制造局路361号",121.491774236681,31.2121371175751,2022-04-26
"黄浦区","上海市黄浦区制造局路370弄",121.490967743528,31.2121753784511,2022-04-26
"黄浦区","上海市黄浦区制造局路455弄",121.491010407506,31.210925129407,2022-04-26
"黄浦区","上海市黄浦区制造局路833弄19号",121.493089355948,31.2048699723624,2022-04-26
"黄浦区","上海市黄浦区中华路1022号",121.497282107085,31.2202435305927,2022-04-26
"黄浦区","上海市黄浦区中华路1141弄",121.495266399351,31.2208021790035,2022-04-26
"黄浦区","上海市黄浦区中华路1148弄",121.49465968381,31.220816693318,2022-04-26
"黄浦区","上海市黄浦区中华路1209号",121.494550719352,31.2212570627259,2022-04-26
"黄浦区","上海市黄浦区中华路1299弄",121.497128807935,31.2185663181058,2022-04-26
"黄浦区","上海市黄浦区中华路1349弄",121.522976339587,31.1878111189923,2022-04-26
"黄浦区","上海市黄浦区中华路343号",121.505221510844,31.2254889503409,2022-04-26
"黄浦区","上海市黄浦区中华路367号",121.505105719263,31.2251215551029,2022-04-26
"黄浦区","上海市黄浦区中华路88弄",121.505198604053,31.2289699853122,2022-04-26
"黄浦区","上海市黄浦区中华路989号",121.497596514014,31.2203453629658,2022-04-26
"黄浦区","上海市黄浦区中华路999号",121.497145654478,31.2205095761196,2022-04-26
"黄浦区","上海市黄浦区中山南路1358弄",121.506243782514,31.2161680602201,2022-04-26
"黄浦区","上海市黄浦区中山南路1671号",121.501166559772,31.2101342440417,2022-04-26
"黄浦区","上海市黄浦区中山南路1711弄",121.500289544102,31.2096550613938,2022-04-26
"黄浦区","上海市黄浦区中山南路1726弄",121.49944953862,31.2099897019351,2022-04-26
"黄浦区","上海市黄浦区中山南路1887弄",121.499093540146,31.2077535947672,2022-04-26
"黄浦区","上海市黄浦区中山南路398弄",121.510184109803,31.2265577002144,2022-04-26
"黄浦区","上海市黄浦区中山南路566弄",121.510427999749,31.2238658847175,2022-04-26
"黄浦区","上海市黄浦区中山南路609号",121.512491946489,31.2229914217408,2022-04-26
"黄浦区","上海市黄浦区中山南路943号",121.51304970438,31.2174786505405,2022-04-26
"黄浦区","上海市黄浦区中山南一路1012弄",121.479479847811,31.2013122112861,2022-04-26
"黄浦区","上海市黄浦区中山南一路1022号",121.478868910233,31.2013247209055,2022-04-26
"黄浦区","上海市黄浦区中山南一路1040号",121.477673714752,31.2009152230538,2022-04-26
"黄浦区","上海市黄浦区中山南一路1065号",121.479004105213,31.201882323908,2022-04-26
"黄浦区","上海市黄浦区中山南一路1079号",121.47797815049,31.2015294305501,2022-04-26
"黄浦区","上海市黄浦区中山南一路1109弄",121.476887877092,31.2014854153116,2022-04-26
"黄浦区","上海市黄浦区中山南一路247弄",121.492960718599,31.2063049610685,2022-04-26
"黄浦区","上海市黄浦区中山南一路250号",121.493708557936,31.2061130797045,2022-04-26
"黄浦区","上海市黄浦区中山南一路721弄",121.486676891896,31.2043621151406,2022-04-26
"黄浦区","上海市黄浦区昼锦路180弄",121.497240695201,31.2287029602704,2022-04-26
"黄浦区","上海市黄浦区自忠路349号",121.48082964167,31.2240916981873,2022-04-26
"黄浦区","上海市黄浦区自忠路359号",121.480415971983,31.224044837112,2022-04-26
"静安区","上海市静安区安远路515弄",121.446483918632,31.2438676789462,2022-04-26
"静安区","上海市静安区宝昌路220号",121.483144485139,31.2622552206151,2022-04-26
"静安区","上海市静安区宝昌路222号",121.483135430219,31.2622659780561,2022-04-26
"静安区","上海市静安区宝昌路520弄",121.478231382813,31.2667568776817,2022-04-26
"静安区","上海市静安区宝昌路632弄",121.477998542025,31.2676679707548,2022-04-26
"静安区","上海市静安区宝昌路731弄",121.477102302618,31.270603131672,2022-04-26
"静安区","上海市静安区宝昌路788弄",121.47551643407,31.2707422559178,2022-04-26
"静安区","上海市静安区宝山路403弄",121.484067134728,31.262179671551,2022-04-26
"静安区","上海市静安区宝山路450弄",121.483685175225,31.2630114024184,2022-04-26
"静安区","上海市静安区宝山路499弄",121.484717238426,31.2636615487347,2022-04-26
"静安区","上海市静安区宝山路591号",121.485029938574,31.2651953359365,2022-04-26
"静安区","上海市静安区宝通路214弄",121.484329709429,31.2623212005957,2022-04-26
"静安区","上海市静安区宝通路239弄",121.484591206163,31.2625356545031,2022-04-26
"静安区","上海市静安区宝通路416弄",121.485531642201,31.2599418790294,2022-04-26
"静安区","上海市静安区宝源路209弄",121.486628203737,31.2623012908521,2022-04-26
"静安区","上海市静安区保德路448弄",121.464945174829,31.3236556212729,2022-04-26
"静安区","上海市静安区保德路681弄",121.459869658867,31.3222211225634,2022-04-26
"静安区","上海市静安区昌化路325号",121.458256841154,31.2436189892691,2022-04-26
"静安区","上海市静安区昌化路410弄",121.457513583175,31.2447879484955,2022-04-26
"静安区","上海市静安区昌化路509弄",121.455774284047,31.2459058750988,2022-04-26
"静安区","上海市静安区昌平路428弄",121.452770709744,31.2424690031714,2022-04-26
"静安区","上海市静安区昌平路88弄",121.458702310857,31.2451041708738,2022-04-26
"静安区","上海市静安区昌平路923弄",121.445470809678,31.2393536499724,2022-04-26
"静安区","上海市静安区常德路519弄",121.452539396075,31.2361806856393,2022-04-26
"静安区","上海市静安区常德路619号",121.451313658207,31.2374852836485,2022-04-26
"静安区","上海市静安区长安路1001号",121.458639968454,31.2513428800156,2022-04-26
"静安区","上海市静安区长安路490号",121.46341769614,31.2461940763245,2022-04-26
"静安区","上海市静安区长乐路650号",121.46061201854,31.2251098978654,2022-04-26
"静安区","上海市静安区长乐路682弄",121.45939146217,31.2247195476741,2022-04-26
"静安区","上海市静安区长乐路888号",121.453166413321,31.222185429383,2022-04-26
"静安区","上海市静安区长临路380弄",121.443140605185,31.3245933817358,2022-04-26
"静安区","上海市静安区长兴路168弄",121.468134428881,31.2562051600395,2022-04-26
"静安区","上海市静安区场中路2251弄",121.453224264196,31.3126499580522,2022-04-26
"静安区","上海市静安区场中路2600弄",121.448262024559,31.3102327367817,2022-04-26
"静安区","上海市静安区场中路2601弄",121.446657650918,31.3116716620059,2022-04-26
"静安区","上海市静安区场中路2965弄",121.444069902235,31.3111289053508,2022-04-26
"静安区","上海市静安区场中路3123弄",121.43768789074,31.3120195120596,2022-04-26
"静安区","上海市静安区场中路3220弄",121.441543148497,31.3095326256096,2022-04-26
"静安区","上海市静安区场中路3332弄",121.437450378763,31.309717044519,2022-04-26
"静安区","上海市静安区大沽路368弄",121.471945040854,31.2317828498225,2022-04-26
"静安区","上海市静安区大沽路489弄",121.471672225471,31.2310590690655,2022-04-26
"静安区","上海市静安区大宁路540弄",121.457282000015,31.2778189544011,2022-04-26
"静安区","上海市静安区大统路1033弄",121.466110007584,31.2627958692347,2022-04-26
"静安区","上海市静安区大统路159弄",121.471078984512,31.2495877448835,2022-04-26
"静安区","上海市静安区大统路555号",121.466819040123,31.2540648526096,2022-04-26
"静安区","上海市静安区大统路933弄",121.466221397467,31.2615230326281,2022-04-26
"静安区","上海市静安区大统路988号",121.465722298925,31.2618301695185,2022-04-26
"静安区","上海市静安区汾西路261弄",121.468333673043,31.3194685136896,2022-04-26
"静安区","上海市静安区汾西路681号",121.460165650532,31.3195282063388,2022-04-26
"静安区","上海市静安区汾西路700弄",121.459768779158,31.319915205042,2022-04-26
"静安区","上海市静安区汾西路815弄",121.457240049148,31.3195925262824,2022-04-26
"静安区","上海市静安区汾西路850号",121.457003435476,31.3204568308607,2022-04-26
"静安区","上海市静安区汾西路885弄",121.45590040614,31.3192083797733,2022-04-26
"静安区","上海市静安区奉贤路290弄",121.460969454303,31.2355478707032,2022-04-26
"静安区","上海市静安区富民路197弄",121.457794932461,31.2253611071521,2022-04-26
"静安区","上海市静安区高平路458弄",121.434777021565,31.2923798420202,2022-04-26
"静安区","上海市静安区高平路539号",121.434122785662,31.2929404509286,2022-04-26
"静安区","上海市静安区高平路811号",121.433946088968,31.2975763963068,2022-04-26
"静安区","上海市静安区公兴路203号",121.480433938093,31.2610770649796,2022-04-26
"静安区","上海市静安区公兴路220弄",121.480226968503,31.2610461967472,2022-04-26
"静安区","上海市静安区公兴路39弄",121.482291544057,31.2591144424855,2022-04-26
"静安区","上海市静安区共和新路1207号",121.468106671241,31.2687055272643,2022-04-26
"静安区","上海市静安区共和新路1700弄",121.462315026126,31.274841119709,2022-04-26
"静安区","上海市静安区共和新路2999弄",121.461149564557,31.2944510772998,2022-04-26
"静安区","上海市静安区共和新路318弄",121.468953144523,31.2545115483017,2022-04-26
"静安区","上海市静安区共和新路3795弄",121.455640077204,31.3126371548116,2022-04-26
"静安区","上海市静安区共和新路4555弄",121.455785727678,31.3225278377719,2022-04-26
"静安区","上海市静安区共和新路4699弄",121.455022312504,31.3235762659455,2022-04-26
"静安区","上海市静安区共和新路555弄",121.470609979205,31.2589239041575,2022-04-26
"静安区","上海市静安区共和新路635弄",121.462016788697,31.2747511520386,2022-04-26
"静安区","上海市静安区共和新路710弄",121.468637300305,31.2615052834805,2022-04-26
"静安区","上海市静安区共和新路736弄",121.46920377176,31.262594071693,2022-04-26
"静安区","上海市静安区共和新路802弄",121.469784975425,31.2630487521927,2022-04-26
"静安区","上海市静安区共和新路970弄",121.468642061325,31.2657220775345,2022-04-26
"静安区","上海市静安区光复路271号",121.473963982488,31.2467623719608,2022-04-26
"静安区","上海市静安区广延路42弄",121.462818256873,31.2784781792603,2022-04-26
"静安区","上海市静安区广中西路911弄",121.44401519543,31.2844453259055,2022-04-26
"静安区","上海市静安区国庆路3弄",121.453431772769,31.2338449304017,2022-04-26
"静安区","上海市静安区海防路100弄",121.456160375755,31.2473811411033,2022-04-26
"静安区","上海市静安区海防路338弄",121.453221030296,31.2450848749331,2022-04-26
"静安区","上海市静安区海防路377号",121.453234594709,31.2448977812856,2022-04-26
"静安区","上海市静安区海宁路1388号",121.475167262719,31.2508099602288,2022-04-26
"静安区","上海市静安区汉中路28弄",121.453431772769,31.2338449304017,2022-04-26
"静安区","上海市静安区汉中路48号",121.466014068555,31.2495362657734,2022-04-26
"静安区","上海市静安区汉中路58号",121.465923699021,31.2494737498744,2022-04-26
"静安区","上海市静安区汉中路68号",121.465859470177,31.2494198009353,2022-04-26
"静安区","上海市静安区河南北路485号",121.48604996448,31.255308001116,2022-04-26
"静安区","上海市静安区鸿兴路186号",121.480936270534,31.2621754272197,2022-04-26
"静安区","上海市静安区沪太路1170弄",121.433927224553,31.2833302520144,2022-04-26
"静安区","上海市静安区沪太路365号",121.458436951409,31.2620893058383,2022-04-26
"静安区","上海市静安区沪太路453弄",121.463284567263,31.2634062752071,2022-04-26
"静安区","上海市静安区沪太路555弄",121.457268435602,31.2638327081641,2022-04-26
"静安区","上海市静安区沪太路631弄",121.456626326823,31.2673061427831,2022-04-26
"静安区","上海市静安区沪太路651弄",121.455284797375,31.2674438057978,2022-04-26
"静安区","上海市静安区沪太路655弄",121.470448014722,31.261024897661,2022-04-26
"静安区","上海市静安区沪太路941弄",121.437299732929,31.2801932685761,2022-04-26
"静安区","上海市静安区华山路241弄",121.452443636708,31.2262555426102,2022-04-26
"静安区","上海市静安区淮安路687弄",121.458216686898,31.2455075323067,2022-04-26
"静安区","上海市静安区淮安路801号",121.456320004644,31.2453183555482,2022-04-26
"静安区","上海市静安区黄山路250号",121.474942237188,31.27223873512,2022-04-26
"静安区","上海市静安区黄山路280弄",121.474549498019,31.272077159114,2022-04-26
"静安区","上海市静安区会文路136弄",121.478405743913,31.2594747587397,2022-04-26
"静安区","上海市静安区江杨南路466弄",121.474431550506,31.3227213988794,2022-04-26
"静安区","上海市静安区交城路229弄",121.436722391977,31.3001965879157,2022-04-26
"静安区","上海市静安区胶州路274弄",121.450371605218,31.2347273971483,2022-04-26
"静安区","上海市静安区胶州路707弄",121.44578584542,31.2421046848731,2022-04-26
"静安区","上海市静安区晋元路310弄",121.475764007069,31.2510358630206,2022-04-26
"静安区","上海市静安区京江路201号",121.470675735169,31.2547907706132,2022-04-26
"静安区","上海市静安区景凤路403弄",121.465456041172,31.325365021963,2022-04-26
"静安区","上海市静安区巨鹿路758号",121.458067119031,31.2267411249984,2022-04-26
"静安区","上海市静安区康定路1299弄",121.439622661147,31.235966711612,2022-04-26
"静安区","上海市静安区康定路418弄",121.454561302117,31.2416075270411,2022-04-26
"静安区","上海市静安区康定路445弄",121.454444252909,31.240236373503,2022-04-26
"静安区","上海市静安区康定路950弄",121.444599992317,31.23824151144,2022-04-26
"静安区","上海市静安区康乐路203弄",121.482531481459,31.2548831499505,2022-04-26
"静安区","上海市静安区老沪太路228号",121.458421770046,31.2739361150684,2022-04-26
"静安区","上海市静安区老沪太路255弄",121.458134222452,31.2736461475354,2022-04-26
"静安区","上海市静安区临汾路1105弄",121.449961169431,31.3165134484152,2022-04-26
"静安区","上海市静安区临汾路1244弄",121.448814302786,31.3175443693117,2022-04-26
"静安区","上海市静安区临汾路135弄",121.471250111712,31.3162716619959,2022-04-26
"静安区","上海市静安区临汾路1565弄",121.443824036017,31.315901461479,2022-04-26
"静安区","上海市静安区临汾路380弄",121.468559956201,31.3181868863255,2022-04-26
"静安区","上海市静安区临汾路620弄",121.46147609861,31.3177640950496,2022-04-26
"静安区","上海市静安区临汾路808弄",121.458003968153,31.3178758472533,2022-04-26
"静安区","上海市静安区临汾路850弄",121.456961394778,31.3174878374745,2022-04-26
"静安区","上海市静安区临汾路894弄",121.456228287652,31.3171978509763,2022-04-26
"静安区","上海市静安区临汾路971弄",121.45414439853,31.3168023572985,2022-04-26
"静安区","上海市静安区临山路176号",121.480386327901,31.2607752504006,2022-04-26
"静安区","上海市静安区临山路203弄",121.479793715756,31.261272923676,2022-04-26
"静安区","上海市静安区临山路204号",121.479982270083,31.2605725996148,2022-04-26
"静安区","上海市静安区临山路206弄",121.479566713954,31.2603648550933,2022-04-26
"静安区","上海市静安区临山路20号",121.482783276493,31.261997859661,2022-04-26
"静安区","上海市静安区灵石路1123弄",121.43409628565,31.2800337123583,2022-04-26
"静安区","上海市静安区灵石路1201弄",121.43196227108,31.2796444650255,2022-04-26
"静安区","上海市静安区灵石路735弄",121.445295280781,31.2925987012998,2022-04-26
"静安区","上海市静安区灵石路737弄",121.445329775713,31.2904458041579,2022-04-26
"静安区","上海市静安区灵石路739弄",121.443896978425,31.2922912027088,2022-04-26
"静安区","上海市静安区岭南路100弄",121.462500616045,31.313743548841,2022-04-26
"静安区","上海市静安区柳营路309弄",121.470841113213,31.2743156640793,2022-04-26
"静安区","上海市静安区柳营路319弄",121.469876782248,31.273721070047,2022-04-26
"静安区","上海市静安区柳营路328弄",121.470558865622,31.2736562555193,2022-04-26
"静安区","上海市静安区柳营路463弄",121.468689132533,31.2729742342095,2022-04-26
"静安区","上海市静安区柳营路515弄",121.466967350362,31.2723324089515,2022-04-26
"静安区","上海市静安区柳营路650弄",121.463536092806,31.2704356112986,2022-04-26
"静安区","上海市静安区柳营路669弄",121.463705064072,31.2710040682045,2022-04-26
"静安区","上海市静安区柳营路768弄",121.462331375286,31.2693247684631,2022-04-26
"静安区","上海市静安区陆丰路116号",121.480947499353,31.2635353782603,2022-04-26
"静安区","上海市静安区洛川东路140弄",121.471408303312,31.2778273644854,2022-04-26
"静安区","上海市静安区洛川东路200弄",121.471183906596,31.2770396680768,2022-04-26
"静安区","上海市静安区洛川东路300号",121.469472185446,31.2767835052116,2022-04-26
"静安区","上海市静安区洛川东路352弄",121.468762793585,31.275904907541,2022-04-26
"静安区","上海市静安区洛川东路400弄",121.467110630091,31.2749563183235,2022-04-26
"静安区","上海市静安区洛川东路99号",121.471574938984,31.2782323592986,2022-04-26
"静安区","上海市静安区洛川中路1100弄",121.456053477399,31.2707076099104,2022-04-26
"静安区","上海市静安区洛川中路777弄",121.458020137652,31.2719900437589,2022-04-26
"静安区","上海市静安区洛川中路970号",121.456626506484,31.2710421092449,2022-04-26
"静安区","上海市静安区洛川中路990号",121.456420165709,31.2709501316926,2022-04-26
"静安区","上海市静安区毛家弄26号",121.459304355209,31.2626624436814,2022-04-26
"静安区","上海市静安区毛家弄4号",121.461019759411,31.2648154412005,2022-04-26
"静安区","上海市静安区茂名北路111弄",121.46681203334,31.2317099007572,2022-04-26
"静安区","上海市静安区茂名北路112弄",121.467185638601,31.2320513327709,2022-04-26
"静安区","上海市静安区茂名北路149号",121.466453070458,31.2325232217214,2022-04-26
"静安区","上海市静安区茂名北路73弄",121.444311726078,31.2079593713626,2022-04-26
"静安区","上海市静安区茂名北路93号",121.466311407679,31.2314462029207,2022-04-26
"静安区","上海市静安区民和路137号",121.475032337231,31.2747013842934,2022-04-26
"静安区","上海市静安区民立路289弄",121.463881311613,31.2491928137134,2022-04-26
"静安区","上海市静安区秣陵路303号",121.461082461136,31.2542202856651,2022-04-26
"静安区","上海市静安区南京西路1025弄",121.464349957598,31.233589884228,2022-04-26
"静安区","上海市静安区南京西路1081号",121.463445274119,31.234429357132,2022-04-26
"静安区","上海市静安区南山路10弄",121.473537646693,31.2630127142909,2022-04-26
"静安区","上海市静安区南山路151弄",121.470529131709,31.2632772491442,2022-04-26
"静安区","上海市静安区南山路71弄",121.472567925895,31.2628968835957,2022-04-26
"静安区","上海市静安区南山路7弄",121.453431772769,31.2338449304017,2022-04-26
"静安区","上海市静安区南山路88弄",121.47413223511,31.2625625094377,2022-04-26
"静安区","上海市静安区南苏州路1455号",121.467595445575,31.2463262904621,2022-04-26
"静安区","上海市静安区南阳路30弄",121.459582021443,31.2351628380033,2022-04-26
"静安区","上海市静安区彭浦新村321号",121.459099451723,31.3152290810315,2022-04-26
"静安区","上海市静安区平陆路312弄",121.453361255786,31.2912022206262,2022-04-26
"静安区","上海市静安区平陆路999弄",121.455802041687,31.316900845253,2022-04-26
"静安区","上海市静安区平顺路180弄",121.459391221352,31.3190394812892,2022-04-26
"静安区","上海市静安区平顺路373弄",121.457856017236,31.3198931481642,2022-04-26
"静安区","上海市静安区平顺路825弄",121.458954555044,31.3241631390235,2022-04-26
"静安区","上海市静安区平顺路834弄",121.460184425118,31.3241635246156,2022-04-26
"静安区","上海市静安区平顺路921号",121.461177771351,31.3249937007841,2022-04-26
"静安区","上海市静安区平型关路1083弄",121.465343303831,31.2894690496638,2022-04-26
"静安区","上海市静安区平型关路121弄",121.458320620845,31.2660382291011,2022-04-26
"静安区","上海市静安区平型关路1288弄",121.462856704349,31.2928325260682,2022-04-26
"静安区","上海市静安区平型关路2199弄",121.47022766038,31.3090307359159,2022-04-26
"静安区","上海市静安区普善路铁路新村1号",121.459744524909,31.2627410791231,2022-04-26
"静安区","上海市静安区普善路铁路新村3号",121.459744524909,31.2627410791231,2022-04-26
"静安区","上海市静安区普善路铁路新村61号",121.459744524909,31.2627410791231,2022-04-26
"静安区","上海市静安区七浦路208号",121.487924099266,31.2515977234221,2022-04-26
"静安区","上海市静安区青云路315弄",121.479427835922,31.2700785009969,2022-04-26
"静安区","上海市静安区青云路435弄",121.476988487309,31.2693536277036,2022-04-26
"静安区","上海市静安区青云路480弄",121.47679454315,31.267901780791,2022-04-26
"静安区","上海市静安区青云路483弄",121.476371620916,31.2687305284838,2022-04-26
"静安区","上海市静安区青云路570弄",121.471554188127,31.2673255113025,2022-04-26
"静安区","上海市静安区青云路590弄",121.475717474843,31.2677894285827,2022-04-26
"静安区","上海市静安区青云路650弄",121.473574028066,31.2671281219807,2022-04-26
