"district","address","lng","lat","date"
"浦东新区","上海市浦东新区北蔡镇中界村秦家宅",121.57417373500905,31.19544617406339,"2022-05-10"
"浦东新区","上海市浦东新区北新园路350弄",121.63335446132862,31.32701601446308,"2022-05-10"
"浦东新区","上海市浦东新区博山东路173弄",121.57241332570116,31.257892721582024,"2022-05-10"
"浦东新区","上海市浦东新区曹路镇建新村周家宅",121.6826391846586,31.30114306940128,"2022-05-10"
"浦东新区","上海市浦东新区曹路镇前锋村陆家宅",121.70483855957393,31.276629575682062,"2022-05-10"
"浦东新区","上海市浦东新区长岛路1267弄",121.60152282592145,31.268319782291993,"2022-05-10"
"浦东新区","上海市浦东新区成山路668弄",121.51947303792888,31.175870831284065,"2022-05-10"
"浦东新区","上海市浦东新区川沙新镇界龙村大顾家宅",121.6907189935681,31.18101670674418,"2022-05-10"
"浦东新区","上海市浦东新区德平路155弄",121.56795404731908,31.25660183659443,"2022-05-10"
"浦东新区","上海市浦东新区德州路300弄",121.53688426481492,31.18970225553777,"2022-05-10"
"浦东新区","上海市浦东新区丁香路910弄",121.56039202170554,31.231240477950827,"2022-05-10"
"浦东新区","上海市浦东新区东波路49弄",121.58337804275595,31.290723839031642,"2022-05-10"
"浦东新区","上海市浦东新区渡桥路78弄",121.58485970786411,31.120077939878794,"2022-05-10"
"浦东新区","上海市浦东新区芳草路352弄",121.5616260239846,31.199214895930286,"2022-05-10"
"浦东新区","上海市浦东新区芳华路229弄",121.56081054224263,31.202551968217783,"2022-05-10"
"浦东新区","上海市浦东新区芳华路411弄",121.56557030381781,31.202399460853744,"2022-05-10"
"浦东新区","上海市浦东新区芳华路63号",121.55817159014597,31.20073105268403,"2022-05-10"
"浦东新区","上海市浦东新区高东镇珊黄村苍头宅",121.6465324234989,31.336547689860097,"2022-05-10"
"浦东新区","上海市浦东新区高攀路149弄",121.54084704974164,31.36825981525934,"2022-05-10"
"浦东新区","上海市浦东新区高桥镇陆凌村陆家宅",121.56901180205708,31.3526591303629,"2022-05-10"
"浦东新区","上海市浦东新区高桥镇陆凌村宋家宅",121.57010962122082,31.352399705849844,"2022-05-10"
"浦东新区","上海市浦东新区高桥镇陆凌村西凌家宅",121.58173863520024,31.35356684063773,"2022-05-10"
"浦东新区","上海市浦东新区高桥镇南塘村顾家宅",121.5746809183,31.34539427690696,"2022-05-10"
"浦东新区","上海市浦东新区高桥镇新益村严家江中",121.53803715010642,31.364108552655427,"2022-05-10"
"浦东新区","上海市浦东新区龚路支路473弄",121.69548118056815,31.26946975904926,"2022-05-10"
"浦东新区","上海市浦东新区拱乐路698弄",121.77709385309956,31.06964198907137,"2022-05-10"
"浦东新区","上海市浦东新区海纳路129弄",121.67672465135036,31.298365076552425,"2022-05-10"
"浦东新区","上海市浦东新区海鹏路301弄",121.68073091426376,31.295363983048894,"2022-05-10"
"浦东新区","上海市浦东新区航定路568弄",121.59669164905823,31.032990409747207,"2022-05-10"
"浦东新区","上海市浦东新区航瑞路389弄",121.5977688970258,31.08069247068563,"2022-05-10"
"浦东新区","上海市浦东新区航头镇航东村航头",121.59936788083355,31.036557643001977,"2022-05-10"
"浦东新区","上海市浦东新区航头镇鹤东村沿江",121.60803796629367,31.060273364197414,"2022-05-10"
"浦东新区","上海市浦东新区和龙路55弄",121.57975787174837,31.344955201239863,"2022-05-10"
"浦东新区","上海市浦东新区鹤永路751弄",121.61042602166138,31.07756872557462,"2022-05-10"
"浦东新区","上海市浦东新区沪东路67号",121.58681675624815,31.277393434011163,"2022-05-10"
"浦东新区","上海市浦东新区花山路1001弄",121.588490748566,31.3561458336138,"2022-05-10"
"浦东新区","上海市浦东新区环桥路1137弄",121.58485970786411,31.120077939878794,"2022-05-10"
"浦东新区","上海市浦东新区金桥路226弄",121.62178482534341,31.26066381567406,"2022-05-10"
"浦东新区","上海市浦东新区金桥路2552弄",121.60918438378549,31.23991303336551,"2022-05-10"
"浦东新区","上海市浦东新区金湘路201弄",121.61976462608202,31.261871069580963,"2022-05-10"
"浦东新区","上海市浦东新区金杨路750弄",121.58977218137598,31.258610198044636,"2022-05-10"
"浦东新区","上海市浦东新区锦绣路2868弄",121.54372036974584,31.191802564037758,"2022-05-10"
"浦东新区","上海市浦东新区巨峰路176弄",121.60320166908903,31.285412489153977,"2022-05-10"
"浦东新区","上海市浦东新区康弘路428弄",121.58485970786411,31.120077939878794,"2022-05-10"
"浦东新区","上海市浦东新区崂山四村",121.52454199626058,31.24117281086977,"2022-05-10"
"浦东新区","上海市浦东新区莲中路356弄",121.56492999165029,31.185761076768486,"2022-05-10"
"浦东新区","上海市浦东新区林德路718弄",121.51775682525206,31.134869848898855,"2022-05-10"
"浦东新区","上海市浦东新区柳杉路99弄",121.57639722080737,31.230508819026944,"2022-05-10"
"浦东新区","上海市浦东新区龙东大道415弄",121.58848338246081,31.22501347469951,"2022-05-10"
"浦东新区","上海市浦东新区龙居路180弄",121.56897173763133,31.258551238155807,"2022-05-10"
"浦东新区","上海市浦东新区牡丹路89弄",121.55029884065652,31.21322987781171,"2022-05-10"
"浦东新区","上海市浦东新区南泉北路301弄",121.5231992990148,31.239984741026475,"2022-05-10"
"浦东新区","上海市浦东新区浦东大道2515号",121.56712643845273,31.265071251049392,"2022-05-10"
"浦东新区","上海市浦东新区浦东南路4800弄",121.50525196340041,31.186248877197798,"2022-05-10"
"浦东新区","上海市浦东新区浦东南路575弄",121.51857302563842,31.242584396065254,"2022-05-10"
"浦东新区","上海市浦东新区三林路168号",121.50263852318024,31.141592189223104,"2022-05-10"
"浦东新区","上海市浦东新区三林镇天花庵村南王家队南王家宅",121.55380142367048,31.162845112362536,"2022-05-10"
"浦东新区","上海市浦东新区三林镇西林村奚家宅",121.50505047347453,31.142465402882358,"2022-05-10"
"浦东新区","上海市浦东新区三林镇懿德村小陈家队小陈家宅",121.52472668787344,31.1243504097577,"2022-05-10"
"浦东新区","上海市浦东新区上浦路201弄",121.4998086811627,31.15145537649195,"2022-05-10"
"浦东新区","上海市浦东新区申轮路轲桥路交界口工地生活区",121.63667774256278,31.29081163122542,"2022-05-10"
"浦东新区","上海市浦东新区世博家园大道站路94弄",121.5456103147083,31.165459346349106,"2022-05-10"
"浦东新区","上海市浦东新区硕川路125弄",121.69351928133435,31.206800376084324,"2022-05-10"
"浦东新区","上海市浦东新区唐镇虹二村朱家宅",121.6683389694147,31.258308838536237,"2022-05-10"
"浦东新区","上海市浦东新区唐镇唐四村黄家西宅",121.66768949453099,31.221019816280922,"2022-05-10"
"浦东新区","上海市浦东新区庭安路825弄",121.59522211107446,31.330511234667426,"2022-05-10"
"浦东新区","上海市浦东新区五莲路108弄",121.58877362497108,31.277157873113886,"2022-05-10"
"浦东新区","上海市浦东新区五莲路780弄",121.59713693909953,31.274305479007058,"2022-05-10"
"浦东新区","上海市浦东新区五星路151弄",121.53688426481492,31.18970225553777,"2022-05-10"
"浦东新区","上海市浦东新区下南路309弄",121.52969618510942,31.207201251711854,"2022-05-10"
"浦东新区","上海市浦东新区下南路320弄",121.547891741212,31.175548813657176,"2022-05-10"
"浦东新区","上海市浦东新区下南路500弄",121.5437208188986,31.177967587760506,"2022-05-10"
"浦东新区","上海市浦东新区新场镇仁义村",121.64729337809639,31.064314697494762,"2022-05-10"
"浦东新区","上海市浦东新区新陈路25弄",121.56432875577246,31.185333901761624,"2022-05-10"
"浦东新区","上海市浦东新区新德路502弄",121.7002081539922,31.203218673444667,"2022-05-10"
"浦东新区","上海市浦东新区新金桥路230号",121.60603779924514,31.255251663107057,"2022-05-10"
"浦东新区","上海市浦东新区秀沿路2875弄",121.61606648195854,31.14493023082232,"2022-05-10"
"浦东新区","上海市浦东新区严镇路75弄",121.53464398070359,31.197513842937667,"2022-05-10"
"浦东新区","上海市浦东新区耀华路414弄",121.4922269826585,31.1790527910542,"2022-05-10"
"浦东新区","上海市浦东新区银峰路676弄",121.65277879086253,31.290487771739045,"2022-05-10"
"浦东新区","上海市浦东新区樱花路89弄",121.55194623128263,31.21198834890661,"2022-05-10"
"浦东新区","上海市浦东新区永泰路538弄",121.52299951586939,31.144883484687536,"2022-05-10"
"浦东新区","上海市浦东新区云山路2289号工地生活区",121.57757074929614,31.25694624967914,"2022-05-10"
"浦东新区","上海市浦东新区韵涛路36弄",121.58485970786411,31.120077939878794,"2022-05-10"
"浦东新区","上海市浦东新区张杨北路5428弄",121.58364969034217,31.348498922535285,"2022-05-10"
"浦东新区","上海市浦东新区张杨路2798弄",121.57068453674721,31.25103308458162,"2022-05-10"
"浦东新区","上海市浦东新区招远路19弄",121.5212299438453,31.241645116927586,"2022-05-10"
"浦东新区","上海市浦东新区赵高公路958号",121.63712932074266,31.316872849079196,"2022-05-10"
"浦东新区","上海市浦东新区周浦镇瓦南村",121.65954446864147,31.10478087123219,"2022-05-10"
"浦东新区","上海市浦东新区周祝公路4022号工地生活区",121.76076592043219,31.124104605625078,"2022-05-10"
"浦东新区","上海市浦东新区紫叶路81弄",121.55772216789933,31.18971870540851,"2022-05-10"
"浦东新区","上海市浦东新区邹平路191号工地生活区",121.52160058469872,31.17630685482829,"2022-05-10"
"黄浦区","上海市黄浦区保屯路135号",121.49712804769038,31.21049189214154,"2022-05-10"
"黄浦区","上海市黄浦区保屯路211弄",121.4983058160445,31.209535149529046,"2022-05-10"
"黄浦区","上海市黄浦区北京东路288弄",121.49064632428312,31.24648026991378,"2022-05-10"
"黄浦区","上海市黄浦区北京东路431弄",121.48868846742414,31.24544624864965,"2022-05-10"
"黄浦区","上海市黄浦区曹市弄40号",121.49565482665402,31.22491172460565,"2022-05-10"
"黄浦区","上海市黄浦区打浦路258弄",121.47756969097438,31.20648664957922,"2022-05-10"
"黄浦区","上海市黄浦区打浦路303弄",121.47819518110099,31.205904673705177,"2022-05-10"
"黄浦区","上海市黄浦区打浦路480弄",121.4794169664251,31.202757833460705,"2022-05-10"
"黄浦区","上海市黄浦区大沽路183弄",121.4776655401723,31.231942951592927,"2022-05-10"
"黄浦区","上海市黄浦区大吉路135弄",121.4913226585016,31.22025503402778,"2022-05-10"
"黄浦区","上海市黄浦区大境路50号",121.49363238162884,31.231105849432982,"2022-05-10"
"黄浦区","上海市黄浦区淡水路214弄",121.47901048318184,31.22338754436811,"2022-05-10"
"黄浦区","上海市黄浦区福州路614弄",121.48585503218456,31.238969867958666,"2022-05-10"
"黄浦区","上海市黄浦区广西北路200号",121.48480940457094,31.238537223635465,"2022-05-10"
"黄浦区","上海市黄浦区广西北路228弄",121.48509955725068,31.239119228201453,"2022-05-10"
"黄浦区","上海市黄浦区广西南路23号",121.48728522438701,31.234854918771504,"2022-05-10"
"黄浦区","上海市黄浦区海潮路93弄",121.50591203828914,31.214961528834515,"2022-05-10"
"黄浦区","上海市黄浦区河南南路555弄",121.49758088349796,31.226237323571752,"2022-05-10"
"黄浦区","上海市黄浦区河南南路790弄",121.49854009412151,31.222041137489935,"2022-05-10"
"黄浦区","上海市黄浦区河南中路199号",121.49241580647669,31.239398805234494,"2022-05-10"
"黄浦区","上海市黄浦区淮海中路526弄",121.4758250020129,31.227307454470328,"2022-05-10"
"黄浦区","上海市黄浦区淮海中路927弄",121.46719695725068,31.22261969336921,"2022-05-10"
"黄浦区","上海市黄浦区黄陂南路863弄",121.48545555572427,31.216713762148075,"2022-05-10"
"黄浦区","上海市黄浦区黄河路215弄",121.4344569553118,31.2533728868238,"2022-05-10"
"黄浦区","上海市黄浦区黄河路281弄",121.47563276463377,31.243446480678184,"2022-05-10"
"黄浦区","上海市黄浦区黄家路88弄",121.50359063719026,31.22123451932127,"2022-05-10"
"黄浦区","上海市黄浦区济南路260弄",121.48654618844394,31.209148542748196,"2022-05-10"
"黄浦区","上海市黄浦区建德路1号",121.47467445231571,31.216068462326337,"2022-05-10"
"黄浦区","上海市黄浦区建国东路143弄",121.48532709803635,31.21823318708983,"2022-05-10"
"黄浦区","上海市黄浦区建国东路87弄",121.48609393653494,31.219121552854524,"2022-05-10"
"黄浦区","上海市黄浦区建国西路158弄",121.46943751085367,31.213413946393718,"2022-05-10"
"黄浦区","上海市黄浦区江滨路288号",121.47771880968904,31.197379860921743,"2022-05-10"
"黄浦区","上海市黄浦区江西中路135弄",121.49403509198896,31.239906240817817,"2022-05-10"
"黄浦区","上海市黄浦区江西中路52号",121.49473038045369,31.23849839747257,"2022-05-10"
"黄浦区","上海市黄浦区金陵东路79号",121.49687912723357,31.236786556772227,"2022-05-10"
"黄浦区","上海市黄浦区静修路37弄",121.49472499062064,31.22592482018991,"2022-05-10"
"黄浦区","上海市黄浦区九江路210号",121.49264496421227,31.242806845375934,"2022-05-10"
"黄浦区","上海市黄浦区局门后路13号",121.48729977693625,31.214800008254723,"2022-05-10"
"黄浦区","上海市黄浦区局门后路5号",121.48708121920568,31.21525368581015,"2022-05-10"
"黄浦区","上海市黄浦区局门后路77号",121.48715254466318,31.214357678242408,"2022-05-10"
"黄浦区","上海市黄浦区局门后路85号",121.48721865994871,31.214225032877668,"2022-05-10"
"黄浦区","上海市黄浦区局门路295弄",121.48918909308485,31.210922426988578,"2022-05-10"
"黄浦区","上海市黄浦区局门路541号",121.48935590841805,31.207158886282542,"2022-05-10"
"黄浦区","上海市黄浦区丽园路666号",121.48636095784778,31.21281564496874,"2022-05-10"
"黄浦区","上海市黄浦区丽园路710弄",121.48600639666299,31.212344042699645,"2022-05-10"
"黄浦区","上海市黄浦区丽园路842弄",121.483621395534,31.211378208045655,"2022-05-10"
"黄浦区","上海市黄浦区鲁班路509弄",121.48325407841098,31.206749413937416,"2022-05-10"
"黄浦区","上海市黄浦区鲁班路562弄",121.48300560710692,31.20443979577591,"2022-05-10"
"黄浦区","上海市黄浦区陆家浜路418号",121.50562997035901,31.21668388296524,"2022-05-10"
"黄浦区","上海市黄浦区陆家浜路468弄",121.50449810541643,31.21610714338139,"2022-05-10"
"黄浦区","上海市黄浦区陆家浜路521弄",121.5055121126761,31.21920721197658,"2022-05-10"
"黄浦区","上海市黄浦区陆家宅路91弄",121.50235061985752,31.2301080052278,"2022-05-10"
"黄浦区","上海市黄浦区马当路301弄",121.48243401531091,31.22135989763991,"2022-05-10"
"黄浦区","上海市黄浦区马当路357弄",121.48227007455534,31.219236318303054,"2022-05-10"
"黄浦区","上海市黄浦区毛家园路88弄",121.50760175095341,31.259874894138658,"2022-05-10"
"黄浦区","上海市黄浦区茂名南路151号",121.46860154774608,31.222852072025784,"2022-05-10"
"黄浦区","上海市黄浦区茂名南路169弄",121.46913352426908,31.221248493144664,"2022-05-10"
"黄浦区","上海市黄浦区蒙自路440弄",121.48567096938557,31.208251859043592,"2022-05-10"
"黄浦区","上海市黄浦区蒙自路490弄",121.48548061844801,31.20723285827842,"2022-05-10"
"黄浦区","上海市黄浦区蒙自西路72弄",121.48209804905018,31.2132159800014,"2022-05-10"
"黄浦区","上海市黄浦区梦花街87号",121.49461108548198,31.2247899794694,"2022-05-10"
"黄浦区","上海市黄浦区南车站路169弄",121.49790283619275,31.215126369100666,"2022-05-10"
"黄浦区","上海市黄浦区南车站路1号",121.49671267122257,31.217515941295574,"2022-05-10"
"黄浦区","上海市黄浦区南京西路455弄",121.47452057258187,31.236831713273617,"2022-05-10"
"黄浦区","上海市黄浦区宁波路540号",121.48389996007263,31.242886037820316,"2022-05-10"
"黄浦区","上海市黄浦区宁波路542弄",121.48377877865934,31.242755902832418,"2022-05-10"
"黄浦区","上海市黄浦区蓬莱路115号",121.49876170609082,31.224494223821086,"2022-05-10"
"黄浦区","上海市黄浦区普育东路200弄",121.50230875522753,31.21362364824667,"2022-05-10"
"黄浦区","上海市黄浦区普育东路24号",121.5025493214431,31.21690531296192,"2022-05-10"
"黄浦区","上海市黄浦区普育东路32号",121.50255327398733,31.21609301437511,"2022-05-10"
"黄浦区","上海市黄浦区瞿溪路1003弄",121.48385693123872,31.205771630284882,"2022-05-10"
"黄浦区","上海市黄浦区瞿溪路1072弄",121.48143060805627,31.20475592286575,"2022-05-10"
"黄浦区","上海市黄浦区瞿溪路1199弄",121.50147369042544,31.212658135634207,"2022-05-10"
"黄浦区","上海市黄浦区瞿溪路1200弄",121.47791751486785,31.202302396543868,"2022-05-10"
"黄浦区","上海市黄浦区瞿溪路120弄",121.5017221617295,31.212085926699476,"2022-05-10"
"黄浦区","上海市黄浦区瞿溪路122号",121.50094297153015,31.211909499409913,"2022-05-10"
"黄浦区","上海市黄浦区瞿溪路1240弄",121.47755819266386,31.203000917568584,"2022-05-10"
"黄浦区","上海市黄浦区瞿溪路1254弄",121.47683415842282,31.20249351352583,"2022-05-10"
"黄浦区","上海市黄浦区瞿溪路126号",121.50094297153015,31.211909499409913,"2022-05-10"
"黄浦区","上海市黄浦区瞿溪路301弄",121.49833546012634,31.210375378694277,"2022-05-10"
"黄浦区","上海市黄浦区瞿溪路469号",121.49458844818312,31.208841541698984,"2022-05-10"
"黄浦区","上海市黄浦区瞿溪路566号",121.49249530651431,31.2072535518952,"2022-05-10"
"黄浦区","上海市黄浦区瞿溪路601号",121.49164407221306,31.208042994517765,"2022-05-10"
"黄浦区","上海市黄浦区瞿溪路883弄",121.4857689745167,31.2063427195683,"2022-05-10"
"黄浦区","上海市黄浦区瞿溪路884号",121.48572612534389,31.205978646691694,"2022-05-10"
"黄浦区","上海市黄浦区瞿溪路904弄",121.4856468947979,31.20580761302777,"2022-05-10"
"黄浦区","上海市黄浦区瞿溪路907弄",121.48519414882087,31.206016405323048,"2022-05-10"
"黄浦区","上海市黄浦区瞿溪路937弄",121.48468409095231,31.206350981651095,"2022-05-10"
"黄浦区","上海市黄浦区汝南街80号",121.49047690386395,31.208371309267275,"2022-05-10"
"黄浦区","上海市黄浦区瑞金二路200弄",121.47290227520564,31.215027156141527,"2022-05-10"
"黄浦区","上海市黄浦区陕西南路271弄",121.46934498538613,31.21423985704883,"2022-05-10"
"黄浦区","上海市黄浦区顺昌路528号",121.48594594070217,31.218219830463788,"2022-05-10"
"黄浦区","上海市黄浦区四川中路540号",121.49350958326563,31.24670564288971,"2022-05-10"
"黄浦区","上海市黄浦区泗泾路33号",121.4930251271041,31.239032468068775,"2022-05-10"
"黄浦区","上海市黄浦区天津路118号",121.49043504282719,31.244342904401005,"2022-05-10"
"黄浦区","上海市黄浦区天津路179弄",121.48962099837405,31.243313490616583,"2022-05-10"
"黄浦区","上海市黄浦区天津路480号",121.48384462445323,31.242193371809854,"2022-05-10"
"黄浦区","上海市黄浦区温州路49弄",121.4763199683489,31.24338318885585,"2022-05-10"
"黄浦区","上海市黄浦区文庙路91号",121.49642799820646,31.22424895668181,"2022-05-10"
"黄浦区","上海市黄浦区五里桥路210弄",121.48718425484768,31.209619311768297,"2022-05-10"
"黄浦区","上海市黄浦区五里桥路269弄",121.48593902374974,31.209584102620525,"2022-05-10"
"黄浦区","上海市黄浦区西藏南路1225号",121.49374161557886,31.215063289745043,"2022-05-10"
"黄浦区","上海市黄浦区西藏南路1341弄",121.4946357888835,31.211611849990653,"2022-05-10"
"黄浦区","上海市黄浦区西藏南路1383弄",121.49478679403973,31.21117313386863,"2022-05-10"
"黄浦区","上海市黄浦区西藏南路1433弄",121.4955320282908,31.210358932450475,"2022-05-10"
"黄浦区","上海市黄浦区西藏南路1731号",121.49779800393972,31.205123861332307,"2022-05-10"
"黄浦区","上海市黄浦区西凌家宅路111弄",121.49301659320176,31.210318627559108,"2022-05-10"
"黄浦区","上海市黄浦区西凌家宅路137弄",121.49180415025494,31.20989110123533,"2022-05-10"
"黄浦区","上海市黄浦区西凌家宅路27弄",121.49375212575332,31.210565784292413,"2022-05-10"
"黄浦区","上海市黄浦区斜土东路197号",121.49496843141384,31.2139589694899,"2022-05-10"
"黄浦区","上海市黄浦区斜土东路23弄",121.4968869424915,31.214477738349405,"2022-05-10"
"黄浦区","上海市黄浦区斜土东路255号",121.49349503071637,31.213408232860953,"2022-05-10"
"黄浦区","上海市黄浦区斜土东路265弄",121.49341975271463,31.213289483952547,"2022-05-10"
"黄浦区","上海市黄浦区斜土路118弄",121.48937099995062,31.211599882225087,"2022-05-10"
"黄浦区","上海市黄浦区斜土路298弄",121.48664850544152,31.2107846035487,"2022-05-10"
"黄浦区","上海市黄浦区斜土路456号",121.484234399214,31.209617535868617,"2022-05-10"
"黄浦区","上海市黄浦区斜土路645号",121.48075220773512,31.20891620728824,"2022-05-10"
"黄浦区","上海市黄浦区斜土路80弄",121.49047914962772,31.21070993944921,"2022-05-10"
"黄浦区","上海市黄浦区新昌路328弄",121.4746492099309,31.242473016839636,"2022-05-10"
"黄浦区","上海市黄浦区学前街156号",121.49659472370911,31.220583691976135,"2022-05-10"
"黄浦区","上海市黄浦区学西街1号",121.49391211396465,31.22347694386385,"2022-05-10"
"黄浦区","上海市黄浦区仪凤弄115号",121.49294041689451,31.22343031408571,"2022-05-10"
"黄浦区","上海市黄浦区永安路1弄",121.49158559252436,31.23724715206362,"2022-05-10"
"黄浦区","上海市黄浦区永宁街55号",121.49506392128956,31.22123753025577,"2022-05-10"
"黄浦区","上海市黄浦区永寿路50号",121.48756037536471,31.235196493691447,"2022-05-10"
"黄浦区","上海市黄浦区肇嘉浜路168弄",121.47033518754978,31.209930943034088,"2022-05-10"
"黄浦区","上海市黄浦区肇嘉浜路249号",121.46874330035554,31.20942087407395,"2022-05-10"
"黄浦区","上海市黄浦区制造局路361号",121.49177423668145,31.2121371175751,"2022-05-10"
"黄浦区","上海市黄浦区制造局路365弄",121.49109439907151,31.21098489143879,"2022-05-10"
"黄浦区","上海市黄浦区制造局路455弄",121.49101040750632,31.210925129406952,"2022-05-10"
"黄浦区","上海市黄浦区制造局路466弄",121.49150456536736,31.207552141744756,"2022-05-10"
"黄浦区","上海市黄浦区制造局路567弄",121.49182867399537,31.209308606024834,"2022-05-10"
"黄浦区","上海市黄浦区中华路169弄",121.5045857800342,31.228030183477685,"2022-05-10"
"黄浦区","上海市黄浦区中华路296号",121.50570803310784,31.226104309043453,"2022-05-10"
"黄浦区","上海市黄浦区中华路99号",121.5047834072464,31.228968055385458,"2022-05-10"
"黄浦区","上海市黄浦区中山南路1358弄",121.50624378251398,31.216168060220113,"2022-05-10"
"黄浦区","上海市黄浦区中山南路1667号",121.50157097691218,31.210511890127517,"2022-05-10"
"黄浦区","上海市黄浦区中山南路1726弄",121.49944953861981,31.209989701935054,"2022-05-10"
"黄浦区","上海市黄浦区中山南一路1109弄",121.47688787709231,31.201485415311588,"2022-05-10"
"黄浦区","上海市黄浦区中山南一路247弄",121.49296071859904,31.20630496106852,"2022-05-10"
"黄浦区","上海市黄浦区中山南一路290号",121.49302521693465,31.20588135444261,"2022-05-10"
"静安区","上海市静安区宝昌路399弄",121.4779392538612,31.2686961903874,"2022-05-10"
"静安区","上海市静安区宝通路157弄",121.48497496227643,31.26182391875261,"2022-05-10"
"静安区","上海市静安区宝通路239弄",121.48459120616258,31.262535654503093,"2022-05-10"
"静安区","上海市静安区宝通路425弄",121.4826983866225,31.265213393051873,"2022-05-10"
"静安区","上海市静安区宝源路209弄",121.486628203737,31.26230129085208,"2022-05-10"
"静安区","上海市静安区昌化路420弄",121.45728038306493,31.244960068692453,"2022-05-10"
"静安区","上海市静安区昌平路556号",121.45025734075736,31.241600348683193,"2022-05-10"
"静安区","上海市静安区昌平路999弄",121.44392536487862,31.238681026957256,"2022-05-10"
"静安区","上海市静安区常德路812弄",121.4490546893406,31.2403071546635,"2022-05-10"
"静安区","上海市静安区长乐路638弄",121.46075260335263,31.225207864935424,"2022-05-10"
"静安区","上海市静安区场中路3428弄",121.43299271733055,31.309174353620627,"2022-05-10"
"静安区","上海市静安区大统路933弄",121.46622139746682,31.261523032628112,"2022-05-10"
"静安区","上海市静安区大统路938弄",121.46501793757511,31.26044272075746,"2022-05-10"
"静安区","上海市静安区东宝兴路458弄",121.48566899311345,31.265014533089033,"2022-05-10"
"静安区","上海市静安区共和新路1302号",121.4655650056307,31.26986784540351,"2022-05-10"
"静安区","上海市静安区共和新路1453弄",121.46543816489267,31.27263596090351,"2022-05-10"
"静安区","上海市静安区共和新路1725弄",121.46434753217301,31.27720262432909,"2022-05-10"
"静安区","上海市静安区共和新路2999弄",121.46114956455749,31.294451077299822,"2022-05-10"
"静安区","上海市静安区共和新路3616弄",121.45442898171515,31.308981912016453,"2022-05-10"
"静安区","上海市静安区共和新路3650弄",121.45483672258612,31.310360541019204,"2022-05-10"
"静安区","上海市静安区共和新路555弄",121.47060997920528,31.25892390415751,"2022-05-10"
"静安区","上海市静安区共和新路688弄",121.4691756547975,31.260511171490865,"2022-05-10"
"静安区","上海市静安区广中西路99弄",121.45546068559337,31.28810446154631,"2022-05-10"
"静安区","上海市静安区汉中路28弄",121.45343177276851,31.233844930401652,"2022-05-10"
"静安区","上海市静安区汉中路78弄",121.46570002094884,31.24937495923268,"2022-05-10"
"静安区","上海市静安区和田路451弄",121.45816988518091,31.277218673035517,"2022-05-10"
"静安区","上海市静安区沪太路1170弄",121.43392722455256,31.283330252014437,"2022-05-10"
"静安区","上海市静安区沪太路555弄",121.45726843560165,31.263832708164088,"2022-05-10"
"静安区","上海市静安区沪太路631弄",121.45662632682311,31.26730614278311,"2022-05-10"
"静安区","上海市静安区沪太路651弄",121.4552847973745,31.267443805797818,"2022-05-10"
"静安区","上海市静安区华康路69弄",121.46500652909515,31.25081196688395,"2022-05-10"
"静安区","上海市静安区黄山路260号",121.47470921673896,31.272162113868315,"2022-05-10"
"静安区","上海市静安区黄山路280弄",121.4745494980193,31.272077159114005,"2022-05-10"
"静安区","上海市静安区江宁路918号",121.45318842180586,31.247235807518948,"2022-05-10"
"静安区","上海市静安区康定路980弄",121.4448729873611,31.237696861316287,"2022-05-10"
"静安区","上海市静安区临汾路380弄",121.46855995620095,31.31818688632554,"2022-05-10"
"静安区","上海市静安区临汾路99弄",121.45580204168715,31.31690084525303,"2022-05-10"
"静安区","上海市静安区临山路203弄",121.47979371575599,31.26127292367599,"2022-05-10"
"静安区","上海市静安区灵石路737弄",121.44532977571292,31.29044580415785,"2022-05-10"
"静安区","上海市静安区柳营路1025弄",121.45655976238481,31.268273869351653,"2022-05-10"
"静安区","上海市静安区柳营路319弄",121.46987678224804,31.273721070046967,"2022-05-10"
"静安区","上海市静安区柳营路588弄",121.4671822250403,31.27176997874455,"2022-05-10"
"静安区","上海市静安区陆丰路2号",121.48205681682727,31.264902100241336,"2022-05-10"
"静安区","上海市静安区洛川东路320弄",121.46965534993983,31.276394398647767,"2022-05-10"
"静安区","上海市静安区洛川中路1100弄",121.4560534773994,31.27070760991036,"2022-05-10"
"静安区","上海市静安区平型关路1537号",121.46609428723717,31.29694260852475,"2022-05-10"
"静安区","上海市静安区平型关路300弄",121.47035315365997,31.27688072373114,"2022-05-10"
"静安区","上海市静安区平型关路305弄",121.4716473424082,31.276387994540464,"2022-05-10"
"静安区","上海市静安区普善路铁路新村15号",121.45899767370835,31.262280146391042,"2022-05-10"
"静安区","上海市静安区普善路铁路新村17号",121.45974452490934,31.2627410791231,"2022-05-10"
"静安区","上海市静安区普善路铁路新村19号",121.45974452490934,31.2627410791231,"2022-05-10"
"静安区","上海市静安区普善路铁路新村26号",121.45991232837861,31.26261814851632,"2022-05-10"
"静安区","上海市静安区普善路铁路新村27号",121.46003063521428,31.262670623622483,"2022-05-10"
"静安区","上海市静安区青云路461弄",121.47642093788824,31.268684615745315,"2022-05-10"
"静安区","上海市静安区虬江路1431弄",121.47242482582708,31.256164334672036,"2022-05-10"
"静安区","上海市静安区虬江路888弄",121.48211673380479,31.25803487450358,"2022-05-10"
"静安区","上海市静安区三泉路999弄",121.4468266221842,31.32610688871536,"2022-05-10"
"静安区","上海市静安区陕西北路640弄",121.45780445449944,31.239793546204435,"2022-05-10"
"静安区","上海市静安区陕西北路835弄",121.4545808851769,31.2418672597267,"2022-05-10"
"静安区","上海市静安区少年村路479弄",121.43983591887499,31.306570612059296,"2022-05-10"
"静安区","上海市静安区谈家桥路155弄",121.45909513985617,31.266041315759875,"2022-05-10"
"静安区","上海市静安区谈家桥路163弄",121.45627185546886,31.266914604602174,"2022-05-10"
"静安区","上海市静安区谈家桥路85弄",121.45924623484296,31.266592051222077,"2022-05-10"
"静安区","上海市静安区天目中路749弄",121.46822066620983,31.252132799701027,"2022-05-10"
"静安区","上海市静安区通阁路200弄",121.47688104997043,31.266835432511993,"2022-05-10"
"静安区","上海市静安区万航渡路623弄",121.44039295812175,31.232727940349175,"2022-05-10"
"静安区","上海市静安区乌鲁木齐北路425号",121.45058692904897,31.225663808042768,"2022-05-10"
"静安区","上海市静安区西宝兴路922弄",121.47445373865193,31.275670037316026,"2022-05-10"
"静安区","上海市静安区西藏北路1303弄",121.47183311198766,31.26937369027201,"2022-05-10"
"静安区","上海市静安区西藏北路871号",121.47395481977168,31.262863932399053,"2022-05-10"
"静安区","上海市静安区西康路786弄",121.45085183934387,31.243465082290992,"2022-05-10"
"静安区","上海市静安区西康路888号",121.44985525921109,31.24497681759156,"2022-05-10"
"静安区","上海市静安区西康路894弄",121.44985112700574,31.24511181206521,"2022-05-10"
"静安区","上海市静安区新丰路381号",121.45005953388407,31.24477312916326,"2022-05-10"
"静安区","上海市静安区新闸路1829号",121.4494046691673,31.233865695328877,"2022-05-10"
"静安区","上海市静安区新闸路1910弄",121.44770660226179,31.232840257505554,"2022-05-10"
"静安区","上海市静安区新闸路1999号",121.44652657958042,31.23223653535549,"2022-05-10"
"静安区","上海市静安区延平路230弄",121.4466416610797,31.236847151388755,"2022-05-10"
"静安区","上海市静安区延平路340弄",121.4456025910963,31.23815374702983,"2022-05-10"
"静安区","上海市静安区延长中路800弄",121.45220828066392,31.27260293598045,"2022-05-10"
"静安区","上海市静安区阳曲路781弄",121.46595001937227,31.324354778118003,"2022-05-10"
"静安区","上海市静安区永兴路973弄",121.46607605163531,31.257837928595784,"2022-05-10"
"静安区","上海市静安区永兴路99弄",121.48249851364653,31.26117746383464,"2022-05-10"
"静安区","上海市静安区余姚路19号",121.45030557976324,31.24248390005464,"2022-05-10"
"静安区","上海市静安区余姚路27号",121.45056375276681,31.242428943665228,"2022-05-10"
"静安区","上海市静安区余姚路321弄",121.44443856681647,31.241068068052705,"2022-05-10"
"静安区","上海市静安区余姚路487弄",121.44262336087246,31.238642895555838,"2022-05-10"
"静安区","上海市静安区育婴堂路273弄",121.47395949096033,31.259294099168,"2022-05-10"
"静安区","上海市静安区育婴堂路38弄",121.47318802618837,31.254010906319873,"2022-05-10"
"静安区","上海市静安区育婴堂路39弄",121.47468307604862,31.255124709523983,"2022-05-10"
"静安区","上海市静安区原平路689弄",121.43787797218546,31.297340577767542,"2022-05-10"
"静安区","上海市静安区芷江西路123弄",121.47196390526992,31.265192403584116,"2022-05-10"
"静安区","上海市静安区芷江西路165弄",121.47059901987805,31.264956966253234,"2022-05-10"
"静安区","上海市静安区芷江西路230号",121.46863783928866,31.263666410345913,"2022-05-10"
"静安区","上海市静安区芷江中路413弄",121.47651543962787,31.26565270461663,"2022-05-10"
"静安区","上海市静安区芷江中路531弄",121.4749204981949,31.26451934910736,"2022-05-10"
"静安区","上海市静安区芷江中路660弄",121.47506988640122,31.264123477837586,"2022-05-10"
"静安区","上海市静安区芷江中路684号",121.47439489964101,31.263851382888987,"2022-05-10"
"静安区","上海市静安区中华新路288弄",121.47903698319438,31.26212773635702,"2022-05-10"
"静安区","上海市静安区中华新路455弄",121.47442741830048,31.26149640890541,"2022-05-10"
"静安区","上海市静安区中华新路893弄",121.46198462935958,31.261228396340947,"2022-05-10"
"静安区","上海市静安区中山北路1038号",121.45771713920387,31.264525368189744,"2022-05-10"
"静安区","上海市静安区中山北路255弄",121.4755179611896,31.270384838136735,"2022-05-10"
"静安区","上海市静安区中山北路805弄",121.46433019487667,31.26770616748392,"2022-05-10"
"静安区","上海市静安区中兴路1340弄",121.46757667098974,31.258286381233074,"2022-05-10"
"静安区","上海市静安区中兴路1385弄",121.46736062851458,31.258900057899563,"2022-05-10"
"静安区","上海市静安区中兴路678号",121.47881447291957,31.260741449576553,"2022-05-10"
"静安区","上海市静安区中兴路700号",121.47831142183398,31.26033306057162,"2022-05-10"
"徐汇区","上海市徐汇区东安一村",121.4637655200331,31.195351033168695,"2022-05-10"
"徐汇区","上海市徐汇区复兴中路1196弄",121.46628903987174,31.21969869849298,"2022-05-10"
"徐汇区","上海市徐汇区复兴中路1218弄",121.46588417357839,31.219457742262225,"2022-05-10"
"徐汇区","上海市徐汇区桂林西街9弄",121.44339635276381,31.194556772822725,"2022-05-10"
"徐汇区","上海市徐汇区桂平路350弄",121.41357925729332,31.166860408583002,"2022-05-10"
"徐汇区","上海市徐汇区汇成四村",121.44302391529936,31.14928771829443,"2022-05-10"
"徐汇区","上海市徐汇区机场新村",121.45808804954895,31.17374220397558,"2022-05-10"
"徐汇区","上海市徐汇区康健路100弄",121.43416132296848,31.171079922861633,"2022-05-10"
"徐汇区","上海市徐汇区罗秀二村",121.45430178165493,31.138436081162304,"2022-05-10"
"徐汇区","上海市徐汇区南丹路333弄",121.43667990212681,31.196590482872317,"2022-05-10"
"徐汇区","上海市徐汇区钦州南路8弄",121.44339635276381,31.194556772822725,"2022-05-10"
"徐汇区","上海市徐汇区日晖二村",121.47254331232386,31.200582635040785,"2022-05-10"
"徐汇区","上海市徐汇区日晖六村",121.46622103814462,31.201232983658134,"2022-05-10"
"徐汇区","上海市徐汇区石龙路345弄",121.44777020229188,31.159841986728708,"2022-05-10"
"徐汇区","上海市徐汇区天钥桥路327号",121.44959340315494,31.194809994718085,"2022-05-10"
"徐汇区","上海市徐汇区田林东路414弄",121.43218325423551,31.180041744027342,"2022-05-10"
"徐汇区","上海市徐汇区田林二村",121.42656183801516,31.176380001537815,"2022-05-10"
"徐汇区","上海市徐汇区宛南华侨新村",121.45684236929826,31.187054329316297,"2022-05-10"
"徐汇区","上海市徐汇区小木桥路360弄",121.4661279736938,31.20076788678695,"2022-05-10"
"徐汇区","上海市徐汇区斜土路1620号",121.46444418984588,31.202462008207764,"2022-05-10"
"徐汇区","上海市徐汇区斜土路2200弄",121.45723259321178,31.19745530787878,"2022-05-10"
"徐汇区","上海市徐汇区肇嘉浜路201弄",121.47033949941623,31.208125382170095,"2022-05-10"
"徐汇区","上海市徐汇区中漕路111弄",121.43940850511336,31.189956262844216,"2022-05-10"
"徐汇区","上海市徐汇区中山西路2020号",121.4333400022407,31.18838386237725,"2022-05-10"
"长宁区","上海市长宁区长宁支路133弄",121.4322014000068,31.233760326784317,"2022-05-10"
"长宁区","上海市长宁区定西路1115号103店铺",121.42923744097664,31.218472833975362,"2022-05-10"
"长宁区","上海市长宁区虹桥路1115弄住宅",121.41707393521878,31.203852324720465,"2022-05-10"
"长宁区","上海市长宁区虹桥路2328弄",121.37681960768894,31.195331495294433,"2022-05-10"
"长宁区","上海市长宁区江苏路62弄",121.43467174015925,31.229593812745307,"2022-05-10"
"长宁区","上海市长宁区金钟路68弄",121.37695201792111,31.225276881864072,"2022-05-10"
"长宁区","上海市长宁区水城南路16弄",121.40175387372942,31.19811401823894,"2022-05-10"
"普陀区","上海市普陀区白玉新村",121.42169948995075,31.239023591360276,"2022-05-10"
"普陀区","上海市普陀区北枫桥园",121.41625944161288,31.247395496931027,"2022-05-10"
"普陀区","上海市普陀区曹杨二村",121.41174500727247,31.25010183980936,"2022-05-10"
"普陀区","上海市普陀区昌化路994弄",121.4511384886321,31.252354068630236,"2022-05-10"
"普陀区","上海市普陀区黄陵路151弄",121.43257015441866,31.26789591625602,"2022-05-10"
"普陀区","上海市普陀区静宁路155弄",121.42910700701658,31.220378869575327,"2022-05-10"
"普陀区","上海市普陀区礼泉路300弄",121.42993716370192,31.25936777397392,"2022-05-10"
"普陀区","上海市普陀区梅岭北路400弄",121.41270799077918,31.24933891605852,"2022-05-10"
"普陀区","上海市普陀区普陀一村",121.42863351018228,31.242139341484133,"2022-05-10"
"普陀区","上海市普陀区桃浦路321弄",121.4000292169808,31.264957583592146,"2022-05-10"
"普陀区","上海市普陀区铜川路346弄",121.42076677933974,31.258898514452234,"2022-05-10"
"普陀区","上海市普陀区武威东路788弄",121.44973210152567,31.271907249373598,"2022-05-10"
"普陀区","上海市普陀区香泉路85弄",121.41755821171921,31.27051809833718,"2022-05-10"
"普陀区","上海市普陀区延长西路220弄",121.44482223309979,31.270641867339766,"2022-05-10"
"普陀区","上海市普陀区延长西路540弄",121.4394720153129,31.26618885793106,"2022-05-10"
"普陀区","上海市普陀区宜川三村",121.44741950382078,31.263551892325964,"2022-05-10"
"普陀区","上海市普陀区真北路3725弄",121.4095403858899,31.290661273542632,"2022-05-10"
"普陀区","上海市普陀区中山北路3671弄",121.41442312548938,31.23126062589469,"2022-05-10"
"普陀区","上海市普陀区子长路77弄",121.44274687788008,31.26739125620684,"2022-05-10"
"虹口区","上海市虹口区北苏州路400号",121.49008793757814,31.248865877052367,"2022-05-10"
"虹口区","上海市虹口区场中路8弄",121.51158645453457,31.269746698931357,"2022-05-10"
"虹口区","上海市虹口区大连路975弄",121.51215050056429,31.273118833328333,"2022-05-10"
"虹口区","上海市虹口区大连西路96号",121.50245706546723,31.283519814743904,"2022-05-10"
"虹口区","上海市虹口区东汉阳路490号",121.50458003087896,31.25813288426385,"2022-05-10"
"虹口区","上海市虹口区东余杭路211弄",121.51569939214394,31.267242448215843,"2022-05-10"
"虹口区","上海市虹口区东余杭路600号",121.50633334357333,31.259625629665116,"2022-05-10"
"虹口区","上海市虹口区多伦路198号",121.48901589978252,31.269647929716793,"2022-05-10"
"虹口区","上海市虹口区丰镇路2弄",121.51158645453457,31.269746698931357,"2022-05-10"
"虹口区","上海市虹口区广联路29弄",121.47862663723743,31.273884186409223,"2022-05-10"
"虹口区","上海市虹口区广灵二路264弄",121.48052313983008,31.290237894630867,"2022-05-10"
"虹口区","上海市虹口区广灵一村",121.48446059254142,31.29273077263655,"2022-05-10"
"虹口区","上海市虹口区广粤路1500弄",121.47462378788497,31.309049247340347,"2022-05-10"
"虹口区","上海市虹口区广粤路219号",121.47176852382151,31.290847658402317,"2022-05-10"
"虹口区","上海市虹口区广粤路287弄",121.47010001116726,31.29310384229549,"2022-05-10"
"虹口区","上海市虹口区广粤路53弄",121.47148151521105,31.288090574861844,"2022-05-10"
"虹口区","上海市虹口区恒业路388弄",121.47953536309132,31.27138694709741,"2022-05-10"
"虹口区","上海市虹口区横浜路63弄",121.51883706993986,31.28281172820514,"2022-05-10"
"虹口区","上海市虹口区衡水路365号",121.48830940363554,31.25782162461195,"2022-05-10"
"虹口区","上海市虹口区花园路118弄",121.48014396507433,31.276928870008113,"2022-05-10"
"虹口区","上海市虹口区黄浦路60号",121.49794460739895,31.249593610567434,"2022-05-10"
"虹口区","上海市虹口区吉祥路84弄",121.49483224829852,31.270988712891675,"2022-05-10"
"虹口区","上海市虹口区九龙路473号",121.49823215499269,31.257619450890452,"2022-05-10"
"虹口区","上海市虹口区奎照路2弄",121.51158645453457,31.269746698931357,"2022-05-10"
"虹口区","上海市虹口区奎照路790弄",121.47519466103654,31.30548989566088,"2022-05-10"
"虹口区","上海市虹口区昆明路155弄",121.51443147791522,31.26177993187002,"2022-05-10"
"虹口区","上海市虹口区昆山路158号",121.49429074973712,31.25528237890246,"2022-05-10"
"虹口区","上海市虹口区溧阳路1335弄",121.4923543623798,31.269342824780438,"2022-05-10"
"虹口区","上海市虹口区凉城路68弄",121.4764996294509,31.28643750461571,"2022-05-10"
"虹口区","上海市虹口区临平路123号",121.50606762480348,31.26675718634526,"2022-05-10"
"虹口区","上海市虹口区临平路250弄",121.50224479587521,31.267832795316448,"2022-05-10"
"虹口区","上海市虹口区临平路333号",121.50214256870818,31.26830450370258,"2022-05-10"
"虹口区","上海市虹口区闵行路201号",121.49785828023944,31.2526549842722,"2022-05-10"
"虹口区","上海市虹口区蟠龙街26号",121.49361324772148,31.25353873989744,"2022-05-10"
"虹口区","上海市虹口区青云路167弄",121.48178732517428,31.271130305755726,"2022-05-10"
"虹口区","上海市虹口区曲阳路990弄",121.49792996501913,31.296183847188896,"2022-05-10"
"虹口区","上海市虹口区水电路1013弄",121.48512848268808,31.2944861002134,"2022-05-10"
"虹口区","上海市虹口区水电路1324弄",121.48245557464315,31.29830629603629,"2022-05-10"
"虹口区","上海市虹口区四川北路1515弄",121.48891178617392,31.26148236392398,"2022-05-10"
"虹口区","上海市虹口区四川北路1545弄",121.48867687928306,31.26148799735084,"2022-05-10"
"虹口区","上海市虹口区四川北路1604弄",121.48991869682004,31.26205280454787,"2022-05-10"
"虹口区","上海市虹口区四川北路1856弄",121.49061982427058,31.266843920750997,"2022-05-10"
"虹口区","上海市虹口区四川北路1953弄",121.48848104868188,31.268984398512814,"2022-05-10"
"虹口区","上海市虹口区四川北路1999弄",121.49037431737472,31.26948364850286,"2022-05-10"
"虹口区","上海市虹口区四川北路2023弄",121.4894507694799,31.269598082089164,"2022-05-10"
"虹口区","上海市虹口区四达路58弄",121.49715930872213,31.27309792279725,"2022-05-10"
"虹口区","上海市虹口区四平路52弄",121.49526352477386,31.26301225127707,"2022-05-10"
"虹口区","上海市虹口区四平路621弄",121.5005054967468,31.277798353549326,"2022-05-10"
"虹口区","上海市虹口区天通庵路612号",121.48264791506321,31.26931440355444,"2022-05-10"
"虹口区","上海市虹口区甜爱路311号",121.49105217871255,31.27546911632634,"2022-05-10"
"虹口区","上海市虹口区同心路803弄",121.47789451824679,31.277457551532155,"2022-05-10"
"虹口区","上海市虹口区汶水东路181弄",121.49191796556305,31.297393881912114,"2022-05-10"
"虹口区","上海市虹口区武昌路138号",121.49830976858875,31.251496388134967,"2022-05-10"
"虹口区","上海市虹口区武进路224号",121.49279974225165,31.258304130992034,"2022-05-10"
"虹口区","上海市虹口区物华路98弄",121.50052274421259,31.264628772877874,"2022-05-10"
"虹口区","上海市虹口区西宝兴路949弄",121.47502955248382,31.275593187403278,"2022-05-10"
"虹口区","上海市虹口区祥德路335号",121.49654235249788,31.276490228731266,"2022-05-10"
"虹口区","上海市虹口区新港路69号",121.5124298735779,31.274331713281807,"2022-05-10"
"虹口区","上海市虹口区新市南路1145弄",121.48790514501944,31.304163955006175,"2022-05-10"
"虹口区","上海市虹口区逸仙路328号",121.49285678465154,31.305218846846547,"2022-05-10"
"虹口区","上海市虹口区逸仙路58号",121.49553625032671,31.300159021582026,"2022-05-10"
"虹口区","上海市虹口区乍浦路349号",121.49306384407159,31.255988607886867,"2022-05-10"
"虹口区","上海市虹口区周家嘴路628号",121.50745739325797,31.262719163069455,"2022-05-10"
"杨浦区","上海市杨浦区凤城二村",121.52513433891386,31.284134020032397,"2022-05-10"
"杨浦区","上海市杨浦区凤城三村",121.5282979912589,31.28782287004112,"2022-05-10"
"杨浦区","上海市杨浦区国伟路100弄",121.542639977709,31.340438872925063,"2022-05-10"
"杨浦区","上海市杨浦区佳木斯路154弄",121.54746154270326,31.30578655205478,"2022-05-10"
"杨浦区","上海市杨浦区军工路1300号",121.5523267653453,31.31122115183753,"2022-05-10"
"杨浦区","上海市杨浦区军工路516号",121.55851465302023,31.296278962688447,"2022-05-10"
"杨浦区","上海市杨浦区开鲁二村",121.53419096523491,31.32814622068962,"2022-05-10"
"杨浦区","上海市杨浦区开鲁四村",121.53691498686335,31.332001974649078,"2022-05-10"
"杨浦区","上海市杨浦区控江二村",121.53254086784362,31.285566404206357,"2022-05-10"
"杨浦区","上海市杨浦区控江四村",121.53155497754642,31.290911920976683,"2022-05-10"
"杨浦区","上海市杨浦区控江五村",121.53661728841736,31.29349226207843,"2022-05-10"
"杨浦区","上海市杨浦区眉州路432弄",121.54166944843602,31.269393984327156,"2022-05-10"
"杨浦区","上海市杨浦区民府路133弄",121.52341931200034,31.3194064456334,"2022-05-10"
"杨浦区","上海市杨浦区民星路191号",121.55615076207071,31.317591954747126,"2022-05-10"
"杨浦区","上海市杨浦区民星路50号",121.56039543526647,31.317967470078138,"2022-05-10"
"杨浦区","上海市杨浦区平凉路1359弄",121.54284056932939,31.269773397466743,"2022-05-10"
"杨浦区","上海市杨浦区平凉路2545弄",121.54582545887793,31.272526392188638,"2022-05-10"
"杨浦区","上海市杨浦区市光路143弄",121.52296555992112,31.319999345041687,"2022-05-10"
"杨浦区","上海市杨浦区市光三村",121.54755658342621,31.325646962871275,"2022-05-10"
"杨浦区","上海市杨浦区双阳二村",121.53975444074985,31.284079705344958,"2022-05-10"
"杨浦区","上海市杨浦区松花一村",121.54763186142796,31.30123925976951,"2022-05-10"
"杨浦区","上海市杨浦区翔殷路500弄",121.54288243036615,31.312980682114596,"2022-05-10"
"杨浦区","上海市杨浦区翔殷路791弄",121.54388799355401,31.311873893392303,"2022-05-10"
"杨浦区","上海市杨浦区许昌路1440弄",121.52168116270295,31.275739248478512,"2022-05-10"
"杨浦区","上海市杨浦区延吉东路137弄",121.55137761574345,31.299151281680984,"2022-05-10"
"杨浦区","上海市杨浦区延吉东路149弄",121.55138475727226,31.29787859338383,"2022-05-10"
"杨浦区","上海市杨浦区永吉路97弄",121.54042251055762,31.289893820704354,"2022-05-10"
"杨浦区","上海市杨浦区中原路30弄",121.53880717758958,31.31403130940357,"2022-05-10"
"宝山区","上海市宝山区爱辉路301号",121.46017113019603,31.34111245942092,"2022-05-10"
"宝山区","上海市宝山区爱辉路1018弄",121.45357433385296,31.351831899007248,"2022-05-10"
"宝山区","上海市宝山区宝杨路2237号",121.45905474605175,31.388597688094524,"2022-05-10"
"宝山区","上海市宝山区长江西路1340号",121.46172807330592,31.343192327462262,"2022-05-10"
"宝山区","上海市宝山区长临路1118弄",121.44035891234292,31.333280404763475,"2022-05-10"
"宝山区","上海市宝山区城银路555弄",121.35643912177022,31.321472052667513,"2022-05-10"
"宝山区","上海市宝山区春雷路332弄",121.43976405443419,31.416194499295695,"2022-05-10"
"宝山区","上海市宝山区大华三路81号",121.42510451698634,31.28218669530561,"2022-05-10"
"宝山区","上海市宝山区大康路896弄",121.43001942191476,31.337081394791504,"2022-05-10"
"宝山区","上海市宝山区电台路568弄",121.3980889669098,31.361796888060212,"2022-05-10"
"宝山区","上海市宝山区富联路1666号",121.40333489142698,31.38376809992248,"2022-05-10"
"宝山区","上海市宝山区共和新路4703弄",121.45779951381914,31.32450662386527,"2022-05-10"
"宝山区","上海市宝山区共康路379号",121.44504141964423,31.32751449138756,"2022-05-10"
"宝山区","上海市宝山区顾北东路188弄",121.4194970245014,31.365664893138984,"2022-05-10"
"宝山区","上海市宝山区顾北东路501弄",121.41270861959305,31.36315615811293,"2022-05-10"
"宝山区","上海市宝山区红林路99弄",121.43540736254137,31.371990505676905,"2022-05-10"
"宝山区","上海市宝山区花园宅路52弄",121.43182276423434,31.334950765761846,"2022-05-10"
"宝山区","上海市宝山区华灵路510弄",121.42724239426951,31.28071606789037,"2022-05-10"
"宝山区","上海市宝山区华灵路1788弄",121.41444181024399,31.284983608729622,"2022-05-10"
"宝山区","上海市宝山区华灵路1900弄",121.41151405292587,31.284878529253408,"2022-05-10"
"宝山区","上海市宝山区江杨北路1568弄",121.4470099663388,31.40520193079418,"2022-05-10"
"宝山区","上海市宝山区界华路100弄",121.42941764106193,31.30820843931174,"2022-05-10"
"宝山区","上海市宝山区锦秋路101号",121.41038497273037,31.327980885699994,"2022-05-10"
"宝山区","上海市宝山区锦秋路1456弄",121.38362184650215,31.323762507933523,"2022-05-10"
"宝山区","上海市宝山区锦秋路1588弄",121.3795427310119,31.322806461781244,"2022-05-10"
"宝山区","上海市宝山区菊泉街1596弄",121.37881200842237,31.367549747702906,"2022-05-10"
"宝山区","上海市宝山区聚丰园路91弄",121.39170785371968,31.321183081131924,"2022-05-10"
"宝山区","上海市宝山区聚丰园路628弄",121.38142198613876,31.317415649430476,"2022-05-10"
"宝山区","上海市宝山区康宁路1600弄",121.43021596516866,31.349104065036318,"2022-05-10"
"宝山区","上海市宝山区兰岗路1号",121.47209595617988,31.3839034331243,"2022-05-10"
"宝山区","上海市宝山区莲花山路700弄",121.44598014890215,31.36728225714443,"2022-05-10"
"宝山区","上海市宝山区陆翔路678弄",121.37404249620485,31.35824278833933,"2022-05-10"
"宝山区","上海市宝山区南大路118弄",121.41082451361642,31.306143988588854,"2022-05-10"
"宝山区","上海市宝山区年吉路650弄",121.34146445874944,31.404977403002018,"2022-05-10"
"宝山区","上海市宝山区盘古路927弄",121.46849402057651,31.407824874512688,"2022-05-10"
"宝山区","上海市宝山区祁华路58弄",121.38763664331789,31.329421233561288,"2022-05-10"
"宝山区","上海市宝山区三泉路1859弄",121.44266962360624,31.33768495147111,"2022-05-10"
"宝山区","上海市宝山区上大路128弄",121.41246562795259,31.318725437266924,"2022-05-10"
"宝山区","上海市宝山区盛桥老街14弄",121.40823523781445,31.46073069074594,"2022-05-10"
"宝山区","上海市宝山区市台路388号",121.35909648912984,31.32079531647911,"2022-05-10"
"宝山区","上海市宝山区市台路555弄",121.35467997009003,31.325317209142323,"2022-05-10"
"宝山区","上海市宝山区市一路153弄",121.35540714840035,31.42158745048969,"2022-05-10"
"宝山区","上海市宝山区水产路2199弄",121.45299968781822,31.37544303389558,"2022-05-10"
"宝山区","上海市宝山区松兰路960号",121.45116148525315,31.38730480971474,"2022-05-10"
"宝山区","上海市宝山区松兰路1000号",121.45081464949574,31.388045951895045,"2022-05-10"
"宝山区","上海市宝山区淞兴西路187号",121.49677788820259,31.374582784958175,"2022-05-10"
"宝山区","上海市宝山区泰和西路3493弄",121.4097033385094,31.356407483350445,"2022-05-10"
"宝山区","上海市宝山区铁城路1555号",121.45990595040948,31.363107902168917,"2022-05-10"
"宝山区","上海市宝山区铁山路38号",121.47414400291208,31.368750902911728,"2022-05-10"
"宝山区","上海市宝山区纬地路88弄",121.41132136639398,31.3330935649043,"2022-05-10"
"宝山区","上海市宝山区杨泰路99弄",121.45636581822521,31.371330708506623,"2022-05-10"
"宝山区","上海市宝山区一二八纪念路149号",121.47028991295207,31.33392551218595,"2022-05-10"
"宝山区","上海市宝山区友谊路309号",121.48218392705694,31.408392724912428,"2022-05-10"
"宝山区","上海市宝山区友谊路1105号",121.46851306465334,31.403794346780565,"2022-05-10"
"宝山区","上海市宝山区友谊路1500号",121.46459411703552,31.399643360024243,"2022-05-10"
"宝山区","上海市宝山区友谊路2858弄",121.44120098392797,31.39150489692532,"2022-05-10"
"宝山区","上海市宝山区月新南路820号",121.40610742155296,31.415889950998128,"2022-05-10"
"宝山区","上海市宝山区蕰川路1438弄",121.43645191218836,31.36578576088988,"2022-05-10"
"宝山区","上海市宝山区蕰川路1498弄",121.4353475353944,31.367418616403288,"2022-05-10"
"宝山区","上海市宝山区镇泰路211弄",121.45033423570902,31.38804379406011,"2022-05-10"
"宝山区","上海市宝山区竹韵路58弄",121.45259446220267,31.37131891536044,"2022-05-10"
"宝山区","上海市宝山区宝城二村",121.49702492221783,31.415194023958755,"2022-05-10"
"宝山区","上海市宝山区北宗村",121.40980457754038,31.393912380499955,"2022-05-10"
"宝山区","上海市宝山区蔡家弄村",121.37225477840944,31.3787062193081,"2022-05-10"
"宝山区","上海市宝山区陈巷村",121.48065572972337,31.382419535425782,"2022-05-10"
"宝山区","上海市宝山区东街村",121.45082471051747,31.384928907125317,"2022-05-10"
"宝山区","上海市宝山区共富二村",121.43808296550284,31.35455387107869,"2022-05-10"
"宝山区","上海市宝山区共康八村",121.43955951026958,31.330407825842034,"2022-05-10"
"宝山区","上海市宝山区海滨二村",121.49816496174054,31.38690892007598,"2022-05-10"
"宝山区","上海市宝山区呼玛一村",121.45830175642976,31.34814388423969,"2022-05-10"
"宝山区","上海市宝山区呼玛二村",121.4533096930497,31.34725655242708,"2022-05-10"
"宝山区","上海市宝山区聚源桥村",121.39220704209157,31.4452782264077,"2022-05-10"
"宝山区","上海市宝山区毛家弄村",121.39292775260222,31.433511738998423,"2022-05-10"
"宝山区","上海市宝山区炮台村",121.50195608048432,31.39308513052261,"2022-05-10"
"宝山区","上海市宝山区祁连一村",121.38717096174153,31.318992899187652,"2022-05-10"
"宝山区","上海市宝山区羌家村",121.39682729682103,31.36633097424639,"2022-05-10"
"宝山区","上海市宝山区勤丰村",121.39903694871447,31.420418857930958,"2022-05-10"
"宝山区","上海市宝山区沈巷村",121.41530499200853,31.427333131237116,"2022-05-10"
"宝山区","上海市宝山区盛宅一村",121.41813815775646,31.358906995316982,"2022-05-10"
"宝山区","上海市宝山区泗塘一村",121.46039983877887,31.3447274291945,"2022-05-10"
"宝山区","上海市宝山区泗塘二村",121.46202424463257,31.342166470641395,"2022-05-10"
"宝山区","上海市宝山区谭杨村",121.40116925650352,31.380653223924327,"2022-05-10"
"宝山区","上海市宝山区通河六村",121.45829241405247,31.33723587782797,"2022-05-10"
"宝山区","上海市宝山区通河七村",121.45834577339976,31.335453981011785,"2022-05-10"
"宝山区","上海市宝山区通河八村",121.45409059002955,31.335837597921895,"2022-05-10"
"宝山区","上海市宝山区西街村",121.4439725259179,31.378533266725405,"2022-05-10"
"宝山区","上海市宝山区永清二村",121.50034766446869,31.395755884640256,"2022-05-10"
"宝山区","上海市宝山区朱家弄村",121.3959866625248,31.347668338968923,"2022-05-10"
"闵行区","上海市闵行区古美西路631弄",121.39713550544151,31.136425141856115,"2022-05-10"
"闵行区","上海市闵行区华江路1415弄",121.33403852642066,31.232086224690402,"2022-05-10"
"闵行区","上海市闵行区许浦村",121.3441344023862,31.230791664007622,"2022-05-10"
"闵行区","上海市闵行区银都路759弄",121.4481276380543,31.1110314749479,"2022-05-10"
"闵行区","上海市闵行区赵家村",121.26685901834861,31.253805076628016,"2022-05-10"
"闵行区","上海市闵行区朱梅路266弄",121.43960891707263,31.12875815664537,"2022-05-10"
"嘉定区","上海市嘉定区陈村村",121.33539829147112,31.359151446343855,"2022-05-10"
"嘉定区","上海市嘉定区东环路651弄",121.22421753375657,31.333024010721534,"2022-05-10"
"嘉定区","上海市嘉定区龚闵村",121.18659335492941,31.265256220811533,"2022-05-10"
"嘉定区","上海市嘉定区横河村",121.22009251485476,31.27684160486283,"2022-05-10"
"嘉定区","上海市嘉定区曲江路100弄",121.35194202472618,31.26110986246522,"2022-05-10"
"松江区","上海市松江区宝胜路33号",121.27053003364567,31.030585850990686,"2022-05-10"
"松江区","上海市松江区北松公路4562号",121.3258405903366,31.020984410688616,"2022-05-10"
"松江区","上海市松江区场东路333弄",121.36486513762327,31.104075434767886,"2022-05-10"
"松江区","上海市松江区车香路253号",121.29209996589017,31.012120466966127,"2022-05-10"
"松江区","上海市松江区谷阳北路1066号",121.24231919825758,31.03248742472658,"2022-05-10"
"松江区","上海市松江区沪松公路1399弄",121.32530502059156,31.14312905837619,"2022-05-10"
"松江区","上海市松江区沪亭北路338弄",121.32469048979218,31.150787144170913,"2022-05-10"
"松江区","上海市松江区九新公路28弄",121.23447959624146,31.037135176464492,"2022-05-10"
"松江区","上海市松江区联阳路12弄",121.29172968435896,31.02969829238405,"2022-05-10"
"松江区","上海市松江区思贤路3255弄",121.18071529282487,31.028293251387623,"2022-05-10"
"松江区","上海市松江区团结村",121.32120129153033,30.95318124031716,"2022-05-10"
"松江区","上海市松江区中山二路182弄",121.23709582120871,31.016153264977557,"2022-05-10"
"松江区","上海市松江区朱龙村",121.32345531971596,31.124663947388452,"2022-05-10"
"青浦区","上海市青浦区光联村",121.31758085083345,31.16595443656359,"2022-05-10"
"青浦区","上海市青浦区京华路215号",121.28064486385748,31.176447200682134,"2022-05-10"
"青浦区","上海市青浦区京华路281弄",121.27978680243436,31.177331521486025,"2022-05-10"
"青浦区","上海市青浦区京华路86号",121.28265590040267,31.1741856526724,"2022-05-10"
"青浦区","上海市青浦区龙联路58弄",121.3036756205223,31.204284588875726,"2022-05-10"
"青浦区","上海市青浦区龙联路59弄",121.30450637345793,31.202863854656485,"2022-05-10"
"青浦区","上海市青浦区清河湾路388弄",121.09867394890409,31.170857071380127,"2022-05-10"
"青浦区","上海市青浦区胜利路738号",121.11084967161689,31.176678226338424,"2022-05-10"
"青浦区","上海市青浦区崧泽大道333号",121.3086175584549,31.196205058244473,"2022-05-10"
"青浦区","上海市青浦区诸光路1355弄",121.30626399801875,31.1876238336174,"2022-05-10"
"崇明区","上海市崇明区花博园北P1P2集中隔离点",121.48784792295845,31.70267693678262,"2022-05-10"
"崇明区","上海市崇明区花博园北P3保障点",121.48784792295845,31.70267693678262,"2022-05-10"
"崇明区","上海市崇明区大通路388号",121.62455331309461,31.551527319680428,"2022-05-10"
"崇明区","上海市崇明区已对相关居住地落实终末消毒等措施",121.40355686271847,31.62856998440405,"2022-05-10"
"崇明区","上海市崇明区资料各区卫健委新闻办",121.40355686271847,31.62856998440405,"2022-05-10"
"崇明区","上海市崇明区编辑吴维嘉",121.40355686271847,31.62856998440405,"2022-05-10"
