"district","address","lng","lat","date"
"浦东新区","上海市浦东新区北艾路1200弄",121.53888676745775,31.188481867872763,"2022-05-06"
"浦东新区","上海市浦东新区北艾路155弄",121.5498820268999,31.192539931368604,"2022-05-06"
"浦东新区","上海市浦东新区北艾路1765弄",121.52839860147601,31.184265453706548,"2022-05-06"
"浦东新区","上海市浦东新区北蔡镇北蔡村丁家宅",121.56985791601693,31.192184222632797,"2022-05-06"
"浦东新区","上海市浦东新区北蔡镇南新村赵家厍",121.54343515774643,31.176791383130574,"2022-05-06"
"浦东新区","上海市浦东新区北蔡镇卫行村顾家队张家宅",121.58495924011461,31.172225069869427,"2022-05-06"
"浦东新区","上海市浦东新区北蔡镇卫行村沈家队沈家宅",121.58720141066752,31.166665202015878,"2022-05-06"
"浦东新区","上海市浦东新区北蔡镇卫行村张浜队杨家宅",121.58720141066752,31.166665202015878,"2022-05-06"
"浦东新区","上海市浦东新区北蔡镇五星村陈家队陈家宅",121.57857947438275,31.194413133383005,"2022-05-06"
"浦东新区","上海市浦东新区北蔡镇杨桥村西计队金家宅",121.57064465198256,31.190980934765687,"2022-05-06"
"浦东新区","上海市浦东新区北蔡镇杨桥村西计队西计家宅",121.57064465198256,31.190980934765687,"2022-05-06"
"浦东新区","上海市浦东新区北蔡镇中界村陈家队陈家宅",121.57857947438275,31.194413133383005,"2022-05-06"
"浦东新区","上海市浦东新区北蔡镇中界村庄家队蔡家宅",121.57857947438275,31.194413133383005,"2022-05-06"
"浦东新区","上海市浦东新区博兴路1663弄",121.60720101505002,31.28077609395253,"2022-05-06"
"浦东新区","上海市浦东新区博兴路916弄",121.59799500052266,31.270420178729555,"2022-05-06"
"浦东新区","上海市浦东新区曹路镇联合村路北宅",121.69192757380122,31.275051532610338,"2022-05-06"
"浦东新区","上海市浦东新区曹路镇联合村西柴场",121.6774631483101,31.303329042391074,"2022-05-06"
"浦东新区","上海市浦东新区曹路镇民建村曹家宅",121.65358097768292,31.273397305600508,"2022-05-06"
"浦东新区","上海市浦东新区长岛路1203弄",121.60099758668976,31.270094010785566,"2022-05-06"
"浦东新区","上海市浦东新区长岛路588弄",121.58873194359542,31.266885513110953,"2022-05-06"
"浦东新区","上海市浦东新区长清路693弄",121.53688426481492,31.18970225553777,"2022-05-06"
"浦东新区","上海市浦东新区昌里东路650弄",121.52139900494227,31.18353589919409,"2022-05-06"
"浦东新区","上海市浦东新区昌里路167弄",121.50454544611682,31.181091626219736,"2022-05-06"
"浦东新区","上海市浦东新区昌里路340弄",121.50096839357609,31.178239082858738,"2022-05-06"
"浦东新区","上海市浦东新区陈春路620弄",121.55290760968805,31.178078194108803,"2022-05-06"
"浦东新区","上海市浦东新区成山路1728弄",121.53553420146397,31.181824984316307,"2022-05-06"
"浦东新区","上海市浦东新区成山路24弄",121.49230899795155,31.17414687706441,"2022-05-06"
"浦东新区","上海市浦东新区城南路627弄",121.70162621907025,31.19559058416537,"2022-05-06"
"浦东新区","上海市浦东新区川沙路1666弄",121.67243200864038,31.28581336211361,"2022-05-06"
"浦东新区","上海市浦东新区川沙路2373号",121.6924212825095,31.24453740884437,"2022-05-06"
"浦东新区","上海市浦东新区川沙路326弄",121.67276932235937,31.286348319613808,"2022-05-06"
"浦东新区","上海市浦东新区川沙路389弄",121.67545489651201,31.28529236580147,"2022-05-06"
"浦东新区","上海市浦东新区川沙新镇药师村",121.68830201276296,31.209451836559015,"2022-05-06"
"浦东新区","上海市浦东新区川周公路4318弄",121.58742940060596,31.12689477181507,"2022-05-06"
"浦东新区","上海市浦东新区创新西路28弄",121.6642993793669,31.210286275536046,"2022-05-06"
"浦东新区","上海市浦东新区创新西路300弄",121.6596102246048,31.209471139848752,"2022-05-06"
"浦东新区","上海市浦东新区创新西路76号",121.6633646026532,31.2098184439579,"2022-05-06"
"浦东新区","上海市浦东新区德平路100弄",121.56868266291822,31.253939981179144,"2022-05-06"
"浦东新区","上海市浦东新区丁香路1599弄",121.57230687649823,31.233862298835515,"2022-05-06"
"浦东新区","上海市浦东新区丁香路910弄",121.56039202170554,31.231240477950827,"2022-05-06"
"浦东新区","上海市浦东新区丁香路999弄",121.5605138319327,31.233326037303364,"2022-05-06"
"浦东新区","上海市浦东新区东建路228弄",121.53881041148941,31.206686097292025,"2022-05-06"
"浦东新区","上海市浦东新区东建新村",121.52686142108733,31.222713416923376,"2022-05-06"
"浦东新区","上海市浦东新区东靖路51弄",121.58962611690005,31.28158489894264,"2022-05-06"
"浦东新区","上海市浦东新区东康名苑",121.63093855849009,31.148392161687806,"2022-05-06"
"浦东新区","上海市浦东新区东陆路1018弄",121.59902095524562,31.277911928226455,"2022-05-06"
"浦东新区","上海市浦东新区东三街15弄",121.5137983521918,31.206974419328482,"2022-05-06"
"浦东新区","上海市浦东新区东书房路390弄",121.5416177958692,31.16966648705868,"2022-05-06"
"浦东新区","上海市浦东新区繁荣东路150弄",121.59321448809021,31.11201697090244,"2022-05-06"
"浦东新区","上海市浦东新区芳华路188弄",121.53688426481492,31.18970225553777,"2022-05-06"
"浦东新区","上海市浦东新区芳华路229弄",121.56081054224263,31.202551968217783,"2022-05-06"
"浦东新区","上海市浦东新区芳华路310弄",121.56401821155765,31.201334527828102,"2022-05-06"
"浦东新区","上海市浦东新区芳华路411弄",121.56557030381781,31.202399460853744,"2022-05-06"
"浦东新区","上海市浦东新区芳华路478弄",121.53688426481492,31.18970225553777,"2022-05-06"
"浦东新区","上海市浦东新区芳华路503弄",121.53688426481492,31.18970225553777,"2022-05-06"
"浦东新区","上海市浦东新区芳华路63号",121.55817159014597,31.20073105268403,"2022-05-06"
"浦东新区","上海市浦东新区芳芯路210弄",121.56219528018626,31.197753542850066,"2022-05-06"
"浦东新区","上海市浦东新区芳芯路251弄",121.5630040246369,31.19846669279656,"2022-05-06"
"浦东新区","上海市浦东新区芳芯路312弄",121.56407749972132,31.19718263286784,"2022-05-06"
"浦东新区","上海市浦东新区福山路40弄",121.53090649079877,31.242456421863974,"2022-05-06"
"浦东新区","上海市浦东新区高东镇先锋村卢家宅",121.59152154152609,31.290378301115442,"2022-05-06"
"浦东新区","上海市浦东新区高科西路3030弄",121.56984875330073,31.195892840738562,"2022-05-06"
"浦东新区","上海市浦东新区高桥镇南塘村顾家宅",121.5746809183,31.34539427690696,"2022-05-06"
"浦东新区","上海市浦东新区高桥镇三岔港村三岔港",121.51447127284932,31.371531268842322,"2022-05-06"
"浦东新区","上海市浦东新区高桥镇西浜头",121.61563583429707,31.292504199206448,"2022-05-06"
"浦东新区","上海市浦东新区高桥镇西新村尖角圩",121.5232757448137,31.361953760539233,"2022-05-06"
"浦东新区","上海市浦东新区高桥镇新农村沈家宅",121.55850126826813,31.362552263234768,"2022-05-06"
"浦东新区","上海市浦东新区高桥镇中新村",121.54851678218584,31.357736998023213,"2022-05-06"
"浦东新区","上海市浦东新区崮山路717号",121.56675642641318,31.2457458744099,"2022-05-06"
"浦东新区","上海市浦东新区海纳路129弄",121.67672465135036,31.298365076552425,"2022-05-06"
"浦东新区","上海市浦东新区海鹏路301弄",121.68073091426376,31.295363983048894,"2022-05-06"
"浦东新区","上海市浦东新区海鹏路380弄",121.67648363598202,31.293987138169218,"2022-05-06"
"浦东新区","上海市浦东新区海容路99弄",121.68083502787236,31.286961889101804,"2022-05-06"
"浦东新区","上海市浦东新区海松路398弄",121.68749075305689,31.283934428831106,"2022-05-06"
"浦东新区","上海市浦东新区海松路421弄",121.68724659361928,31.286058313469407,"2022-05-06"
"浦东新区","上海市浦东新区海阳路1318弄",121.51982517368879,31.16476734350873,"2022-05-06"
"浦东新区","上海市浦东新区航三路航吉路交界口工地生活区",121.61429035230421,31.04579326766702,"2022-05-06"
"浦东新区","上海市浦东新区航头镇梅园村",121.59123174816858,31.06555502677004,"2022-05-06"
"浦东新区","上海市浦东新区航头镇沈庄村",121.58911480140377,31.0850414945296,"2022-05-06"
"浦东新区","上海市浦东新区合庆镇勤奋村卫家宅",121.732101682649,31.261476576156298,"2022-05-06"
"浦东新区","上海市浦东新区合庆镇庆星村顾家宅",121.72570709487623,31.240436443995055,"2022-05-06"
"浦东新区","上海市浦东新区合庆镇庆星村薛家宅",121.72066769079579,31.241418342393125,"2022-05-06"
"浦东新区","上海市浦东新区合庆镇营房村青晏二宅",121.74050551035594,31.214404312540196,"2022-05-06"
"浦东新区","上海市浦东新区和佳路105弄",121.52030208408404,31.133297374938646,"2022-05-06"
"浦东新区","上海市浦东新区和炯路77弄",121.52553031198265,31.139159418419815,"2022-05-06"
"浦东新区","上海市浦东新区和龙路55弄",121.57975787174837,31.344955201239863,"2022-05-06"
"浦东新区","上海市浦东新区鹤洁路138弄",121.60424523059997,31.075308430310802,"2022-05-06"
"浦东新区","上海市浦东新区鹤永路750弄",121.6099678858513,31.07777749395087,"2022-05-06"
"浦东新区","上海市浦东新区沪南路3158弄",121.57200872889946,31.12772554060315,"2022-05-06"
"浦东新区","上海市浦东新区花山路300弄",121.57570166285099,31.352227321137764,"2022-05-06"
"浦东新区","上海市浦东新区花园石桥路28弄",121.50753410854851,31.239186613907332,"2022-05-06"
"浦东新区","上海市浦东新区华夏东路3179号",121.72226883053679,31.21017647932672,"2022-05-06"
"浦东新区","上海市浦东新区华夏二路1255弄",121.69800191565969,31.18281197716778,"2022-05-06"
"浦东新区","上海市浦东新区环林西路777弄",121.53291384429136,31.146582247458515,"2022-05-06"
"浦东新区","上海市浦东新区惠南镇黄路村富强",121.77243425258874,31.03565606179299,"2022-05-06"
"浦东新区","上海市浦东新区金口路471弄",121.58930820658007,31.25260682548617,"2022-05-06"
"浦东新区","上海市浦东新区金桥路1506弄",121.59646078454217,31.255564377215766,"2022-05-06"
"浦东新区","上海市浦东新区金杨路660弄",121.58839992987893,31.25750168417267,"2022-05-06"
"浦东新区","上海市浦东新区金杨路750弄",121.58977218137598,31.258610198044636,"2022-05-06"
"浦东新区","上海市浦东新区金杨路785弄",121.58943756257352,31.25969878847117,"2022-05-06"
"浦东新区","上海市浦东新区锦绣路888弄",121.55980578752973,31.228805401016864,"2022-05-06"
"浦东新区","上海市浦东新区锦尊路306号",121.53684797327232,31.18871595308205,"2022-05-06"
"浦东新区","上海市浦东新区京浦路160弄",121.57469457254375,31.15991251964416,"2022-05-06"
"浦东新区","上海市浦东新区居家桥路151弄",121.56804217108962,31.266784117232525,"2022-05-06"
"浦东新区","上海市浦东新区康桥路90弄",121.58485970786411,31.120077939878794,"2022-05-06"
"浦东新区","上海市浦东新区康桥镇叠桥村",121.62282874617655,31.13384997321586,"2022-05-06"
"浦东新区","上海市浦东新区康桥镇花墙村",121.55274169266035,31.156328175262196,"2022-05-06"
"浦东新区","上海市浦东新区康桥镇火箭村",121.61498941365208,31.14512934591589,"2022-05-06"
"浦东新区","上海市浦东新区康桥镇太平村",121.56002174017434,31.12938396497478,"2022-05-06"
"浦东新区","上海市浦东新区康杉路359弄",121.53688426481492,31.18970225553777,"2022-05-06"
"浦东新区","上海市浦东新区康沈路1199弄",121.58485970786411,31.120077939878794,"2022-05-06"
"浦东新区","上海市浦东新区康沈路1646弄",121.58343670210574,31.121875458295566,"2022-05-06"
"浦东新区","上海市浦东新区康沈路250弄",121.58485970786411,31.120077939878794,"2022-05-06"
"浦东新区","上海市浦东新区康沈路726弄",121.58485970786411,31.120077939878794,"2022-05-06"
"浦东新区","上海市浦东新区莱阳路111弄",121.58953781346843,31.332463488478048,"2022-05-06"
"浦东新区","上海市浦东新区蓝桉路455弄",121.5939340308037,31.24009589165173,"2022-05-06"
"浦东新区","上海市浦东新区崂山三村",121.52639681747759,31.238932508563483,"2022-05-06"
"浦东新区","上海市浦东新区崂山四村",121.52454199626058,31.24117281086977,"2022-05-06"
"浦东新区","上海市浦东新区老港镇牛肚村",121.83549413159204,31.058898708361337,"2022-05-06"
"浦东新区","上海市浦东新区历城路100弄",121.49791550230043,31.179897773390458,"2022-05-06"
"浦东新区","上海市浦东新区历城路25号",121.49916495543425,31.18285584670822,"2022-05-06"
"浦东新区","上海市浦东新区丽正路1059弄",121.8706291956816,30.985619303423114,"2022-05-06"
"浦东新区","上海市浦东新区莲安西路185弄",121.55757825935662,31.185955934654242,"2022-05-06"
"浦东新区","上海市浦东新区林展路278弄",121.51290103481787,31.132805821704117,"2022-05-06"
"浦东新区","上海市浦东新区林展路422弄",121.51619188722312,31.149587574480986,"2022-05-06"
"浦东新区","上海市浦东新区临沂北路210弄",121.52554279842924,31.21062431115841,"2022-05-06"
"浦东新区","上海市浦东新区临沂路181弄",121.52066814357934,31.19757925080322,"2022-05-06"
"浦东新区","上海市浦东新区灵山路2011弄",121.58001784116533,31.249525074658717,"2022-05-06"
"浦东新区","上海市浦东新区灵岩南路351弄",121.50324020821083,31.16013524262059,"2022-05-06"
"浦东新区","上海市浦东新区灵岩南路801弄",121.50452478509008,31.153328935788675,"2022-05-06"
"浦东新区","上海市浦东新区凌河路420弄",121.60593224834773,31.279917054061343,"2022-05-06"
"浦东新区","上海市浦东新区凌兆路379弄",121.52553031198265,31.139159418419815,"2022-05-06"
"浦东新区","上海市浦东新区龙居路180弄",121.56897173763133,31.258551238155807,"2022-05-06"
"浦东新区","上海市浦东新区龙阳路1880弄",121.55929249576131,31.206698915055398,"2022-05-06"
"浦东新区","上海市浦东新区罗山路108弄",121.55887945488784,31.254641589752865,"2022-05-06"
"浦东新区","上海市浦东新区罗山路1502弄",121.575171482939,31.234888265801676,"2022-05-06"
"浦东新区","上海市浦东新区绿林路320弄",121.55483474449859,31.176162646734344,"2022-05-06"
"浦东新区","上海市浦东新区苗桥路935弄",121.60251662130713,31.104273708865044,"2022-05-06"
"浦东新区","上海市浦东新区妙境北路116弄",121.6970792660704,31.20767367765606,"2022-05-06"
"浦东新区","上海市浦东新区妙境北路451号",121.69277665216926,31.21367406618473,"2022-05-06"
"浦东新区","上海市浦东新区妙栏路353弄",121.6960583418583,31.192565030175434,"2022-05-06"
"浦东新区","上海市浦东新区民雪路918弄",121.66510605771485,31.276406126650397,"2022-05-06"
"浦东新区","上海市浦东新区明月路888弄",121.59560398074676,31.242521103659488,"2022-05-06"
"浦东新区","上海市浦东新区南码头路1136弄",121.51972788720205,31.18987494042182,"2022-05-06"
"浦东新区","上海市浦东新区南码头路1521弄",121.52539646446166,31.18286750920583,"2022-05-06"
"浦东新区","上海市浦东新区南码头路1675弄",121.52084888264797,31.18090401847181,"2022-05-06"
"浦东新区","上海市浦东新区南码头路450弄",121.5163195364361,31.200368116304254,"2022-05-06"
"浦东新区","上海市浦东新区南泉北路101弄",121.52204021541529,31.24412385486496,"2022-05-06"
"浦东新区","上海市浦东新区南泉路1320弄",121.52656039891095,31.215734152342247,"2022-05-06"
"浦东新区","上海市浦东新区浦电路108弄",121.52672191424165,31.22443470201538,"2022-05-06"
"浦东新区","上海市浦东新区浦电路221号",121.53004456666196,31.22498830738765,"2022-05-06"
"浦东新区","上海市浦东新区浦电路307号",121.53236327284431,31.225631306922903,"2022-05-06"
"浦东新区","上海市浦东新区浦电路311号",121.53317174780328,31.22577026650125,"2022-05-06"
"浦东新区","上海市浦东新区浦电路62弄",121.52494353882354,31.224365530063924,"2022-05-06"
"浦东新区","上海市浦东新区浦东大道136弄",121.52017353656555,31.24402420953977,"2022-05-06"
"浦东新区","上海市浦东新区浦东大道140弄",121.52166903557857,31.244048831438676,"2022-05-06"
"浦东新区","上海市浦东新区浦东大道2639弄",121.57382941450709,31.27009640284229,"2022-05-06"
"浦东新区","上海市浦东新区浦东大道2641弄",121.57542031356526,31.2714724426133,"2022-05-06"
"浦东新区","上海市浦东新区浦东大道2742弄",121.57797931647153,31.272927088984172,"2022-05-06"
"浦东新区","上海市浦东新区浦东大道2920弄",121.58360261913344,31.280936343289373,"2022-05-06"
"浦东新区","上海市浦东新区浦东南路1299号",121.52421420457999,31.230766807032126,"2022-05-06"
"浦东新区","上海市浦东新区浦东南路2108号",121.52288614971404,31.215786267718542,"2022-05-06"
"浦东新区","上海市浦东新区浦东南路2351弄",121.51946171927945,31.20559866583432,"2022-05-06"
"浦东新区","上海市浦东新区浦东南路3606弄",121.51135909341001,31.196098875064006,"2022-05-06"
"浦东新区","上海市浦东新区浦建路60弄",121.52445369282894,31.213159230587877,"2022-05-06"
"浦东新区","上海市浦东新区栖霞路190弄",121.52608115292138,31.244186142787363,"2022-05-06"
"浦东新区","上海市浦东新区钱仓路313弄",121.52782548256064,31.245216318802356,"2022-05-06"
"浦东新区","上海市浦东新区清溪路365弄",121.57808163346913,31.347103664355974,"2022-05-06"
"浦东新区","上海市浦东新区乳山路313弄",121.52639681747759,31.238932508563483,"2022-05-06"
"浦东新区","上海市浦东新区瑞意路399弄",121.59268628445034,31.102791860761887,"2022-05-06"
"浦东新区","上海市浦东新区三彩路52弄",121.52553031198265,31.139159418419815,"2022-05-06"
"浦东新区","上海市浦东新区三航路2号工地生活区",121.49437545994671,31.138072208193165,"2022-05-06"
"浦东新区","上海市浦东新区三林路168号",121.50263852318024,31.141592189223104,"2022-05-06"
"浦东新区","上海市浦东新区三林路184号",121.5025309960107,31.14241486936929,"2022-05-06"
"浦东新区","上海市浦东新区三林路235号",121.50273652831137,31.143691257217654,"2022-05-06"
"浦东新区","上海市浦东新区三林路788弄",121.51430643378824,31.147340445444716,"2022-05-06"
"浦东新区","上海市浦东新区三林路88弄",121.53688426481492,31.18970225553777,"2022-05-06"
"浦东新区","上海市浦东新区三林镇临江村王家宅队王家宅",121.48402985504939,31.126877924520862,"2022-05-06"
"浦东新区","上海市浦东新区三林镇临江村周北队周家宅",121.47873641017075,31.124012372204763,"2022-05-06"
"浦东新区","上海市浦东新区三林镇三林村镇前队金家宅",121.59324952200511,31.131094754366096,"2022-05-06"
"浦东新区","上海市浦东新区三林镇天花庵村西瞿队大瞿家宅",121.53261120516505,31.1270776188598,"2022-05-06"
"浦东新区","上海市浦东新区三林镇西林村西林队金家宅",121.50671332680406,31.140756597820538,"2022-05-06"
"浦东新区","上海市浦东新区三舒路192弄",121.51063065747196,31.127855294432397,"2022-05-06"
"浦东新区","上海市浦东新区三舒路288弄",121.52553031198265,31.139159418419815,"2022-05-06"
"浦东新区","上海市浦东新区三舒路33弄",121.51124950013778,31.131499302275618,"2022-05-06"
"浦东新区","上海市浦东新区三舒路62弄",121.50989269949552,31.130409298630166,"2022-05-06"
"浦东新区","上海市浦东新区沙北新村",121.59455979042195,31.05958429871634,"2022-05-06"
"浦东新区","上海市浦东新区商城路1178弄",121.53443485518086,31.240368827626646,"2022-05-06"
"浦东新区","上海市浦东新区上南路1251弄",121.50260627401242,31.178521236106434,"2022-05-06"
"浦东新区","上海市浦东新区上南路1551弄",121.50452460542898,31.17454150695551,"2022-05-06"
"浦东新区","上海市浦东新区上南路6333弄",121.58485970786411,31.120077939878794,"2022-05-06"
"浦东新区","上海市浦东新区沈家弄路901弄",121.55289826731075,31.244971955008257,"2022-05-06"
"浦东新区","上海市浦东新区沈梅东路300弄",121.59944531476852,31.097618118483165,"2022-05-06"
"浦东新区","上海市浦东新区世博家园大道站路94弄",121.5456103147083,31.165459346349106,"2022-05-06"
"浦东新区","上海市浦东新区水洞港路69弄",121.67247000696344,31.301676859126427,"2022-05-06"
"浦东新区","上海市浦东新区思浦路17弄",121.49938162672326,31.16382581592963,"2022-05-06"
"浦东新区","上海市浦东新区孙环路377弄",121.64576536042392,31.18679174141025,"2022-05-06"
"浦东新区","上海市浦东新区唐镇虹二村朱家宅",121.6683389694147,31.258308838536237,"2022-05-06"
"浦东新区","上海市浦东新区唐镇虹三村顾家宅",121.67957668151398,31.259966342393376,"2022-05-06"
"浦东新区","上海市浦东新区唐镇虹四村吴张家宅",121.65836822740671,31.246790543527457,"2022-05-06"
"浦东新区","上海市浦东新区唐镇虹一村奚家宅",121.6784437386048,31.23792225545962,"2022-05-06"
"浦东新区","上海市浦东新区唐镇暮二村小丁家宅",121.66972460566384,31.2288207632593,"2022-05-06"
"浦东新区","上海市浦东新区唐镇小湾村北街",121.69783994129489,31.23973798369629,"2022-05-06"
"浦东新区","上海市浦东新区唐镇小湾村北张家宅",121.69194760601408,31.236233793114234,"2022-05-06"
"浦东新区","上海市浦东新区唐镇小湾村南街",121.66154355772338,31.2142274263638,"2022-05-06"
"浦东新区","上海市浦东新区唐镇小湾村小湾新村",121.69666496756919,31.239619872733037,"2022-05-06"
"浦东新区","上海市浦东新区听谐路73弄",121.75897404282725,31.063625816245775,"2022-05-06"
"浦东新区","上海市浦东新区潍坊路375弄",121.54147209071549,31.234748161879693,"2022-05-06"
"浦东新区","上海市浦东新区潍坊路606号",121.52801879790638,31.229204895697556,"2022-05-06"
"浦东新区","上海市浦东新区潍坊路89弄",121.52638702594753,31.229708372361436,"2022-05-06"
"浦东新区","上海市浦东新区潍坊西路100弄",121.52290528362141,31.228227886947543,"2022-05-06"
"浦东新区","上海市浦东新区五莲路100弄",121.58579735915542,31.281678100479343,"2022-05-06"
"浦东新区","上海市浦东新区五莲路1047弄",121.60139041568928,31.277745809783077,"2022-05-06"
"浦东新区","上海市浦东新区五莲路108弄",121.58877362497108,31.277157873113886,"2022-05-06"
"浦东新区","上海市浦东新区五莲路1424弄",121.60692101322256,31.281810881647033,"2022-05-06"
"浦东新区","上海市浦东新区五星路151弄",121.53688426481492,31.18970225553777,"2022-05-06"
"浦东新区","上海市浦东新区西营路106号",121.49049307336314,31.1743117119087,"2022-05-06"
"浦东新区","上海市浦东新区下南路1071弄",121.54152697718213,31.191389935442906,"2022-05-06"
"浦东新区","上海市浦东新区下南路161弄",121.54990421504598,31.172731479156155,"2022-05-06"
"浦东新区","上海市浦东新区下南路225弄",121.55278588929146,31.17539958371751,"2022-05-06"
"浦东新区","上海市浦东新区下南路276弄",121.53688426481492,31.18970225553777,"2022-05-06"
"浦东新区","上海市浦东新区下南路309弄",121.52969618510942,31.207201251711854,"2022-05-06"
"浦东新区","上海市浦东新区下南路320弄",121.547891741212,31.175548813657176,"2022-05-06"
"浦东新区","上海市浦东新区下南路500弄",121.5437208188986,31.177967587760506,"2022-05-06"
"浦东新区","上海市浦东新区下南路526弄",121.54440200396682,31.17804189176027,"2022-05-06"
"浦东新区","上海市浦东新区下南路551弄",121.54679904238965,31.179016875274282,"2022-05-06"
"浦东新区","上海市浦东新区香楠路399弄",121.62093718426419,31.219798215319823,"2022-05-06"
"浦东新区","上海市浦东新区小南码头路4弄",121.55045460683195,31.227348292436346,"2022-05-06"
"浦东新区","上海市浦东新区新浦路380弄",121.53688426481492,31.18970225553777,"2022-05-06"
"浦东新区","上海市浦东新区新浦路543弄",121.536926664835,31.1758010055361,"2022-05-06"
"浦东新区","上海市浦东新区新元南路正茂路交界口工地生活区",121.82788341781985,30.883671131631182,"2022-05-06"
"浦东新区","上海市浦东新区秀沿路2875弄",121.61606648195854,31.14493023082232,"2022-05-06"
"浦东新区","上海市浦东新区雪野路34弄",121.50382231018129,31.186552940240503,"2022-05-06"
"浦东新区","上海市浦东新区严杨路30弄",121.53251293054227,31.198276108155607,"2022-05-06"
"浦东新区","上海市浦东新区严杨路60弄",121.53619499499712,31.20036688077375,"2022-05-06"
"浦东新区","上海市浦东新区严镇路75弄",121.53464398070359,31.197513842937667,"2022-05-06"
"浦东新区","上海市浦东新区严中路269弄",121.53941200668945,31.19614320172997,"2022-05-06"
"浦东新区","上海市浦东新区杨高南路5055弄",121.5375261041018,31.15615318813709,"2022-05-06"
"浦东新区","上海市浦东新区杨新路197弄",121.4985201517392,31.168845590720398,"2022-05-06"
"浦东新区","上海市浦东新区杨新路77弄",121.5001680033667,31.169243023786645,"2022-05-06"
"浦东新区","上海市浦东新区耀华路331弄",121.49318888819857,31.18096820214458,"2022-05-06"
"浦东新区","上海市浦东新区耀华路500弄",121.48875934372887,31.17679431825375,"2022-05-06"
"浦东新区","上海市浦东新区耀元路228弄",121.48032983521631,31.176939830936618,"2022-05-06"
"浦东新区","上海市浦东新区银峰路676弄",121.65277879086253,31.290487771739045,"2022-05-06"
"浦东新区","上海市浦东新区樱花路801弄",121.56703597908788,31.214397826976995,"2022-05-06"
"浦东新区","上海市浦东新区樱花路89弄",121.55194623128263,31.21198834890661,"2022-05-06"
"浦东新区","上海市浦东新区永泰路2079弄",121.52553031198265,31.139159418419815,"2022-05-06"
"浦东新区","上海市浦东新区永泰路59弄",121.50784662903543,31.140260061067913,"2022-05-06"
"浦东新区","上海市浦东新区玉兰路99弄",121.55488630723487,31.21061728484793,"2022-05-06"
"浦东新区","上海市浦东新区御青路999弄",121.5795247612709,31.16029762997253,"2022-05-06"
"浦东新区","上海市浦东新区御山路360弄",121.57468244541937,31.162035666910167,"2022-05-06"
"浦东新区","上海市浦东新区源深路836号",121.54275496081428,31.233473322337247,"2022-05-06"
"浦东新区","上海市浦东新区跃进新村",121.70929756846435,31.214192913832104,"2022-05-06"
"浦东新区","上海市浦东新区云汉路978弄",121.8143022961367,30.916615866358676,"2022-05-06"
"浦东新区","上海市浦东新区云台路255弄",121.53688426481492,31.18970225553777,"2022-05-06"
"浦东新区","上海市浦东新区枣庄路210弄",121.57738921958203,31.264391559266734,"2022-05-06"
"浦东新区","上海市浦东新区张江镇沔北村诸家宅",121.62881011341473,31.167725971391313,"2022-05-06"
"浦东新区","上海市浦东新区张江镇中心村蔡家圈宅",121.64654302350391,31.17777889241122,"2022-05-06"
"浦东新区","上海市浦东新区张杨北路555弄",121.59349026788176,31.27206427314543,"2022-05-06"
"浦东新区","上海市浦东新区张杨路310弄",121.51973938551258,31.230805867990643,"2022-05-06"
"浦东新区","上海市浦东新区张杨路370弄",121.52153842195742,31.232164345489466,"2022-05-06"
"浦东新区","上海市浦东新区张杨路98号",121.58962611690005,31.28158489894264,"2022-05-06"
"浦东新区","上海市浦东新区招远路19弄",121.5212299438453,31.241645116927586,"2022-05-06"
"浦东新区","上海市浦东新区赵高公路587号",121.63309898324158,31.32217407933106,"2022-05-06"
"浦东新区","上海市浦东新区赵高路610号",121.63347411562255,31.321740894877177,"2022-05-06"
"浦东新区","上海市浦东新区周浦镇姚桥村",121.60491842074917,31.120351998352223,"2022-05-06"
"浦东新区","上海市浦东新区祝桥镇滨海一村龚家宅",121.76968175467563,31.15744700355159,"2022-05-06"
"浦东新区","上海市浦东新区紫叶路51弄",121.55761401191593,31.190270894229712,"2022-05-06"
"浦东新区","上海市浦东新区紫叶路65弄",121.53688426481492,31.18970225553777,"2022-05-06"
"黄浦区","上海市黄浦区半淞园路628号",121.50154258756031,31.204294099073216,"2022-05-06"
"黄浦区","上海市黄浦区保屯路211弄",121.4983058160445,31.209535149529046,"2022-05-06"
"黄浦区","上海市黄浦区保屯路50弄",121.4963149913733,31.211889115666636,"2022-05-06"
"黄浦区","上海市黄浦区北京东路275号",121.49098067359394,31.246145296747233,"2022-05-06"
"黄浦区","上海市黄浦区北京东路288弄",121.49064632428312,31.24648026991378,"2022-05-06"
"黄浦区","上海市黄浦区北京东路316弄",121.47709924837882,31.20540045126984,"2022-05-06"
"黄浦区","上海市黄浦区北京西路218弄",121.47608200721932,31.242234743581015,"2022-05-06"
"黄浦区","上海市黄浦区北京西路239弄",121.4757437951948,31.241462338857026,"2022-05-06"
"黄浦区","上海市黄浦区北京西路246号",121.47552793238076,31.24185282586384,"2022-05-06"
"黄浦区","上海市黄浦区北京西路256号",121.47543316114945,31.241795244763107,"2022-05-06"
"黄浦区","上海市黄浦区北京西路284号",121.47497906771414,31.24169158325513,"2022-05-06"
"黄浦区","上海市黄浦区长乐路81号",121.47477200829411,31.228018835393915,"2022-05-06"
"黄浦区","上海市黄浦区成都南路99弄",121.47438609624702,31.227539744288958,"2022-05-06"
"黄浦区","上海市黄浦区重庆南路205弄",121.47758550115135,31.220500929265803,"2022-05-06"
"黄浦区","上海市黄浦区重庆南路26弄",121.49158559252436,31.23724715206362,"2022-05-06"
"黄浦区","上海市黄浦区打浦路303弄",121.47819518110099,31.205904673705177,"2022-05-06"
"黄浦区","上海市黄浦区打浦路316弄",121.4771429060266,31.205298679857936,"2022-05-06"
"黄浦区","上海市黄浦区打浦路339弄",121.4785522575412,31.20529674944314,"2022-05-06"
"黄浦区","上海市黄浦区打浦路398弄",121.47878797290703,31.203810858761482,"2022-05-06"
"黄浦区","上海市黄浦区打浦路399弄",121.4785883694227,31.205398057558085,"2022-05-06"
"黄浦区","上海市黄浦区打浦路457弄",121.48065285514573,31.20307504728536,"2022-05-06"
"黄浦区","上海市黄浦区打浦路470弄",121.4793632477556,31.203063078428812,"2022-05-06"
"黄浦区","上海市黄浦区打浦路80弄",121.4768743126791,31.209469750012023,"2022-05-06"
"黄浦区","上海市黄浦区大夫坊27号",121.49158559252436,31.23724715206362,"2022-05-06"
"黄浦区","上海市黄浦区大夫坊95弄",121.49158559252436,31.23724715206362,"2022-05-06"
"黄浦区","上海市黄浦区大沽路179号",121.47742138073468,31.23203759214419,"2022-05-06"
"黄浦区","上海市黄浦区大沽路183弄",121.4776655401723,31.231942951592927,"2022-05-06"
"黄浦区","上海市黄浦区大沽路193号",121.4771249399164,31.23196919775867,"2022-05-06"
"黄浦区","上海市黄浦区大沽路197号",121.47710778228115,31.23191454396995,"2022-05-06"
"黄浦区","上海市黄浦区大沽路254号",121.47588581729593,31.231991738577477,"2022-05-06"
"黄浦区","上海市黄浦区大吉路135弄",121.4913226585016,31.22025503402778,"2022-05-06"
"黄浦区","上海市黄浦区大吉路173弄",121.49031718514428,31.22014540391755,"2022-05-06"
"黄浦区","上海市黄浦区大吉路310弄",121.4683930510372,31.223077810739706,"2022-05-06"
"黄浦区","上海市黄浦区大境路50号",121.49363238162884,31.231105849432982,"2022-05-06"
"黄浦区","上海市黄浦区大林路43弄",121.49331950181971,31.219241105018995,"2022-05-06"
"黄浦区","上海市黄浦区淡水路222号",121.47968555977259,31.22317585713875,"2022-05-06"
"黄浦区","上海市黄浦区淡水路225弄",121.47987824630448,31.222755183320498,"2022-05-06"
"黄浦区","上海市黄浦区淡水路227弄",121.4798842649514,31.222721059943833,"2022-05-06"
"黄浦区","上海市黄浦区淡水路229弄",121.48032443465128,31.222361837307538,"2022-05-06"
"黄浦区","上海市黄浦区东街167弄",121.50389713903027,31.228933857077042,"2022-05-06"
"黄浦区","上海市黄浦区董家渡路199号",121.51068473546367,31.219967061703315,"2022-05-06"
"黄浦区","上海市黄浦区多稼路208号",121.50854919377478,31.217548136407576,"2022-05-06"
"黄浦区","上海市黄浦区方浜西路63弄",121.48894178957794,31.22685144217224,"2022-05-06"
"黄浦区","上海市黄浦区方斜路548弄",121.48929653042383,31.218404584087196,"2022-05-06"
"黄浦区","上海市黄浦区方斜路556弄",121.48243060174998,31.20848141644904,"2022-05-06"
"黄浦区","上海市黄浦区凤阳路228弄",121.4782059607671,31.240573683460127,"2022-05-06"
"黄浦区","上海市黄浦区福州路105号",121.494982804302,31.240828710592687,"2022-05-06"
"黄浦区","上海市黄浦区福州路185号",121.49338965948004,31.240400783313696,"2022-05-06"
"黄浦区","上海市黄浦区福州路384弄",121.4896390543148,31.24003344662922,"2022-05-06"
"黄浦区","上海市黄浦区福州路531号",121.48950484747161,31.238861494795984,"2022-05-06"
"黄浦区","上海市黄浦区福州路614弄",121.48585503218456,31.238969867958666,"2022-05-06"
"黄浦区","上海市黄浦区复兴东路330号",121.50468549194582,31.226560942574764,"2022-05-06"
"黄浦区","上海市黄浦区复兴东路404弄",121.50363519314355,31.226892511933613,"2022-05-06"
"黄浦区","上海市黄浦区复兴东路443弄",121.50292265721305,31.22774671256482,"2022-05-06"
"黄浦区","上海市黄浦区复兴东路464弄",121.50274919441907,31.227137308953168,"2022-05-06"
"黄浦区","上海市黄浦区复兴中路575号",121.47247504110508,31.220941454566738,"2022-05-06"
"黄浦区","上海市黄浦区牯岭路145弄",121.47755549774732,31.24176792074311,"2022-05-06"
"黄浦区","上海市黄浦区广东路123号",121.49535191803604,31.23925670116504,"2022-05-06"
"黄浦区","上海市黄浦区广东路138号",121.49468869907803,31.239072374652263,"2022-05-06"
"黄浦区","上海市黄浦区广西北路200号",121.48480940457094,31.238537223635465,"2022-05-06"
"黄浦区","上海市黄浦区贵州路165号",121.482465006851,31.242778749794756,"2022-05-06"
"黄浦区","上海市黄浦区海潮路93弄",121.50591203828914,31.214961528834515,"2022-05-06"
"黄浦区","上海市黄浦区海口路19号",121.48759037876873,31.23732604045484,"2022-05-06"
"黄浦区","上海市黄浦区海南西弄51弄",121.50368495926881,31.216586910667893,"2022-05-06"
"黄浦区","上海市黄浦区汉口路429弄",121.48884495224397,31.240580321584385,"2022-05-06"
"黄浦区","上海市黄浦区汉口路455弄",121.48877362678648,31.240622388756176,"2022-05-06"
"黄浦区","上海市黄浦区和顺街38号",121.50333812351141,31.22615858022901,"2022-05-06"
"黄浦区","上海市黄浦区和顺街45号",121.50331153366831,31.226227596456525,"2022-05-06"
"黄浦区","上海市黄浦区河南南路600弄",121.49730555285915,31.22561733375389,"2022-05-06"
"黄浦区","上海市黄浦区河南南路790弄",121.49854009412151,31.222041137489935,"2022-05-06"
"黄浦区","上海市黄浦区河南中路130号",121.4928857999195,31.23889167565376,"2022-05-06"
"黄浦区","上海市黄浦区河南中路166弄",121.49293673384192,31.239567539063756,"2022-05-06"
"黄浦区","上海市黄浦区河南中路541弄",121.4903367682044,31.245362813278643,"2022-05-06"
"黄浦区","上海市黄浦区河南中路575弄",121.49014084777266,31.245905566366485,"2022-05-06"
"黄浦区","上海市黄浦区湖北路147号",121.48758876181881,31.238750960215807,"2022-05-06"
"黄浦区","上海市黄浦区湖北路20号",121.4884643401994,31.237066372348682,"2022-05-06"
"黄浦区","上海市黄浦区湖滨路150号",121.48576861519452,31.226622315804303,"2022-05-06"
"黄浦区","上海市黄浦区淮海中路526弄",121.4758250020129,31.227307454470328,"2022-05-06"
"黄浦区","上海市黄浦区淮海中路776号",121.46972739404173,31.22483792097823,"2022-05-06"
"黄浦区","上海市黄浦区淮海中路927弄",121.46719695725068,31.22261969336921,"2022-05-06"
"黄浦区","上海市黄浦区黄河路132弄",121.47704292462332,31.241237030431375,"2022-05-06"
"黄浦区","上海市黄浦区黄河路149号",121.4765859566104,31.241331352832518,"2022-05-06"
"黄浦区","上海市黄浦区黄河路158号",121.47687125844037,31.241592861578166,"2022-05-06"
"黄浦区","上海市黄浦区黄河路215弄",121.4344569553118,31.2533728868238,"2022-05-06"
"黄浦区","上海市黄浦区黄河路253弄",121.47529419328706,31.242852770826993,"2022-05-06"
"黄浦区","上海市黄浦区黄河路255号",121.47590306476172,31.24302118968307,"2022-05-06"
"黄浦区","上海市黄浦区黄河路275号",121.47572412230414,31.243207592417193,"2022-05-06"
"黄浦区","上海市黄浦区黄河路277号",121.47570606636339,31.243230902380994,"2022-05-06"
"黄浦区","上海市黄浦区黄河路281弄",121.47563276463377,31.243446480678184,"2022-05-06"
"黄浦区","上海市黄浦区黄河路288号",121.47590926306974,31.243495416033404,"2022-05-06"
"黄浦区","上海市黄浦区黄家路88弄",121.50359063719026,31.22123451932127,"2022-05-06"
"黄浦区","上海市黄浦区黄家阙路68弄",121.49395002245718,31.220714861457605,"2022-05-06"
"黄浦区","上海市黄浦区黄家阙路76弄",121.49405377674357,31.2203405763063,"2022-05-06"
"黄浦区","上海市黄浦区徽宁路198号",121.49936716400454,31.217225181101387,"2022-05-06"
"黄浦区","上海市黄浦区徽宁路4号",121.50229815522252,31.217236221666944,"2022-05-06"
"黄浦区","上海市黄浦区济南路260弄",121.48654618844394,31.209148542748196,"2022-05-06"
"黄浦区","上海市黄浦区建国东路173号",121.48453784681527,31.218591267486733,"2022-05-06"
"黄浦区","上海市黄浦区建国西路186号",121.46881929700169,31.212972690776716,"2022-05-06"
"黄浦区","上海市黄浦区建国中路26号",121.47441798609263,31.215156866448304,"2022-05-06"
"黄浦区","上海市黄浦区江滨路99号",121.4799350192127,31.19785385522803,"2022-05-06"
"黄浦区","上海市黄浦区江西中路14弄",121.49513353996657,31.237933062014484,"2022-05-06"
"黄浦区","上海市黄浦区江西中路412弄",121.49218557077448,31.246727331150872,"2022-05-06"
"黄浦区","上海市黄浦区江西中路460弄",121.49170039596855,31.247648653100814,"2022-05-06"
"黄浦区","上海市黄浦区江阴街401弄",121.49466606177917,31.21858223442759,"2022-05-06"
"黄浦区","上海市黄浦区金陵东路531号",121.48826383840957,31.23325478769903,"2022-05-06"
"黄浦区","上海市黄浦区金陵东路57号",121.49795053621531,31.237093157409618,"2022-05-06"
"黄浦区","上海市黄浦区金陵东路89号",121.49666829493037,31.236778374566228,"2022-05-06"
"黄浦区","上海市黄浦区静修路66号",121.49413947508924,31.225596180996817,"2022-05-06"
"黄浦区","上海市黄浦区静修路75号",121.49384617834022,31.22566226404683,"2022-05-06"
"黄浦区","上海市黄浦区九江路558号",121.48656690475102,31.24101879892898,"2022-05-06"
"黄浦区","上海市黄浦区九江路595号",121.48584937285985,31.24054180501966,"2022-05-06"
"黄浦区","上海市黄浦区九江路619号",121.4851466284594,31.240162350399974,"2022-05-06"
"黄浦区","上海市黄浦区九江路700号",121.48354485990455,31.24033216347948,"2022-05-06"
"黄浦区","上海市黄浦区局门后路13号",121.48729977693625,31.214800008254723,"2022-05-06"
"黄浦区","上海市黄浦区局门路241弄",121.48761041098162,31.212027091902875,"2022-05-06"
"黄浦区","上海市黄浦区局门路361弄",121.48861786061106,31.210057880745012,"2022-05-06"
"黄浦区","上海市黄浦区巨鹿路310弄",121.4683930510372,31.223077810739706,"2022-05-06"
"黄浦区","上海市黄浦区丽园路567号",121.487316036266,31.21319189045863,"2022-05-06"
"黄浦区","上海市黄浦区丽园路68弄",121.49532398073468,31.21622256878999,"2022-05-06"
"黄浦区","上海市黄浦区丽园路708号",121.4857422050125,31.21276692519798,"2022-05-06"
"黄浦区","上海市黄浦区丽园路842弄",121.483621395534,31.211378208045655,"2022-05-06"
"黄浦区","上海市黄浦区丽园路885号",121.48191407608175,31.212574671021603,"2022-05-06"
"黄浦区","上海市黄浦区龙华东路18号",121.49963701497975,31.201629893324135,"2022-05-06"
"黄浦区","上海市黄浦区龙华东路888弄",121.47773012833846,31.19906060703334,"2022-05-06"
"黄浦区","上海市黄浦区鲁班路400弄",121.4821266151654,31.2064886571851,"2022-05-06"
"黄浦区","上海市黄浦区鲁班路509弄",121.48325407841098,31.206749413937416,"2022-05-06"
"黄浦区","上海市黄浦区鲁班路721弄",121.48468633671608,31.202508107897504,"2022-05-06"
"黄浦区","上海市黄浦区鲁班路738弄",121.4849409164976,31.19988803425617,"2022-05-06"
"黄浦区","上海市黄浦区鲁班路776弄",121.4851880403434,31.198909483978525,"2022-05-06"
"黄浦区","上海市黄浦区鲁班路899号",121.48717572094533,31.19905558762051,"2022-05-06"
"黄浦区","上海市黄浦区陆家浜路1088号",121.49459024479414,31.21760364785768,"2022-05-06"
"黄浦区","上海市黄浦区陆家浜路305弄",121.50738552881717,31.21716202595311,"2022-05-06"
"黄浦区","上海市黄浦区陆家浜路413弄",121.50586370945271,31.217303468719948,"2022-05-06"
"黄浦区","上海市黄浦区陆家浜路468弄",121.50449810541643,31.21610714338139,"2022-05-06"
"黄浦区","上海市黄浦区陆家浜路521弄",121.5055121126761,31.21920721197658,"2022-05-06"
"黄浦区","上海市黄浦区陆家浜路976号",121.49660379659475,31.217753196621352,"2022-05-06"
"黄浦区","上海市黄浦区陆家宅路91弄",121.50235061985752,31.2301080052278,"2022-05-06"
"黄浦区","上海市黄浦区马当路278弄",121.48038956180075,31.223680369859316,"2022-05-06"
"黄浦区","上海市黄浦区马当路357弄",121.48227007455534,31.219236318303054,"2022-05-06"
"黄浦区","上海市黄浦区茂名南路169弄",121.46913352426908,31.221248493144664,"2022-05-06"
"黄浦区","上海市黄浦区茂名南路22弄",121.49158559252436,31.23724715206362,"2022-05-06"
"黄浦区","上海市黄浦区蒙自路345弄",121.48562317953244,31.210186208109956,"2022-05-06"
"黄浦区","上海市黄浦区蒙自路490弄",121.48548061844801,31.20723285827842,"2022-05-06"
"黄浦区","上海市黄浦区蒙自路737号",121.4885559673614,31.20299288684575,"2022-05-06"
"黄浦区","上海市黄浦区蒙自西路68号",121.48172444378858,31.21326987260988,"2022-05-06"
"黄浦区","上海市黄浦区蒙自西路72弄",121.48209804905018,31.2132159800014,"2022-05-06"
"黄浦区","上海市黄浦区面筋弄12弄",121.5047955343708,31.226327415138474,"2022-05-06"
"黄浦区","上海市黄浦区面筋弄29号",121.5047955343708,31.226327415138474,"2022-05-06"
"黄浦区","上海市黄浦区面筋弄62号",121.5047955343708,31.226327415138474,"2022-05-06"
"黄浦区","上海市黄浦区南仓街97号",121.5074160712045,31.21904894134266,"2022-05-06"
"黄浦区","上海市黄浦区南昌路68号",121.47595381902305,31.22556483785164,"2022-05-06"
"黄浦区","上海市黄浦区南车站路450弄",121.50015381013964,31.21062068218494,"2022-05-06"
"黄浦区","上海市黄浦区南车站路555号",121.50159864472188,31.20954456952656,"2022-05-06"
"黄浦区","上海市黄浦区宁波路120弄",121.49121189743221,31.245492713088552,"2022-05-06"
"黄浦区","上海市黄浦区宁波路284弄",121.48841178932706,31.244555624319137,"2022-05-06"
"黄浦区","上海市黄浦区宁波路542弄",121.48377877865934,31.242755902832418,"2022-05-06"
"黄浦区","上海市黄浦区宁波路620弄",121.48223072877401,31.242562629657368,"2022-05-06"
"黄浦区","上海市黄浦区牌楼路23号",121.49277737444444,31.219977947536524,"2022-05-06"
"黄浦区","上海市黄浦区普育东路200弄",121.50230875522753,31.21362364824667,"2022-05-06"
"黄浦区","上海市黄浦区普育东路26号",121.50261265198155,31.21670040530525,"2022-05-06"
"黄浦区","上海市黄浦区普育东路28号",121.50262253334216,31.216466776058315,"2022-05-06"
"黄浦区","上海市黄浦区普育东路7号",121.50278943850591,31.21707277483961,"2022-05-06"
"黄浦区","上海市黄浦区乔家路258弄",121.50097872408945,31.223425527583988,"2022-05-06"
"黄浦区","上海市黄浦区青岛路15号",121.47531000346403,31.24348437856593,"2022-05-06"
"黄浦区","上海市黄浦区青岛路25号",121.47517337119596,31.243493949516818,"2022-05-06"
"黄浦区","上海市黄浦区青岛路37号",121.474988499922,31.243427493135986,"2022-05-06"
"黄浦区","上海市黄浦区瞿溪路1003弄",121.48385693123872,31.205771630284882,"2022-05-06"
"黄浦区","上海市黄浦区瞿溪路1072弄",121.48143060805627,31.20475592286575,"2022-05-06"
"黄浦区","上海市黄浦区瞿溪路1079号",121.4815101080939,31.20532470184556,"2022-05-06"
"黄浦区","上海市黄浦区瞿溪路1111弄",121.48016264982894,31.204909430212833,"2022-05-06"
"黄浦区","上海市黄浦区瞿溪路1145弄",121.4794539766121,31.204640560538927,"2022-05-06"
"黄浦区","上海市黄浦区瞿溪路114号",121.50180076346163,31.21261119162443,"2022-05-06"
"黄浦区","上海市黄浦区瞿溪路1151号",121.4792196985351,31.204439950210514,"2022-05-06"
"黄浦区","上海市黄浦区瞿溪路1200弄",121.47791751486785,31.202302396543868,"2022-05-06"
"黄浦区","上海市黄浦区瞿溪路120弄",121.5017221617295,31.212085926699476,"2022-05-06"
"黄浦区","上海市黄浦区瞿溪路125号",121.50070554938387,31.212004237431245,"2022-05-06"
"黄浦区","上海市黄浦区瞿溪路131号",121.50023654407711,31.21170705158098,"2022-05-06"
"黄浦区","上海市黄浦区瞿溪路566号",121.49249530651431,31.2072535518952,"2022-05-06"
"黄浦区","上海市黄浦区瞿溪路601号",121.49164407221306,31.208042994517765,"2022-05-06"
"黄浦区","上海市黄浦区瞿溪路621号",121.49126139406582,31.208005468346563,"2022-05-06"
"黄浦区","上海市黄浦区瞿溪路883弄",121.4857689745167,31.2063427195683,"2022-05-06"
"黄浦区","上海市黄浦区瞿溪路915号",121.48502445891005,31.205876875908086,"2022-05-06"
"黄浦区","上海市黄浦区瞿溪路937弄",121.48468409095231,31.206350981651095,"2022-05-06"
"黄浦区","上海市黄浦区汝南街64号",121.49145659585314,31.208588357732364,"2022-05-06"
"黄浦区","上海市黄浦区汝南街70弄",121.49138401276792,31.208191323125448,"2022-05-06"
"黄浦区","上海市黄浦区汝南街74号",121.49079364638676,31.208456707976314,"2022-05-06"
"黄浦区","上海市黄浦区汝南街78弄",121.49098372783267,31.208204526753786,"2022-05-06"
"黄浦区","上海市黄浦区汝南街80号",121.49047690386395,31.208371309267275,"2022-05-06"
"黄浦区","上海市黄浦区瑞金二路410弄",121.47339849916935,31.213301683132133,"2022-05-06"
"黄浦区","上海市黄浦区瑞金二路52弄",121.47064600125623,31.221863184902386,"2022-05-06"
"黄浦区","上海市黄浦区瑞金二路69弄",121.47106497094609,31.223336900056292,"2022-05-06"
"黄浦区","上海市黄浦区瑞金二路70弄",121.47087210475308,31.221357118319393,"2022-05-06"
"黄浦区","上海市黄浦区瑞金一路121弄",121.4698858551337,31.22786382197579,"2022-05-06"
"黄浦区","上海市黄浦区山西南路264号",121.48844412832543,31.244049140177182,"2022-05-06"
"黄浦区","上海市黄浦区陕西南路39弄",121.46472625777602,31.225395075166176,"2022-05-06"
"黄浦区","上海市黄浦区四川南路25弄",121.49722892739915,31.237341401298227,"2022-05-06"
"黄浦区","上海市黄浦区四川中路126弄",121.49640239649942,31.240246948227217,"2022-05-06"
"黄浦区","上海市黄浦区四川中路540号",121.49350958326563,31.24670564288971,"2022-05-06"
"黄浦区","上海市黄浦区四川中路567号",121.49302997795387,31.247173444445888,"2022-05-06"
"黄浦区","上海市黄浦区四川中路615号",121.4927457540905,31.247930983167084,"2022-05-06"
"黄浦区","上海市黄浦区四牌楼路119号",121.50209406021064,31.229178880347067,"2022-05-06"
"黄浦区","上海市黄浦区四牌楼路121弄",121.50182941940739,31.229261326596127,"2022-05-06"
"黄浦区","上海市黄浦区四牌楼路147号",121.5022120077241,31.228601831767058,"2022-05-06"
"黄浦区","上海市黄浦区泗泾路36号",121.49294203384443,31.239219264695816,"2022-05-06"
"黄浦区","上海市黄浦区太仓路181弄",121.48111000281975,31.226590895803763,"2022-05-06"
"黄浦区","上海市黄浦区铁道路680号",121.48284148669023,31.202210660254014,"2022-05-06"
"黄浦区","上海市黄浦区铁道路682号",121.48274473918681,31.20217977259412,"2022-05-06"
"黄浦区","上海市黄浦区铁道路684号",121.48263020523429,31.20214224407363,"2022-05-06"
"黄浦区","上海市黄浦区文庙路257号",121.49379066305971,31.222964092228548,"2022-05-06"
"黄浦区","上海市黄浦区五里桥路235弄",121.48660664440476,31.209650119761722,"2022-05-06"
"黄浦区","上海市黄浦区五里桥路262号",121.48619863404213,31.209085304938323,"2022-05-06"
"黄浦区","上海市黄浦区五里桥路269弄",121.48593902374974,31.209584102620525,"2022-05-06"
"黄浦区","上海市黄浦区西藏南路1341弄",121.4946357888835,31.211611849990653,"2022-05-06"
"黄浦区","上海市黄浦区西藏南路1374弄",121.493515512082,31.211693925657812,"2022-05-06"
"黄浦区","上海市黄浦区西藏南路1383弄",121.49478679403973,31.21117313386863,"2022-05-06"
"黄浦区","上海市黄浦区西藏南路1717弄",121.49862291788953,31.205351804857617,"2022-05-06"
"黄浦区","上海市黄浦区西藏南路555弄",121.48905380827505,31.225934624536166,"2022-05-06"
"黄浦区","上海市黄浦区西藏中路200号",121.48382001088227,31.237429861181408,"2022-05-06"
"黄浦区","上海市黄浦区西凌家宅路111弄",121.49301659320176,31.210318627559108,"2022-05-06"
"黄浦区","上海市黄浦区西凌家宅路27弄",121.49375212575332,31.210565784292413,"2022-05-06"
"黄浦区","上海市黄浦区县左街24弄",121.50137757173589,31.229682743133356,"2022-05-06"
"黄浦区","上海市黄浦区斜土东路158弄",121.49544579096184,31.21356450557723,"2022-05-06"
"黄浦区","上海市黄浦区斜土东路265弄",121.49341975271463,31.213289483952547,"2022-05-06"
"黄浦区","上海市黄浦区斜土路262弄",121.48748473804076,31.2107963397823,"2022-05-06"
"黄浦区","上海市黄浦区斜土路298弄",121.48664850544152,31.2107846035487,"2022-05-06"
"黄浦区","上海市黄浦区斜土路2号",121.49101382106726,31.212375467482666,"2022-05-06"
"黄浦区","上海市黄浦区斜土路338号",121.48598286105863,31.210533509567018,"2022-05-06"
"黄浦区","上海市黄浦区斜土路352号",121.48572289144406,31.21041359882715,"2022-05-06"
"黄浦区","上海市黄浦区斜土路456号",121.484234399214,31.209617535868617,"2022-05-06"
"黄浦区","上海市黄浦区斜土路486弄",121.48399823469545,31.20840937579005,"2022-05-06"
"黄浦区","上海市黄浦区斜土路530号",121.48280223073945,31.208908177072594,"2022-05-06"
"黄浦区","上海市黄浦区斜土路556弄",121.48235604239265,31.208877832116915,"2022-05-06"
"黄浦区","上海市黄浦区斜土路766弄",121.47792775555065,31.207827257435287,"2022-05-06"
"黄浦区","上海市黄浦区斜土路80弄",121.49047914962772,31.21070993944921,"2022-05-06"
"黄浦区","上海市黄浦区斜土支路5号",121.49068333447015,31.21176990156404,"2022-05-06"
"黄浦区","上海市黄浦区新昌路280弄",121.47498903890532,31.24177556220714,"2022-05-06"
"黄浦区","上海市黄浦区新昌路284号",121.47483111679666,31.241803194970817,"2022-05-06"
"黄浦区","上海市黄浦区新昌路290号",121.4748523168067,31.241918202754274,"2022-05-06"
"黄浦区","上海市黄浦区新昌路300弄",121.4747357167515,31.242144358587126,"2022-05-06"
"黄浦区","上海市黄浦区新昌路328弄",121.4746492099309,31.242473016839636,"2022-05-06"
"黄浦区","上海市黄浦区新昌路477弄",121.47327273639796,31.24455168792447,"2022-05-06"
"黄浦区","上海市黄浦区新昌路87弄",121.47507940843961,31.23862066509602,"2022-05-06"
"黄浦区","上海市黄浦区新闸路274号",121.47443599711809,31.24521981136301,"2022-05-06"
"黄浦区","上海市黄浦区兴安路163弄",121.47679903467738,31.22684287310322,"2022-05-06"
"黄浦区","上海市黄浦区徐家汇路1弄",121.48837666558163,31.21657625606222,"2022-05-06"
"黄浦区","上海市黄浦区徐家汇路258号",121.48186437865043,31.214924037227743,"2022-05-06"
"黄浦区","上海市黄浦区徐家汇路396号",121.48036683467136,31.215280477115094,"2022-05-06"
"黄浦区","上海市黄浦区薛家浜路242弄",121.50862932262628,31.216213998747815,"2022-05-06"
"黄浦区","上海市黄浦区学宫街63弄",121.49529649258608,31.223771390303863,"2022-05-06"
"黄浦区","上海市黄浦区学前街156号",121.49659472370911,31.220583691976135,"2022-05-06"
"黄浦区","上海市黄浦区学西街1号",121.49391211396465,31.22347694386385,"2022-05-06"
"黄浦区","上海市黄浦区巡道街8号",121.50408210013478,31.22652350102504,"2022-05-06"
"黄浦区","上海市黄浦区延安东路1292弄",121.47803330644808,31.231757993110342,"2022-05-06"
"黄浦区","上海市黄浦区延安东路385号",121.48711265989853,31.235295453695137,"2022-05-06"
"黄浦区","上海市黄浦区延安中路535弄",121.46630817377908,31.229614810205653,"2022-05-06"
"黄浦区","上海市黄浦区永嘉路21弄",121.47062030971864,31.217146661796903,"2022-05-06"
"黄浦区","上海市黄浦区永年路149弄",121.48509928775901,31.217075940321728,"2022-05-06"
"黄浦区","上海市黄浦区云南南路297号",121.48894367601952,31.231416868806317,"2022-05-06"
"黄浦区","上海市黄浦区肇周路417号",121.48868703013531,31.217748178210325,"2022-05-06"
"黄浦区","上海市黄浦区浙江中路128弄",121.4866102376268,31.237968878016,"2022-05-06"
"黄浦区","上海市黄浦区浙江中路142号",121.4863614968311,31.238122253712167,"2022-05-06"
"黄浦区","上海市黄浦区浙江中路159号",121.48602005090673,31.238268064596273,"2022-05-06"
"黄浦区","上海市黄浦区浙江中路417号",121.48423996870818,31.242211896485756,"2022-05-06"
"黄浦区","上海市黄浦区制造局路130号",121.48959620514198,31.21473067476549,"2022-05-06"
"黄浦区","上海市黄浦区制造局路370弄",121.49096774352816,31.212175378451143,"2022-05-06"
"黄浦区","上海市黄浦区制造局路466弄",121.49150456536736,31.207552141744756,"2022-05-06"
"黄浦区","上海市黄浦区制造局路529号",121.49145569754762,31.209601707196057,"2022-05-06"
"黄浦区","上海市黄浦区制造局路567弄",121.49182867399537,31.209308606024834,"2022-05-06"
"黄浦区","上海市黄浦区制造局路646弄",121.49150896706436,31.207551446812154,"2022-05-06"
"黄浦区","上海市黄浦区制造局路721弄",121.45664357428889,31.240502362188455,"2022-05-06"
"黄浦区","上海市黄浦区制造局路855号",121.49278420156632,31.204653996319234,"2022-05-06"
"黄浦区","上海市黄浦区中华路1148弄",121.49465968381007,31.22081669331796,"2022-05-06"
"黄浦区","上海市黄浦区中华路1299弄",121.49712880793531,31.218566318105758,"2022-05-06"
"黄浦区","上海市黄浦区中华路169弄",121.5045857800342,31.228030183477685,"2022-05-06"
"黄浦区","上海市黄浦区中华路211弄",121.50500942091271,31.227310310812573,"2022-05-06"
"黄浦区","上海市黄浦区中华路316号",121.50563041951177,31.225820214699283,"2022-05-06"
"黄浦区","上海市黄浦区中华路333号",121.50525627526686,31.225535424693543,"2022-05-06"
"黄浦区","上海市黄浦区中华路429弄",121.50449801558588,31.224494841427173,"2022-05-06"
"黄浦区","上海市黄浦区中华路97号",121.50477945470216,31.22904270492271,"2022-05-06"
"黄浦区","上海市黄浦区中华路999号",121.49714565447837,31.22050957611955,"2022-05-06"
"黄浦区","上海市黄浦区中山南路1726弄",121.49944953861981,31.209989701935054,"2022-05-06"
"黄浦区","上海市黄浦区中山南路200弄",121.5079024138076,31.22832384361581,"2022-05-06"
"黄浦区","上海市黄浦区中山南路609号",121.51249194648864,31.22299142174079,"2022-05-06"
"黄浦区","上海市黄浦区中山南路969号",121.5120166530433,31.21737828197472,"2022-05-06"
"黄浦区","上海市黄浦区中山南一路1043弄",121.4792230222655,31.201980933039696,"2022-05-06"
"黄浦区","上海市黄浦区中山南一路1079号",121.47797815048978,31.20152943055013,"2022-05-06"
"黄浦区","上海市黄浦区中山南一路1109弄",121.47688787709231,31.201485415311588,"2022-05-06"
"黄浦区","上海市黄浦区中山南一路198弄",121.49514306200497,31.206471978611845,"2022-05-06"
"黄浦区","上海市黄浦区中山南一路247弄",121.49296071859904,31.20630496106852,"2022-05-06"
"黄浦区","上海市黄浦区中山南一路270号",121.49314235597316,31.205864135248323,"2022-05-06"
"黄浦区","上海市黄浦区中山南一路468号",121.49090090406467,31.20504193434029,"2022-05-06"
"黄浦区","上海市黄浦区中山南一路500弄",121.49210643005905,31.205224783551003,"2022-05-06"
"黄浦区","上海市黄浦区中山南一路904号",121.48204334224462,31.20219984957421,"2022-05-06"
"黄浦区","上海市黄浦区昼锦路99号",121.49785720227283,31.229977478832538,"2022-05-06"
"静安区","上海市静安区安远路501弄",121.44734898683826,31.24449789051402,"2022-05-06"
"静安区","上海市静安区宝昌路600弄",121.47839801848514,31.266236778220005,"2022-05-06"
"静安区","上海市静安区宝昌路610弄",121.47854309482499,31.266862903537238,"2022-05-06"
"静安区","上海市静安区宝昌路632弄",121.47799854202485,31.267667970754843,"2022-05-06"
"静安区","上海市静安区宝山路475号",121.48426691787348,31.26351191902181,"2022-05-06"
"静安区","上海市静安区宝山路499弄",121.48471723842562,31.26366154873471,"2022-05-06"
"静安区","上海市静安区宝山路519号",121.48450290273095,31.264229198009435,"2022-05-06"
"静安区","上海市静安区宝山路535号",121.48458994853486,31.26428414158437,"2022-05-06"
"静安区","上海市静安区保德路1316弄",121.448663477291,31.32016700783944,"2022-05-06"
"静安区","上海市静安区保德路450弄",121.46535237671648,31.324134219608815,"2022-05-06"
"静安区","上海市静安区保德路525弄",121.46445137628997,31.32274800514444,"2022-05-06"
"静安区","上海市静安区昌化路320号",121.45851923619374,31.24368096878807,"2022-05-06"
"静安区","上海市静安区昌平路88弄",121.45870231085667,31.2451041708738,"2022-05-06"
"静安区","上海市静安区常德路519弄",121.4525393960749,31.236180685639255,"2022-05-06"
"静安区","上海市静安区长安路1001号",121.45863996845428,31.25134288001556,"2022-05-06"
"静安区","上海市静安区长安路979弄",121.45913996530113,31.2511288634988,"2022-05-06"
"静安区","上海市静安区长乐路632弄",121.4610336831467,31.22547821954856,"2022-05-06"
"静安区","上海市静安区长乐路682弄",121.45939146217,31.224719547674137,"2022-05-06"
"静安区","上海市静安区长乐路698弄",121.4589990211666,31.224272888977396,"2022-05-06"
"静安区","上海市静安区长寿路999弄",121.43594724415287,31.238930501653403,"2022-05-06"
"静安区","上海市静安区场中路3123弄",121.43768789073954,31.312019512059553,"2022-05-06"
"静安区","上海市静安区场中路3300弄",121.44146472642569,31.308721131798272,"2022-05-06"
"静安区","上海市静安区场中路3332弄",121.4374503787627,31.30971704451895,"2022-05-06"
"静安区","上海市静安区大宁路540弄",121.45728200001484,31.277818954401145,"2022-05-06"
"静安区","上海市静安区大宁路660弄",121.4554140635374,31.27883718634688,"2022-05-06"
"静安区","上海市静安区大统路107弄",121.47165946953258,31.249101354918455,"2022-05-06"
"静安区","上海市静安区大统路865号",121.46589360578625,31.259575699518823,"2022-05-06"
"静安区","上海市静安区大统路933弄",121.46622139746682,31.261523032628112,"2022-05-06"
"静安区","上海市静安区大统路938弄",121.46501793757511,31.26044272075746,"2022-05-06"
"静安区","上海市静安区东宝兴路458弄",121.48566899311345,31.265014533089033,"2022-05-06"
"静安区","上海市静安区东宝兴路922号",121.47882983394378,31.270898355698417,"2022-05-06"
"静安区","上海市静安区汾西路400弄",121.464971944333,31.32330303323762,"2022-05-06"
"静安区","上海市静安区富民路148弄",121.45730140341385,31.225503077928952,"2022-05-06"
"静安区","上海市静安区高平路809弄",121.43385230587303,31.29734281484513,"2022-05-06"
"静安区","上海市静安区高平路860弄",121.43445848243117,31.298314935694535,"2022-05-06"
"静安区","上海市静安区公兴路220弄",121.48022696850346,31.261046196747248,"2022-05-06"
"静安区","上海市静安区公兴路5号",121.48238703393274,31.25849984115432,"2022-05-06"
"静安区","上海市静安区共和新路1700弄",121.46231502612613,31.274841119709045,"2022-05-06"
"静安区","上海市静安区共和新路1725弄",121.46434753217301,31.27720262432909,"2022-05-06"
"静安区","上海市静安区共和新路318弄",121.46895314452269,31.254511548301707,"2022-05-06"
"静安区","上海市静安区共和新路3616弄",121.45442898171515,31.308981912016453,"2022-05-06"
"静安区","上海市静安区共和新路3650弄",121.45483672258612,31.310360541019204,"2022-05-06"
"静安区","上海市静安区共和新路555弄",121.47060997920528,31.25892390415751,"2022-05-06"
"静安区","上海市静安区共和新路619弄",121.4715034338655,31.26046625793751,"2022-05-06"
"静安区","上海市静安区共和新路635弄",121.46201678869683,31.27475115203856,"2022-05-06"
"静安区","上海市静安区共和新路700号",121.46981192459022,31.261195676067352,"2022-05-06"
"静安区","上海市静安区共和新路710弄",121.46863730030537,31.261505283480474,"2022-05-06"
"静安区","上海市静安区共和新路802弄",121.46978497542491,31.263048752192734,"2022-05-06"
"静安区","上海市静安区共和新路938号",121.46894991062284,31.26501067472313,"2022-05-06"
"静安区","上海市静安区共和新路966号",121.46858007824437,31.265266484037504,"2022-05-06"
"静安区","上海市静安区共和新路970弄",121.46864206132457,31.265722077534534,"2022-05-06"
"静安区","上海市静安区广延路52弄",121.46333666898263,31.278938491986906,"2022-05-06"
"静安区","上海市静安区海宁路717号",121.48689302420135,31.252854951017426,"2022-05-06"
"静安区","上海市静安区汉中路28弄",121.45343177276851,31.233844930401652,"2022-05-06"
"静安区","上海市静安区汉中路78弄",121.46570002094884,31.24937495923268,"2022-05-06"
"静安区","上海市静安区和田路434号",121.46667019089962,31.27403079027605,"2022-05-06"
"静安区","上海市静安区沪太路1051弄",121.43583971698331,31.284966867000147,"2022-05-06"
"静安区","上海市静安区沪太路1218号",121.43223796104107,31.284617218765675,"2022-05-06"
"静安区","上海市静安区沪太路315弄",121.46102829331365,31.26153784930529,"2022-05-06"
"静安区","上海市静安区沪太路453弄",121.46328456726306,31.26340627520708,"2022-05-06"
"静安区","上海市静安区沪太路555弄",121.45726843560165,31.263832708164088,"2022-05-06"
"静安区","上海市静安区沪太路631弄",121.45662632682311,31.26730614278311,"2022-05-06"
"静安区","上海市静安区沪太路655弄",121.47044801472184,31.261024897661006,"2022-05-06"
"静安区","上海市静安区沪太路883弄",121.4427033998934,31.276484441893263,"2022-05-06"
"静安区","上海市静安区沪太路941弄",121.4372997329287,31.28019326857611,"2022-05-06"
"静安区","上海市静安区淮安路687弄",121.45821668689796,31.24550753230674,"2022-05-06"
"静安区","上海市静安区黄山路280弄",121.4745494980193,31.272077159114005,"2022-05-06"
"静安区","上海市静安区江宁路565弄",121.45724328304736,31.24216620227853,"2022-05-06"
"静安区","上海市静安区江宁路906弄",121.45412068326412,31.246327525385976,"2022-05-06"
"静安区","上海市静安区江宁路936弄",121.45292881151349,31.247512427381213,"2022-05-06"
"静安区","上海市静安区江苏路35弄",121.43460319944883,31.23037048405256,"2022-05-06"
"静安区","上海市静安区京江路168号",121.47150496098487,31.25429190517873,"2022-05-06"
"静安区","上海市静安区晋元路314号",121.47554886289915,31.25116166447528,"2022-05-06"
"静安区","上海市静安区晋元路65号",121.47698291781526,31.24695687137161,"2022-05-06"
"静安区","上海市静安区晋元路88弄",121.4764629785861,31.246995076565483,"2022-05-06"
"静安区","上海市静安区景凤路403弄",121.46545604117233,31.325365021962973,"2022-05-06"
"静安区","上海市静安区景凤路480弄",121.46552539035771,31.32641419873316,"2022-05-06"
"静安区","上海市静安区景凤路52弄",121.4702970095656,31.326650175123135,"2022-05-06"
"静安区","上海市静安区康定路848弄",121.44699622226449,31.237786478710234,"2022-05-06"
"静安区","上海市静安区康乐路256弄",121.4833066292833,31.25532660036909,"2022-05-06"
"静安区","上海市静安区康宁路1211号",121.43894803370894,31.317530718380095,"2022-05-06"
"静安区","上海市静安区康宁路852号",121.44090678887345,31.311168164109215,"2022-05-06"
"静安区","上海市静安区临汾路1320弄",121.44524264007846,31.31758578483791,"2022-05-06"
"静安区","上海市静安区临汾路380弄",121.46855995620095,31.31818688632554,"2022-05-06"
"静安区","上海市静安区临汾路894弄",121.45622828765163,31.317197850976278,"2022-05-06"
"静安区","上海市静安区临汾路971弄",121.45414439852958,31.316802357298506,"2022-05-06"
"静安区","上海市静安区临汾路99弄",121.45580204168715,31.31690084525303,"2022-05-06"
"静安区","上海市静安区临山路203弄",121.47979371575599,31.26127292367599,"2022-05-06"
"静安区","上海市静安区临山路204号",121.47998227008253,31.260572599614793,"2022-05-06"
"静安区","上海市静安区灵石路896弄",121.43827592152638,31.282247414800157,"2022-05-06"
"静安区","上海市静安区岭南路100弄",121.46250061604451,31.313743548841014,"2022-05-06"
"静安区","上海市静安区岭南路50弄",121.46141645112452,31.312222436846458,"2022-05-06"
"静安区","上海市静安区柳营路309弄",121.470841113213,31.274315664079303,"2022-05-06"
"静安区","上海市静安区柳营路319弄",121.46987678224804,31.273721070046967,"2022-05-06"
"静安区","上海市静安区柳营路635弄",121.46359187757803,31.27151495885607,"2022-05-06"
"静安区","上海市静安区陆丰路156号",121.48074825519089,31.263216362979758,"2022-05-06"
"静安区","上海市静安区洛川东路320弄",121.46965534993983,31.276394398647767,"2022-05-06"
"静安区","上海市静安区洛川东路487号",121.46477602390128,31.274744747818573,"2022-05-06"
"静安区","上海市静安区洛川中路1100弄",121.4560534773994,31.27070760991036,"2022-05-06"
"静安区","上海市静安区洛川中路838弄",121.45874039901028,31.27193255838268,"2022-05-06"
"静安区","上海市静安区洛川中路901弄",121.45712120332855,31.271685100795423,"2022-05-06"
"静安区","上海市静安区洛川中路960号",121.4566976522806,31.271081462029052,"2022-05-06"
"静安区","上海市静安区茂名北路39号",121.46716677418553,31.230865308548427,"2022-05-06"
"静安区","上海市静安区民立路130号",121.46242973973976,31.25141048844913,"2022-05-06"
"静安区","上海市静安区民立路289弄",121.46388131161333,31.249192813713428,"2022-05-06"
"静安区","上海市静安区南京西路1025弄",121.4643499575979,31.23358988422801,"2022-05-06"
"静安区","上海市静安区南京西路1522弄",121.45194193308022,31.231597968218317,"2022-05-06"
"静安区","上海市静安区南京西路698号",121.47077778267455,31.237281270143132,"2022-05-06"
"静安区","上海市静安区南山路10弄",121.47353764669285,31.263012714290884,"2022-05-06"
"静安区","上海市静安区南山路151弄",121.47052913170938,31.263277249144238,"2022-05-06"
"静安区","上海市静安区南山路71弄",121.47256792589482,31.26289688359573,"2022-05-06"
"静安区","上海市静安区南苏州路1539弄",121.46637375008132,31.244828933198924,"2022-05-06"
"静安区","上海市静安区南阳路183弄",121.45715713554895,31.23406114787533,"2022-05-06"
"静安区","上海市静安区彭越浦路800弄",121.44314303060999,31.291323879286093,"2022-05-06"
"静安区","上海市静安区平陆路999弄",121.45580204168715,31.31690084525303,"2022-05-06"
"静安区","上海市静安区平顺路721弄",121.4578538613025,31.3236286296725,"2022-05-06"
"静安区","上海市静安区平型关路121弄",121.45832062084547,31.26603822910109,"2022-05-06"
"静安区","上海市静安区平型关路2199弄",121.47022766038023,31.30903073591594,"2022-05-06"
"静安区","上海市静安区平遥路111号",121.43198832193983,31.296247103249687,"2022-05-06"
"静安区","上海市静安区普善路239弄",121.46395694893728,31.26329530663027,"2022-05-06"
"静安区","上海市静安区普善路641号",121.45989355379344,31.268919889355015,"2022-05-06"
"静安区","上海市静安区普善路659号",121.45959082483658,31.26908231962535,"2022-05-06"
"静安区","上海市静安区普善路661号",121.45955920448263,31.269057935811805,"2022-05-06"
"静安区","上海市静安区普善路958弄",121.45730086443055,31.273668138186082,"2022-05-06"
"静安区","上海市静安区普善路铁路新村17号",121.45974452490934,31.2627410791231,"2022-05-06"
"静安区","上海市静安区普善路铁路新村19号",121.45974452490934,31.2627410791231,"2022-05-06"
"静安区","上海市静安区普善路铁路新村25号",121.4597358113459,31.26261729965407,"2022-05-06"
"静安区","上海市静安区普善路铁路新村7号",121.45978917069318,31.26235368896666,"2022-05-06"
"静安区","上海市静安区普善路铁路新村91号",121.45974452490934,31.2627410791231,"2022-05-06"
"静安区","上海市静安区青云路315弄",121.47942783592177,31.27007850099691,"2022-05-06"
"静安区","上海市静安区青云路350弄",121.4796057902433,31.269563127003167,"2022-05-06"
"静安区","上海市静安区青云路480弄",121.47679454314984,31.267901780791032,"2022-05-06"
"静安区","上海市静安区虬江路1258弄",121.4755991680077,31.256011605965373,"2022-05-06"
"静安区","上海市静安区虬江路1368弄",121.4732000634822,31.255488977093258,"2022-05-06"
"静安区","上海市静安区虬江路1431弄",121.47242482582708,31.256164334672036,"2022-05-06"
"静安区","上海市静安区虬江路888弄",121.48211673380479,31.25803487450358,"2022-05-06"
"静安区","上海市静安区虬江路909弄",121.4815379555647,31.25918713865893,"2022-05-06"
"静安区","上海市静安区三泉路601弄",121.44676068655977,31.317838056668005,"2022-05-06"
"静安区","上海市静安区三泉路821弄",121.44470536355294,31.322294695046505,"2022-05-06"
"静安区","上海市静安区三泉路999弄",121.4468266221842,31.32610688871536,"2022-05-06"
"静安区","上海市静安区山西北路388弄",121.4869220394693,31.252247949135892,"2022-05-06"
"静安区","上海市静安区陕西北路835弄",121.4545808851769,31.2418672597267,"2022-05-06"
"静安区","上海市静安区石门二路330号",121.46614881438164,31.243321980991816,"2022-05-06"
"静安区","上海市静安区太阳山路188弄",121.46730673018398,31.255849538848622,"2022-05-06"
"静安区","上海市静安区太阳山路78弄",121.46850120702061,31.255570165349578,"2022-05-06"
"静安区","上海市静安区泰兴路594弄",121.46299800780538,31.24256486804707,"2022-05-06"
"静安区","上海市静安区天目中路465号",121.47254232418778,31.250969643536525,"2022-05-06"
"静安区","上海市静安区天目中路538弄",121.45873312273565,31.278937951896204,"2022-05-06"
"静安区","上海市静安区天目中路749弄",121.46822066620983,31.252132799701027,"2022-05-06"
"静安区","上海市静安区通阁路191弄",121.47666033630662,31.26645670193619,"2022-05-06"
"静安区","上海市静安区万航渡路455弄",121.44246112689736,31.231629154952948,"2022-05-06"
"静安区","上海市静安区万航渡路623弄",121.44039295812175,31.232727940349175,"2022-05-06"
"静安区","上海市静安区万航渡路661弄",121.43863515389981,31.233459118759175,"2022-05-06"
"静安区","上海市静安区万航渡路676弄",121.43758413645314,31.23216758765561,"2022-05-06"
"静安区","上海市静安区万航渡路829弄",121.43685668865116,31.23456637383346,"2022-05-06"
"静安区","上海市静安区万荣路32号",121.45569151417718,31.276049841619002,"2022-05-06"
"静安区","上海市静安区万荣路970弄",121.44685896118256,31.294400548623813,"2022-05-06"
"静安区","上海市静安区威海路287弄",121.47240218852824,31.233454487157168,"2022-05-06"
"静安区","上海市静安区威海路910弄",121.46070661011053,31.230343002303385,"2022-05-06"
"静安区","上海市静安区闻喜路280弄",121.46806211528732,31.3147269134858,"2022-05-06"
"静安区","上海市静安区闻喜路590号",121.4630230705291,31.314716038686427,"2022-05-06"
"静安区","上海市静安区武定路1128弄",121.44641061690253,31.23602113145969,"2022-05-06"
"静安区","上海市静安区武定路116弄",121.46368422338445,31.242304211066042,"2022-05-06"
"静安区","上海市静安区武定路44弄",121.46535255637758,31.243054765358266,"2022-05-06"
"静安区","上海市静安区武定路584号",121.45569622129807,31.239412776345368,"2022-05-06"
"静安区","上海市静安区武宁南路320号",121.43960783910602,31.237940163464152,"2022-05-06"
"静安区","上海市静安区武宁南路480弄",121.43827726898463,31.23953473402015,"2022-05-06"
"静安区","上海市静安区西宝兴路922弄",121.47445373865193,31.275670037316026,"2022-05-06"
"静安区","上海市静安区西藏北路1009号",121.4735375568623,31.266032287282638,"2022-05-06"
"静安区","上海市静安区西藏北路573号",121.4753747712913,31.258420044552462,"2022-05-06"
"静安区","上海市静安区西藏北路853弄",121.4736235246996,31.262481944610624,"2022-05-06"
"静安区","上海市静安区西藏北路985弄",121.47236140545809,31.266571679392264,"2022-05-06"
"静安区","上海市静安区西藏北路987弄",121.47226411897135,31.26546279695495,"2022-05-06"
"静安区","上海市静安区西康路786弄",121.45085183934387,31.243465082290992,"2022-05-06"
"静安区","上海市静安区西康路900号",121.44974701339714,31.245155189321842,"2022-05-06"
"静安区","上海市静安区西康路910弄",121.44967389132864,31.24538936441311,"2022-05-06"
"静安区","上海市静安区西苏州路85弄",121.45776798329574,31.24807832238473,"2022-05-06"
"静安区","上海市静安区新闸路1039弄",121.46285787214582,31.23944287983684,"2022-05-06"
"静安区","上海市静安区新闸路1300号",121.45806442411403,31.23848419465746,"2022-05-06"
"静安区","上海市静安区新闸路1999弄",121.46285787214582,31.23944287983684,"2022-05-06"
"静安区","上海市静安区延平路220弄",121.4465617118893,31.236666139328616,"2022-05-06"
"静安区","上海市静安区延平路446弄",121.44425567181466,31.239999406741536,"2022-05-06"
"静安区","上海市静安区延平路482弄",121.44357718166296,31.24125362562341,"2022-05-06"
"静安区","上海市静安区延平路85号",121.44713240537979,31.234012670741546,"2022-05-06"
"静安区","上海市静安区延长中路576号",121.4567297217873,31.275397744518983,"2022-05-06"
"静安区","上海市静安区阳城路280弄",121.43407185173969,31.29077467828222,"2022-05-06"
"静安区","上海市静安区阳曲路555弄",121.46583162270606,31.32161333759723,"2022-05-06"
"静安区","上海市静安区阳曲路650弄",121.46709302330316,31.32289090764964,"2022-05-06"
"静安区","上海市静安区永兴路595弄",121.47292419386008,31.25727170679925,"2022-05-06"
"静安区","上海市静安区永兴路973弄",121.46607605163531,31.257837928595784,"2022-05-06"
"静安区","上海市静安区永兴小马路18号",121.4707345741795,31.256457289087546,"2022-05-06"
"静安区","上海市静安区余姚路19号",121.45030557976324,31.24248390005464,"2022-05-06"
"静安区","上海市静安区余姚路487弄",121.44262336087246,31.238642895555838,"2022-05-06"
"静安区","上海市静安区俞泾港路15弄",121.47167033902925,31.27240787264532,"2022-05-06"
"静安区","上海市静安区止园路355号",121.47573517146189,31.265488030542947,"2022-05-06"
"静安区","上海市静安区止园路400弄",121.4741771503854,31.266536723173946,"2022-05-06"
"静安区","上海市静安区芷江西路123弄",121.47196390526992,31.265192403584116,"2022-05-06"
"静安区","上海市静安区芷江西路192号",121.47041765199559,31.263774677590156,"2022-05-06"
"静安区","上海市静安区芷江西路230号",121.46863783928866,31.263666410345913,"2022-05-06"
"静安区","上海市静安区芷江西路26弄",121.47240299700319,31.26373987466217,"2022-05-06"
"静安区","上海市静安区芷江西路285弄",121.46675184687047,31.263678757293864,"2022-05-06"
"静安区","上海市静安区芷江西路393弄",121.46441768983335,31.26439171360241,"2022-05-06"
"静安区","上海市静安区芷江西路667号",121.46003997759158,31.26235361179715,"2022-05-06"
"静安区","上海市静安区芷江中路413弄",121.47651543962787,31.26565270461663,"2022-05-06"
"静安区","上海市静安区芷江中路459弄",121.4761892648972,31.26521902625382,"2022-05-06"
"静安区","上海市静安区芷江中路493弄",121.47548175947755,31.265302366736005,"2022-05-06"
"静安区","上海市静安区芷江中路495弄",121.47506593385697,31.26513329351355,"2022-05-06"
"静安区","上海市静安区芷江中路531弄",121.4749204981949,31.26451934910736,"2022-05-06"
"静安区","上海市静安区芷江中路680号",121.47451140986567,31.263905169162577,"2022-05-06"
"静安区","上海市静安区中华新路455弄",121.47442741830048,31.26149640890541,"2022-05-06"
"静安区","上海市静安区中华新路487号",121.47132314394966,31.259930689160406,"2022-05-06"
"静安区","上海市静安区中华新路489号",121.47117842693198,31.259916335257582,"2022-05-06"
"静安区","上海市静安区中华新路706号",121.46679496553496,31.259723174727128,"2022-05-06"
"静安区","上海市静安区中华新路718号",121.46660991459989,31.259756821576165,"2022-05-06"
"静安区","上海市静安区中华新路730弄",121.46646663487105,31.259655649477487,"2022-05-06"
"静安区","上海市静安区中华新路793弄",121.4642960592673,31.260247786376155,"2022-05-06"
"静安区","上海市静安区中华新路893弄",121.46198462935958,31.261228396340947,"2022-05-06"
"静安区","上海市静安区中山北路1038号",121.45771713920387,31.264525368189744,"2022-05-06"
"静安区","上海市静安区中山北路805弄",121.46433019487667,31.26770616748392,"2022-05-06"
"静安区","上海市静安区中山北路814弄",121.46448443393274,31.265802562401454,"2022-05-06"
"静安区","上海市静安区中山北路831号",121.46404226229487,31.266343014116863,"2022-05-06"
"静安区","上海市静安区中山北路899弄",121.46215180401498,31.268675047373453,"2022-05-06"
"静安区","上海市静安区中兴路1055号",121.4723987749673,31.258773958168998,"2022-05-06"
"静安区","上海市静安区中兴路1279弄",121.46845790869502,31.258953075299733,"2022-05-06"
"静安区","上海市静安区中兴路1321弄",121.46829612387268,31.25857438994905,"2022-05-06"
"静安区","上海市静安区中兴路1377弄",121.46732810985513,31.259029475867184,"2022-05-06"
"静安区","上海市静安区中兴路1385弄",121.46736062851458,31.258900057899563,"2022-05-06"
"静安区","上海市静安区中兴路1394弄",121.46700220461611,31.258264078270283,"2022-05-06"
"静安区","上海市静安区中兴路1395弄",121.46658916374263,31.25856389447016,"2022-05-06"
"静安区","上海市静安区中兴路1397号",121.46640923314897,31.258749803182823,"2022-05-06"
"静安区","上海市静安区中兴路457号",121.48145836569653,31.26359032224318,"2022-05-06"
"徐汇区","上海市徐汇区宾南路36弄",121.4426530049543,31.166843877452973,"2022-05-06"
"徐汇区","上海市徐汇区漕溪路222号",121.44089529056292,31.177817743756506,"2022-05-06"
"徐汇区","上海市徐汇区漕溪一村",121.44351097654688,31.17942685501509,"2022-05-06"
"徐汇区","上海市徐汇区蝶山路125弄",121.44339635276381,31.194556772822725,"2022-05-06"
"徐汇区","上海市徐汇区东安二村",121.45997781485028,31.19283107711445,"2022-05-06"
"徐汇区","上海市徐汇区东安四村",121.45666306751846,31.192661177850134,"2022-05-06"
"徐汇区","上海市徐汇区东安五村",121.45909351613304,31.19072466528382,"2022-05-06"
"徐汇区","上海市徐汇区东安一村",121.4637655200331,31.195351033168695,"2022-05-06"
"徐汇区","上海市徐汇区东泉路105弄",121.45073065793056,31.16215015465626,"2022-05-06"
"徐汇区","上海市徐汇区丰谷路185弄",121.46296000948232,31.17631596920492,"2022-05-06"
"徐汇区","上海市徐汇区桂江路77弄",121.43505962847846,31.17217887803817,"2022-05-06"
"徐汇区","上海市徐汇区桂林路303弄",121.42490751858799,31.175201150784943,"2022-05-06"
"徐汇区","上海市徐汇区桂林路575号",121.42160804244985,31.184892900028558,"2022-05-06"
"徐汇区","上海市徐汇区虹桥路400弄",121.43643466472258,31.19858692772109,"2022-05-06"
"徐汇区","上海市徐汇区虹桥路693弄",121.4318312981367,31.201861397446176,"2022-05-06"
"徐汇区","上海市徐汇区虹桥路市民村",121.43727197528841,31.202706869114117,"2022-05-06"
"徐汇区","上海市徐汇区华展路55弄",121.45953297396174,31.11809690460611,"2022-05-06"
"徐汇区","上海市徐汇区淮海中路1670弄",121.44873102986536,31.213424292519715,"2022-05-06"
"徐汇区","上海市徐汇区嘉善路169弄",121.46675220619268,31.215182499654336,"2022-05-06"
"徐汇区","上海市徐汇区凯旋路3188弄",121.43771780431302,31.190050868612428,"2022-05-06"
"徐汇区","上海市徐汇区康健路100弄",121.43416132296848,31.171079922861633,"2022-05-06"
"徐汇区","上海市徐汇区老沪闵路1296弄",121.44694492901986,31.127333186808233,"2022-05-06"
"徐汇区","上海市徐汇区乐山支路8弄",121.44339635276381,31.194556772822725,"2022-05-06"
"徐汇区","上海市徐汇区零陵路639号",121.45216183826906,31.193748682270822,"2022-05-06"
"徐汇区","上海市徐汇区零陵路687号",121.44999593385396,31.192111397164958,"2022-05-06"
"徐汇区","上海市徐汇区柳州路460号",121.42982717854393,31.17844206644702,"2022-05-06"
"徐汇区","上海市徐汇区柳州路588号",121.42703470603561,31.183486237379427,"2022-05-06"
"徐汇区","上海市徐汇区龙漕路160弄",121.44569475724163,31.173275194075472,"2022-05-06"
"徐汇区","上海市徐汇区龙漕路235弄",121.44869114510072,31.17767261111403,"2022-05-06"
"徐汇区","上海市徐汇区龙漕路51弄",121.44338458496162,31.175114717624634,"2022-05-06"
"徐汇区","上海市徐汇区龙华路2381弄",121.45735934411924,31.1876758101734,"2022-05-06"
"徐汇区","上海市徐汇区龙华西路125号",121.45634407923187,31.179136285534554,"2022-05-06"
"徐汇区","上海市徐汇区龙华西路21弄",121.45479072934401,31.17506088030758,"2022-05-06"
"徐汇区","上海市徐汇区龙南三村",121.46267803138272,31.16240585890181,"2022-05-06"
"徐汇区","上海市徐汇区龙水北路900弄",121.45168968889301,31.17742428624729,"2022-05-06"
"徐汇区","上海市徐汇区龙水北路960弄",121.45279631145077,31.177757883327143,"2022-05-06"
"徐汇区","上海市徐汇区龙水南路385弄",121.45957896720385,31.160055671170458,"2022-05-06"
"徐汇区","上海市徐汇区龙吴路1323弄",121.45619199610904,31.14733588684881,"2022-05-06"
"徐汇区","上海市徐汇区龙吴路2388弄",121.46634913651035,31.128955219485796,"2022-05-06"
"徐汇区","上海市徐汇区龙吴路988弄",121.45732853224025,31.155344071240474,"2022-05-06"
"徐汇区","上海市徐汇区罗城路651弄",121.4429010271056,31.155641744867715,"2022-05-06"
"徐汇区","上海市徐汇区南丹路333弄",121.43667990212681,31.196590482872317,"2022-05-06"
"徐汇区","上海市徐汇区南宁路501弄",121.44931124539426,31.171252255827913,"2022-05-06"
"徐汇区","上海市徐汇区钦州路900号",121.43206315078882,31.18473356736852,"2022-05-06"
"徐汇区","上海市徐汇区三江路16号",121.44460780757456,31.17452652201836,"2022-05-06"
"徐汇区","上海市徐汇区石龙路345弄",121.44777020229188,31.159841986728708,"2022-05-06"
"徐汇区","上海市徐汇区石龙路885弄",121.43769983820283,31.155499899986886,"2022-05-06"
"徐汇区","上海市徐汇区双峰北路8弄",121.44339635276381,31.194556772822725,"2022-05-06"
"徐汇区","上海市徐汇区天钥桥路859号",121.45030899332419,31.189852852838115,"2022-05-06"
"徐汇区","上海市徐汇区天钥新村",121.45293015897174,31.192061894349106,"2022-05-06"
"徐汇区","上海市徐汇区田林东路411弄",121.43353529385857,31.17889483875802,"2022-05-06"
"徐汇区","上海市徐汇区田林东路414弄",121.43218325423551,31.180041744027342,"2022-05-06"
"徐汇区","上海市徐汇区田林十三村",121.43187881849818,31.17996419763881,"2022-05-06"
"徐汇区","上海市徐汇区田林十一村",121.43199613719779,31.178479218266236,"2022-05-06"
"徐汇区","上海市徐汇区宛南华侨新村",121.45684236929826,31.187054329316297,"2022-05-06"
"徐汇区","上海市徐汇区宛平南路383号",121.45407343239431,31.197354917850937,"2022-05-06"
"徐汇区","上海市徐汇区宛平南路389弄",121.45473171067201,31.197445268880834,"2022-05-06"
"徐汇区","上海市徐汇区宛平南路921弄",121.45870383797603,31.190082069187692,"2022-05-06"
"徐汇区","上海市徐汇区宛平南路968弄",121.45857879384904,31.189307843922773,"2022-05-06"
"徐汇区","上海市徐汇区宛平南路970号",121.45886310754295,31.18876661611867,"2022-05-06"
"徐汇区","上海市徐汇区文定路211号",121.4382551706691,31.19104233131807,"2022-05-06"
"徐汇区","上海市徐汇区五原路228弄",121.45145648878264,31.218944636988354,"2022-05-06"
"徐汇区","上海市徐汇区小木桥路360弄",121.4661279736938,31.20076788678695,"2022-05-06"
"徐汇区","上海市徐汇区斜土路1620号",121.46444418984588,31.202462008207764,"2022-05-06"
"徐汇区","上海市徐汇区斜土路1899弄",121.45978953001539,31.201413292051445,"2022-05-06"
"徐汇区","上海市徐汇区斜土路2200弄",121.45723259321178,31.19745530787878,"2022-05-06"
"徐汇区","上海市徐汇区斜土路2588号",121.45041876625751,31.19390313436763,"2022-05-06"
"徐汇区","上海市徐汇区秀山路15弄",121.43641714776514,31.20127197972121,"2022-05-06"
"徐汇区","上海市徐汇区炎虹路71弄",121.44469970422823,31.207940453833302,"2022-05-06"
"徐汇区","上海市徐汇区永康路141弄",121.46203637175695,31.21608683775967,"2022-05-06"
"徐汇区","上海市徐汇区永康路157弄",121.46274980599297,31.216328188704736,"2022-05-06"
"徐汇区","上海市徐汇区裕德路66弄",121.44177113843516,31.19084493546677,"2022-05-06"
"徐汇区","上海市徐汇区云锦路50弄",121.46236667869296,31.179907968743272,"2022-05-06"
"徐汇区","上海市徐汇区中山南二路1057弄",121.45012430171133,31.18578772204431,"2022-05-06"
"长宁区","上海市长宁区安龙路929弄",121.39324224936125,31.217464367328073,"2022-05-06"
"长宁区","上海市长宁区安顺路246号",121.42093242687578,31.20646001018937,"2022-05-06"
"长宁区","上海市长宁区长宁路1661弄",121.41357144203536,31.222935527475588,"2022-05-06"
"长宁区","上海市长宁区长宁路476弄",121.43170104383775,31.229417495649646,"2022-05-06"
"长宁区","上海市长宁区长宁路491弄住宅",121.43327298864965,31.228760858219243,"2022-05-06"
"长宁区","上海市长宁区长宁支路139号",121.43272259686368,31.233295931843365,"2022-05-06"
"长宁区","上海市长宁区程家桥路80弄住宅",121.37834448129213,31.194698326958374,"2022-05-06"
"长宁区","上海市长宁区定西路390弄",121.42982089040537,31.208472227986505,"2022-05-06"
"长宁区","上海市长宁区定西路410弄",121.42991197858409,31.208876673912297,"2022-05-06"
"长宁区","上海市长宁区定西路420弄",121.42956119028243,31.209205603445973,"2022-05-06"
"长宁区","上海市长宁区定西路439弄",121.42917491891313,31.20907820129889,"2022-05-06"
"长宁区","上海市长宁区法华镇路20弄",121.43239094246941,31.21085401717207,"2022-05-06"
"长宁区","上海市长宁区法华镇路315弄",121.43494868774798,31.21016829479401,"2022-05-06"
"长宁区","上海市长宁区芙蓉江路388弄",121.40136589557964,31.221050080097804,"2022-05-06"
"长宁区","上海市长宁区甘溪路368弄",121.36629946203105,31.217614456759296,"2022-05-06"
"长宁区","上海市长宁区江苏路581弄",121.43936871017925,31.221848207532503,"2022-05-06"
"长宁区","上海市长宁区娄山关路810弄",121.41238540927056,31.21899350795492,"2022-05-06"
"长宁区","上海市长宁区娄山关路988弄",121.41175677507466,31.22208004768527,"2022-05-06"
"长宁区","上海市长宁区番禺路222弄住宅",121.4348969453506,31.21333449737314,"2022-05-06"
"长宁区","上海市长宁区泉口路109弄",121.37823102530623,31.217708880182467,"2022-05-06"
"长宁区","上海市长宁区淞虹路685弄",121.36761134739781,31.218736954397215,"2022-05-06"
"长宁区","上海市长宁区天山二村",121.41333321141413,31.21371128124563,"2022-05-06"
"长宁区","上海市长宁区万航渡路1424弄",121.42791387763822,31.231213150847626,"2022-05-06"
"长宁区","上海市长宁区万航渡路1579弄",121.42255943781547,31.229935484069884,"2022-05-06"
"长宁区","上海市长宁区新华路569弄",121.42822954219443,31.209841530601583,"2022-05-06"
"长宁区","上海市长宁区新泾四村",121.37379339608694,31.222599311957858,"2022-05-06"
"长宁区","上海市长宁区延安西路1228弄",121.43424136198941,31.216150842917372,"2022-05-06"
"长宁区","上海市长宁区愚园路1088弄住宅",121.4347436944306,31.22741537782768,"2022-05-06"
"长宁区","上海市长宁区愚园路1355弄住宅",121.43026106010525,31.224959974853633,"2022-05-06"
"长宁区","上海市长宁区玉屏南路476弄",121.41172910726496,31.219684415619312,"2022-05-06"
"长宁区","上海市长宁区昭化路518弄",121.4265472854659,31.217174070214497,"2022-05-06"
"长宁区","上海市长宁区中华新村",121.42539305271613,31.204362269575324,"2022-05-06"
"普陀区","上海市普陀区曹杨二村",121.41174500727247,31.25010183980936,"2022-05-06"
"普陀区","上海市普陀区曹杨三村",121.41043914055263,31.244599850859647,"2022-05-06"
"普陀区","上海市普陀区曹杨路1222弄",121.41522665976805,31.25286544713735,"2022-05-06"
"普陀区","上海市普陀区长风二村",121.4084474175759,31.240371683570128,"2022-05-06"
"普陀区","上海市普陀区长寿路790号",121.43774601110604,31.243050906085873,"2022-05-06"
"普陀区","上海市普陀区大渡河路1262弄",121.40263142838211,31.24312446379036,"2022-05-06"
"普陀区","上海市普陀区甘泉一村",121.43846537415844,31.270704909218818,"2022-05-06"
"普陀区","上海市普陀区华池路25号",121.4361574476422,31.262385791478895,"2022-05-06"
"普陀区","上海市普陀区黄陵路151弄",121.43257015441866,31.26789591625602,"2022-05-06"
"普陀区","上海市普陀区交通西路188弄",121.45428291723921,31.263520484731288,"2022-05-06"
"普陀区","上海市普陀区金沙江路895弄",121.4002640340411,31.237270077561856,"2022-05-06"
"普陀区","上海市普陀区梅川路1111弄",121.39459851102022,31.24548252487469,"2022-05-06"
"普陀区","上海市普陀区梅川路999弄",121.39578553192112,31.244203509301077,"2022-05-06"
"普陀区","上海市普陀区宁川路139弄",121.4232222631865,31.25767425974096,"2022-05-06"
"普陀区","上海市普陀区普陀一村",121.42863351018228,31.242139341484133,"2022-05-06"
"普陀区","上海市普陀区石岚三村",121.42876430346452,31.257962794819026,"2022-05-06"
"普陀区","上海市普陀区石泉一村",121.43379849737299,31.258454540770718,"2022-05-06"
"普陀区","上海市普陀区石泉五村",121.43342201753376,31.259386859914407,"2022-05-06"
"普陀区","上海市普陀区石泉六村",121.43401157543995,31.26128882077833,"2022-05-06"
"普陀区","上海市普陀区石泉路130弄",121.43214022540157,31.25711311469027,"2022-05-06"
"普陀区","上海市普陀区石泉路135弄",121.43164795398211,31.257274253531648,"2022-05-06"
"普陀区","上海市普陀区石泉路180弄",121.4307020382801,31.256606467050112,"2022-05-06"
"普陀区","上海市普陀区双山路101弄",121.4311392435718,31.26756017101303,"2022-05-06"
"普陀区","上海市普陀区泰山一村",121.45374761698582,31.266473678482228,"2022-05-06"
"普陀区","上海市普陀区桃浦路1023弄",121.38909558129666,31.266028737624666,"2022-05-06"
"普陀区","上海市普陀区武宁四村",121.43211837106581,31.249938742346455,"2022-05-06"
"普陀区","上海市普陀区西乡路91弄",121.43205344908931,31.275563712821555,"2022-05-06"
"普陀区","上海市普陀区新村路50弄",121.43877475057607,31.271880860094644,"2022-05-06"
"普陀区","上海市普陀区延长西路220弄",121.44482223309979,31.270641867339766,"2022-05-06"
"普陀区","上海市普陀区延长西路526弄",121.43987733075902,31.26767468412048,"2022-05-06"
"普陀区","上海市普陀区延长西路540弄",121.4394720153129,31.26618885793106,"2022-05-06"
"普陀区","上海市普陀区真光路1509号",121.38987162742673,31.253396580138052,"2022-05-06"
"普陀区","上海市普陀区真金路577弄",121.41181956662982,31.28026494533764,"2022-05-06"
"普陀区","上海市普陀区中华新路1188号",121.4551091786473,31.26156192640069,"2022-05-06"
"虹口区","上海市虹口区安汾路780弄",121.47928805958443,31.321419841970638,"2022-05-06"
"虹口区","上海市虹口区宝安路160弄",121.49378895627925,31.270302813958228,"2022-05-06"
"虹口区","上海市虹口区宝安路290号",121.49318551955291,31.273057914996873,"2022-05-06"
"虹口区","上海市虹口区宝山路625号",121.48570312872282,31.265981666060725,"2022-05-06"
"虹口区","上海市虹口区保定路230号",121.51759513026026,31.26321690316136,"2022-05-06"
"虹口区","上海市虹口区北苏州路400号",121.49008793757814,31.248865877052367,"2022-05-06"
"虹口区","上海市虹口区长春路214弄",121.4922419843605,31.267331761700316,"2022-05-06"
"虹口区","上海市虹口区长春路304号",121.4917015637657,31.269014723974717,"2022-05-06"
"虹口区","上海市虹口区长阳路8号",121.51497315613774,31.25922047701256,"2022-05-06"
"虹口区","上海市虹口区场中路4弄",121.51158645453457,31.269746698931357,"2022-05-06"
"虹口区","上海市虹口区车站北路188弄",121.48503577755947,31.30387215297089,"2022-05-06"
"虹口区","上海市虹口区车站北路507弄",121.47987168867425,31.302619777329497,"2022-05-06"
"虹口区","上海市虹口区车站南路460弄",121.47907864623562,31.301017963450622,"2022-05-06"
"虹口区","上海市虹口区赤峰路455号",121.49284959820746,31.287998536950994,"2022-05-06"
"虹口区","上海市虹口区大连西路145弄",121.50347807950986,31.281806406747297,"2022-05-06"
"虹口区","上海市虹口区大连西路96号",121.50245706546723,31.283519814743904,"2022-05-06"
"虹口区","上海市虹口区丹徒路377号",121.50798487825342,31.262312171759003,"2022-05-06"
"虹口区","上海市虹口区东汉阳路309弄",121.49092431386134,31.28161947812009,"2022-05-06"
"虹口区","上海市虹口区东汉阳路338弄",121.50239418408152,31.25670038807668,"2022-05-06"
"虹口区","上海市虹口区东汉阳路490号",121.50458003087896,31.25813288426385,"2022-05-06"
"虹口区","上海市虹口区东体育会路100弄",121.49158083150516,31.28372071841317,"2022-05-06"
"虹口区","上海市虹口区东体育会路119弄",121.48989273579082,31.279535058842878,"2022-05-06"
"虹口区","上海市虹口区东体育会路880弄",121.49458728038596,31.290471802459454,"2022-05-06"
"虹口区","上海市虹口区东余杭路211弄",121.51569939214394,31.267242448215843,"2022-05-06"
"虹口区","上海市虹口区东余杭路600号",121.50633334357333,31.259625629665116,"2022-05-06"
"虹口区","上海市虹口区东余杭路760弄",121.50823748176283,31.26117121302513,"2022-05-06"
"虹口区","上海市虹口区东长治路340弄",121.50199084490754,31.254322698465653,"2022-05-06"
"虹口区","上海市虹口区峨嵋路366弄",121.49724267147344,31.25761319984298,"2022-05-06"
"虹口区","上海市虹口区飞虹路187弄",121.50855700903271,31.26744588926117,"2022-05-06"
"虹口区","上海市虹口区飞虹路237弄",121.50885749222581,31.268241228709755,"2022-05-06"
"虹口区","上海市虹口区广灵二路264弄",121.48052313983008,31.290237894630867,"2022-05-06"
"虹口区","上海市虹口区广粤路53弄",121.47148151521105,31.288090574861844,"2022-05-06"
"虹口区","上海市虹口区广中四村",121.48431928908471,31.285758816952566,"2022-05-06"
"虹口区","上海市虹口区海伦路188弄",121.50059020695639,31.262834222293737,"2022-05-06"
"虹口区","上海市虹口区海伦路216号",121.49995672191075,31.263017884611706,"2022-05-06"
"虹口区","上海市虹口区海伦路224号",121.4998257489674,31.263059710181555,"2022-05-06"
"虹口区","上海市虹口区海伦路88弄",121.50195428387329,31.262416890777107,"2022-05-06"
"虹口区","上海市虹口区海门路171弄",121.51390731665016,31.260338153869508,"2022-05-06"
"虹口区","上海市虹口区海宁路302号",121.49306851526023,31.256936965231905,"2022-05-06"
"虹口区","上海市虹口区海宁路5号",121.49823197533159,31.258801894598882,"2022-05-06"
"虹口区","上海市虹口区恒业路387弄",121.47940241387583,31.271654390391202,"2022-05-06"
"虹口区","上海市虹口区横浜路132号",121.48576484231137,31.26914482240949,"2022-05-06"
"虹口区","上海市虹口区横浜路178弄",121.48453676884867,31.270198489593266,"2022-05-06"
"虹口区","上海市虹口区花园路118弄",121.48014396507433,31.276928870008113,"2022-05-06"
"虹口区","上海市虹口区华昌路68弄",121.48416064833165,31.26832163424205,"2022-05-06"
"虹口区","上海市虹口区华严路98弄",121.47941409184747,31.30923197032829,"2022-05-06"
"虹口区","上海市虹口区溧阳路1114弄",121.4922815996335,31.26785517316054,"2022-05-06"
"虹口区","上海市虹口区凉城路210弄",121.47639353957017,31.288631922581505,"2022-05-06"
"虹口区","上海市虹口区凉城路2289号",121.47823138281304,31.31588063765626,"2022-05-06"
"虹口区","上海市虹口区凉城路465弄",121.47645157010611,31.29383447129653,"2022-05-06"
"虹口区","上海市虹口区凉城路847弄",121.4773949705527,31.30451607546455,"2022-05-06"
"虹口区","上海市虹口区临平北路2号",121.49992420325128,31.268472182226315,"2022-05-06"
"虹口区","上海市虹口区临平路172弄",121.50582133937615,31.265809533123328,"2022-05-06"
"虹口区","上海市虹口区临平路20弄",121.50224479587521,31.267832795316448,"2022-05-06"
"虹口区","上海市虹口区临平路25弄",121.5036115582528,31.26759596348152,"2022-05-06"
"虹口区","上海市虹口区临平路30弄",121.5048272445553,31.26632196978412,"2022-05-06"
"虹口区","上海市虹口区临平路60弄",121.49829602451445,31.2685518930803,"2022-05-06"
"虹口区","上海市虹口区闵行路201号",121.49785828023944,31.2526549842722,"2022-05-06"
"虹口区","上海市虹口区欧阳路289弄",121.49508359418022,31.274007642312377,"2022-05-06"
"虹口区","上海市虹口区欧阳路322号",121.4942352344566,31.275706301811123,"2022-05-06"
"虹口区","上海市虹口区欧阳路351弄",121.49539773161706,31.275452527208408,"2022-05-06"
"虹口区","上海市虹口区曲阳路428弄",121.49821778210453,31.279421563295106,"2022-05-06"
"虹口区","上海市虹口区曲阳路990弄",121.49792996501913,31.296183847188896,"2022-05-06"
"虹口区","上海市虹口区瑞虹路10弄",121.50507122433181,31.26788596197865,"2022-05-06"
"虹口区","上海市虹口区瑞虹路25弄",121.51158645453457,31.269746698931357,"2022-05-06"
"虹口区","上海市虹口区瑞虹路40弄",121.5048272445553,31.26632196978412,"2022-05-06"
"虹口区","上海市虹口区三门路719弄",121.48730202270004,31.318621398382895,"2022-05-06"
"虹口区","上海市虹口区三门路750弄",121.48884881495766,31.31700881939845,"2022-05-06"
"虹口区","上海市虹口区山阴路133弄",121.4913996432838,31.271848760844684,"2022-05-06"
"虹口区","上海市虹口区山阴路229弄",121.49203966509202,31.273221630503624,"2022-05-06"
"虹口区","上海市虹口区山阴路303弄",121.49182975196197,31.27443734474291,"2022-05-06"
"虹口区","上海市虹口区山阴路340弄",121.49124621270269,31.273921300357273,"2022-05-06"
"虹口区","上海市虹口区山阴路69弄",121.49398083433617,31.27074611404702,"2022-05-06"
"虹口区","上海市虹口区商业一村",121.48269488323102,31.281579498188496,"2022-05-06"
"虹口区","上海市虹口区四川北路1350号",121.49099055495455,31.25876230512533,"2022-05-06"
"虹口区","上海市虹口区四川北路1515弄",121.48891178617392,31.26148236392398,"2022-05-06"
"虹口区","上海市虹口区四川北路1689号",121.4892790134664,31.26439989339211,"2022-05-06"
"虹口区","上海市虹口区四达路25弄",121.49792762942481,31.272427394429403,"2022-05-06"
"虹口区","上海市虹口区四达路53号",121.49740930714556,31.272633800394885,"2022-05-06"
"虹口区","上海市虹口区四平路621弄",121.5005054967468,31.277798353549326,"2022-05-06"
"虹口区","上海市虹口区四平路850弄",121.50715682023433,31.27898432252976,"2022-05-06"
"虹口区","上海市虹口区松花江路2501弄",121.50672069290923,31.295738353595354,"2022-05-06"
"虹口区","上海市虹口区唐山路577弄",121.51196446149316,31.261270762904577,"2022-05-06"
"虹口区","上海市虹口区唐山路708弄",121.51396462854169,31.26286586162634,"2022-05-06"
"虹口区","上海市虹口区唐山路725弄",121.51391926411344,31.26334646948838,"2022-05-06"
"虹口区","上海市虹口区天宝路881号",121.50693583707887,31.276551877823184,"2022-05-06"
"虹口区","上海市虹口区天宝西路231弄",121.5025060231175,31.280070901017577,"2022-05-06"
"虹口区","上海市虹口区天宝西路252弄",121.49907305878058,31.2790654132163,"2022-05-06"
"虹口区","上海市虹口区甜爱路200号",121.49072681245683,31.27508015860465,"2022-05-06"
"虹口区","上海市虹口区通州路188号",121.50282698767623,31.263852849086238,"2022-05-06"
"虹口区","上海市虹口区同心路125弄",121.48450595696968,31.272902860495766,"2022-05-06"
"虹口区","上海市虹口区同心路189弄",121.52890874917513,31.271257932055267,"2022-05-06"
"虹口区","上海市虹口区同心路93弄",121.48536779127595,31.272135493177043,"2022-05-06"
"虹口区","上海市虹口区文治路8弄",121.51158645453457,31.269746698931357,"2022-05-06"
"虹口区","上海市虹口区汶水东路717弄",121.4754337899633,31.299080390811287,"2022-05-06"
"虹口区","上海市虹口区吴淞路48号",121.49629513882152,31.250663628645,"2022-05-06"
"虹口区","上海市虹口区梧州路299弄",121.49847891951629,31.26123989473625,"2022-05-06"
"虹口区","上海市虹口区梧州路369号",121.49927868091181,31.26249884470942,"2022-05-06"
"虹口区","上海市虹口区武进路266号",121.49213580464922,31.258080638128853,"2022-05-06"
"虹口区","上海市虹口区武进路85号",121.49529999597758,31.25878985569642,"2022-05-06"
"虹口区","上海市虹口区物华路98弄",121.50052274421259,31.264628772877874,"2022-05-06"
"虹口区","上海市虹口区西宝兴路949弄",121.47502955248382,31.275593187403278,"2022-05-06"
"虹口区","上海市虹口区西江湾路18弄",121.48380689562181,31.271832788377257,"2022-05-06"
"虹口区","上海市虹口区祥德路274弄",121.49635793037667,31.276704650115885,"2022-05-06"
"虹口区","上海市虹口区祥德路96弄",121.49204139274012,31.27692053700041,"2022-05-06"
"虹口区","上海市虹口区新港路143号",121.50881985322495,31.274085033648458,"2022-05-06"
"虹口区","上海市虹口区新港路18号",121.51116272382552,31.274586879799156,"2022-05-06"
"虹口区","上海市虹口区新市南路546弄",121.48749057702658,31.299386709949953,"2022-05-06"
"虹口区","上海市虹口区新市南路585号",121.48768703644161,31.300873859263007,"2022-05-06"
"虹口区","上海市虹口区逸仙路288弄",121.49374179523997,31.304442720359262,"2022-05-06"
"虹口区","上海市虹口区玉田路418号",121.49541381128569,31.285124486021,"2022-05-06"
"虹口区","上海市虹口区玉田路422号",121.49527142986236,31.285133049748726,"2022-05-06"
"虹口区","上海市虹口区岳州路371弄",121.50970019262473,31.268039597257733,"2022-05-06"
"虹口区","上海市虹口区粤秀路351号",121.46780205584218,31.294244488128076,"2022-05-06"
"虹口区","上海市虹口区乍浦路252弄",121.49399457841047,31.25477749638178,"2022-05-06"
"虹口区","上海市虹口区中山北一路189弄",121.52890874917513,31.271257932055267,"2022-05-06"
"虹口区","上海市虹口区中山北一路190号",121.48476996895907,31.279695541774974,"2022-05-06"
"虹口区","上海市虹口区周家嘴路1050号",121.51388135562091,31.267710334398874,"2022-05-06"
"虹口区","上海市虹口区周家嘴路1063弄",121.51324400786159,31.267787730952087,"2022-05-06"
"虹口区","上海市虹口区株洲路300弄",121.47148367114428,31.284779544587238,"2022-05-06"
"杨浦区","上海市杨浦区安图路18弄",121.55036504577262,31.2965351492087,"2022-05-06"
"杨浦区","上海市杨浦区鞍山六村",121.5117733919112,31.27971544781173,"2022-05-06"
"杨浦区","上海市杨浦区鞍山五村",121.51235773964545,31.280881332354,"2022-05-06"
"杨浦区","上海市杨浦区鞍山一村",121.51893360547014,31.282255670179474,"2022-05-06"
"杨浦区","上海市杨浦区包头南路588弄",121.54687836276618,31.30610017684735,"2022-05-06"
"杨浦区","上海市杨浦区波阳路301号",121.55933714154517,31.279891901525836,"2022-05-06"
"杨浦区","上海市杨浦区长白三村",121.54556126722746,31.29484111147227,"2022-05-06"
"杨浦区","上海市杨浦区长海路174号",121.53233167815623,31.314414529686214,"2022-05-06"
"杨浦区","上海市杨浦区长阳路1841弄",121.54216782833295,31.278264224885685,"2022-05-06"
"杨浦区","上海市杨浦区长阳路1969弄",121.54568406559068,31.27807357129577,"2022-05-06"
"杨浦区","上海市杨浦区长阳路2087弄",121.547326347724,31.278991575172526,"2022-05-06"
"杨浦区","上海市杨浦区长阳路2121弄",121.54811523962286,31.280107935352337,"2022-05-06"
"杨浦区","上海市杨浦区大连路1188弄",121.51325748244425,31.273435422826694,"2022-05-06"
"杨浦区","上海市杨浦区大连路1288弄",121.51360153345456,31.273541672583598,"2022-05-06"
"杨浦区","上海市杨浦区飞虹路600弄",121.51588906843571,31.271457318863494,"2022-05-06"
"杨浦区","上海市杨浦区飞虹路656弄",121.51813150848028,31.27234899862357,"2022-05-06"
"杨浦区","上海市杨浦区飞虹路720弄",121.51870310027627,31.273645993214977,"2022-05-06"
"杨浦区","上海市杨浦区凤城二村",121.52513433891386,31.284134020032397,"2022-05-06"
"杨浦区","上海市杨浦区凤城三村",121.5282979912589,31.28782287004112,"2022-05-06"
"杨浦区","上海市杨浦区凤城五村",121.52436700634723,31.288086871745644,"2022-05-06"
"杨浦区","上海市杨浦区工农三村",121.54152131785743,31.329314122046643,"2022-05-06"
"杨浦区","上海市杨浦区共青路119弄",121.56869272393995,31.283427000806007,"2022-05-06"
"杨浦区","上海市杨浦区共青路35号",121.56902159358714,31.280718613983773,"2022-05-06"
"杨浦区","上海市杨浦区广远新村",121.55480330380576,31.2939797324045,"2022-05-06"
"杨浦区","上海市杨浦区国定路700弄",121.51044866077564,31.312403611055103,"2022-05-06"
"杨浦区","上海市杨浦区国权北路10弄",121.50204878561293,31.31586613810287,"2022-05-06"
"杨浦区","上海市杨浦区国权路29号",121.52577483074248,31.294535240270438,"2022-05-06"
"杨浦区","上海市杨浦区国权路37号",121.5254631187305,31.294340222748833,"2022-05-06"
"杨浦区","上海市杨浦区国顺路128弄",121.52140250833375,31.296426148525867,"2022-05-06"
"杨浦区","上海市杨浦区邯郸路500弄",121.51881440032896,31.305565486823262,"2022-05-06"
"杨浦区","上海市杨浦区邯郸路50弄",121.49835558216976,31.300297561825868,"2022-05-06"
"杨浦区","上海市杨浦区杭州路877号",121.55247552473776,31.273969602479614,"2022-05-06"
"杨浦区","上海市杨浦区黄兴路1039弄",121.53000252596408,31.286116330200333,"2022-05-06"
"杨浦区","上海市杨浦区黄兴路2053弄",121.52349178728886,31.301941978697375,"2022-05-06"
"杨浦区","上海市杨浦区江浦路1315弄",121.52565311034587,31.27695888426116,"2022-05-06"
"杨浦区","上海市杨浦区江浦路740弄",121.5315079063377,31.268277573253556,"2022-05-06"
"杨浦区","上海市杨浦区锦西路150弄",121.51586939554505,31.28046423576434,"2022-05-06"
"杨浦区","上海市杨浦区锦西路63弄",121.5188370376278,31.28281171073007,"2022-05-06"
"杨浦区","上海市杨浦区军工路2850号",121.54857517204398,31.33843990539126,"2022-05-06"
"杨浦区","上海市杨浦区开鲁二村",121.53419096523491,31.32814622068962,"2022-05-06"
"杨浦区","上海市杨浦区开鲁路500号",121.53424621102377,31.33102696615665,"2022-05-06"
"杨浦区","上海市杨浦区开鲁四村",121.53691498686335,31.332001974649078,"2022-05-06"
"杨浦区","上海市杨浦区控江二村",121.53254086784362,31.285566404206357,"2022-05-06"
"杨浦区","上海市杨浦区控江六村",121.53662303757261,31.29061190000752,"2022-05-06"
"杨浦区","上海市杨浦区控江路128弄",121.55572999576984,31.29627626273643,"2022-05-06"
"杨浦区","上海市杨浦区控江路1665号",121.5237109738333,31.279623864576404,"2022-05-06"
"杨浦区","上海市杨浦区控江路645弄",121.54624442856779,31.290339265048075,"2022-05-06"
"杨浦区","上海市杨浦区控江路802弄",121.5427833472684,31.28912489575596,"2022-05-06"
"杨浦区","上海市杨浦区控江路874弄",121.54260224887759,31.289039647842312,"2022-05-06"
"杨浦区","上海市杨浦区控江路888弄",121.54022425453157,31.289846452580182,"2022-05-06"
"杨浦区","上海市杨浦区控江路980弄",121.53797489753458,31.28666455566765,"2022-05-06"
"杨浦区","上海市杨浦区控江七村",121.53858996731726,31.28914186818196,"2022-05-06"
"杨浦区","上海市杨浦区控江三村",121.53801945348789,31.291062895422108,"2022-05-06"
"杨浦区","上海市杨浦区控江五村",121.53661728841736,31.29349226207843,"2022-05-06"
"杨浦区","上海市杨浦区兰州路1101弄",121.53327056140938,31.272595605680525,"2022-05-06"
"杨浦区","上海市杨浦区眉州路432弄",121.54166944843602,31.269393984327156,"2022-05-06"
"杨浦区","上海市杨浦区民府路203号",121.52173742035671,31.31858526842789,"2022-05-06"
"杨浦区","上海市杨浦区民府路229号",121.52114990821417,31.318207098467067,"2022-05-06"
"杨浦区","上海市杨浦区民京路187号",121.5321405033442,31.32839164037574,"2022-05-06"
"杨浦区","上海市杨浦区内江路260号",121.5534114692486,31.28600801170011,"2022-05-06"
"杨浦区","上海市杨浦区内江一村",121.54821962272314,31.29065047308406,"2022-05-06"
"杨浦区","上海市杨浦区内江支路260号",121.55480563940009,31.286887054361934,"2022-05-06"
"杨浦区","上海市杨浦区嫩江路857号",121.54567086049967,31.320657732133533,"2022-05-06"
"杨浦区","上海市杨浦区平凉路1889弄",121.55023865418735,31.275817718597352,"2022-05-06"
"杨浦区","上海市杨浦区平凉路1988弄",121.55292476732329,31.27654663109354,"2022-05-06"
"杨浦区","上海市杨浦区平凉路2545弄",121.54582545887793,31.272526392188638,"2022-05-06"
"杨浦区","上海市杨浦区平凉路2678号",121.56168297655393,31.283218844190873,"2022-05-06"
"杨浦区","上海市杨浦区平凉路2767弄",121.56333846377827,31.284702779321822,"2022-05-06"
"杨浦区","上海市杨浦区齐齐哈尔路872号",121.53183893191813,31.271957172930662,"2022-05-06"
"杨浦区","上海市杨浦区虬江码头路2号",121.56166680705475,31.315829426457604,"2022-05-06"
"杨浦区","上海市杨浦区虬江码头路5号",121.56233137347103,31.31627783199211,"2022-05-06"
"杨浦区","上海市杨浦区三门路318弄",121.49853156021916,31.31537824224203,"2022-05-06"
"杨浦区","上海市杨浦区三门路358弄",121.49919954019639,31.31697804677975,"2022-05-06"
"杨浦区","上海市杨浦区三门路510弄",121.4971302036236,31.317066894012093,"2022-05-06"
"杨浦区","上海市杨浦区世界路65弄",121.53208982864707,31.32485704804849,"2022-05-06"
"杨浦区","上海市杨浦区市光路132弄",121.53957311957929,31.329899823887008,"2022-05-06"
"杨浦区","上海市杨浦区市光路146弄",121.53964025677718,31.330008620740124,"2022-05-06"
"杨浦区","上海市杨浦区市光路176号",121.54156883821891,31.3266541080579,"2022-05-06"
"杨浦区","上海市杨浦区市光一村",121.54272801164899,31.322038964866046,"2022-05-06"
"杨浦区","上海市杨浦区双辽路200弄",121.52279892424902,31.278407427002413,"2022-05-06"
"杨浦区","上海市杨浦区双辽新村",121.52297598026503,31.277896419735892,"2022-05-06"
"杨浦区","上海市杨浦区双辽支路60弄",121.52270343437331,31.275784540482384,"2022-05-06"
"杨浦区","上海市杨浦区双辽支路70弄",121.52344812964108,31.27646330064205,"2022-05-06"
"杨浦区","上海市杨浦区双阳路160弄",121.5425409844418,31.28020090689886,"2022-05-06"
"杨浦区","上海市杨浦区双阳路300弄",121.54121032448987,31.281000072607377,"2022-05-06"
"杨浦区","上海市杨浦区双阳路50弄",121.54464068374082,31.278045563471338,"2022-05-06"
"杨浦区","上海市杨浦区双阳路666弄",121.53368647686051,31.293613454891357,"2022-05-06"
"杨浦区","上海市杨浦区顺平路59弄",121.56210535980472,31.28945277162139,"2022-05-06"
"杨浦区","上海市杨浦区四平路1950弄",121.51828943058892,31.296372998111355,"2022-05-06"
"杨浦区","上海市杨浦区四平路2100弄",121.51909826487011,31.299191239731783,"2022-05-06"
"杨浦区","上海市杨浦区四平路2152号",121.52001669242351,31.30030141873394,"2022-05-06"
"杨浦区","上海市杨浦区松花江路337号",121.53684087665879,31.295833778116357,"2022-05-06"
"杨浦区","上海市杨浦区铁岭路50弄",121.52178132376731,31.28550506966703,"2022-05-06"
"杨浦区","上海市杨浦区图们路10弄",121.55447685958343,31.298141679538187,"2022-05-06"
"杨浦区","上海市杨浦区武川路220弄",121.50319466412147,31.306671039141094,"2022-05-06"
"杨浦区","上海市杨浦区翔殷路498号",121.54332565430477,31.313057115610505,"2022-05-06"
"杨浦区","上海市杨浦区翔殷路500弄",121.54288243036615,31.312980682114596,"2022-05-06"
"杨浦区","上海市杨浦区许昌路1128弄",121.52418734524524,31.271715116733525,"2022-05-06"
"杨浦区","上海市杨浦区延吉东路125弄",121.55113471393356,31.300534992789927,"2022-05-06"
"杨浦区","上海市杨浦区延吉东路137弄",121.55137761574345,31.299151281680984,"2022-05-06"
"杨浦区","上海市杨浦区延吉东路315弄",121.54904103328145,31.29584889791833,"2022-05-06"
"杨浦区","上海市杨浦区延吉七村",121.53947785248333,31.296751607370542,"2022-05-06"
"杨浦区","上海市杨浦区延吉西路80弄",121.52891620511086,31.28660916235966,"2022-05-06"
"杨浦区","上海市杨浦区延吉一村",121.54433543952854,31.291049549198394,"2022-05-06"
"杨浦区","上海市杨浦区延吉中路117弄",121.54178461120239,31.289896983721565,"2022-05-06"
"杨浦区","上海市杨浦区营口路866弄",121.53899213869408,31.30827986316693,"2022-05-06"
"杨浦区","上海市杨浦区政本路119号",121.52190609840265,31.29700316414025,"2022-05-06"
"杨浦区","上海市杨浦区政立路505弄",121.50992997917419,31.315174244559568,"2022-05-06"
"杨浦区","上海市杨浦区政立路580弄",121.51273359067082,31.31355019113766,"2022-05-06"
"杨浦区","上海市杨浦区政立路821弄",121.50145015482109,31.31389294380835,"2022-05-06"
"杨浦区","上海市杨浦区周家嘴路1299弄",121.51724380297532,31.269352778902586,"2022-05-06"
"杨浦区","上海市杨浦区周家嘴路1683弄",121.51940108365751,31.27205293040515,"2022-05-06"
"杨浦区","上海市杨浦区周家嘴路2200号",121.52424816052826,31.274115125975182,"2022-05-06"
"杨浦区","上海市杨浦区周家嘴路3109弄",121.53757793632973,31.282071814222505,"2022-05-06"
"杨浦区","上海市杨浦区周家嘴路4440号",121.56022996739154,31.291817841131618,"2022-05-06"
"宝山区","上海市宝山区爱辉路28弄",121.45973320625991,31.334766628089632,"2022-05-06"
"宝山区","上海市宝山区爱辉路701号",121.45427357486192,31.351644479586792,"2022-05-06"
"宝山区","上海市宝山区宝安公路2145号",121.35520287372739,31.355399811750832,"2022-05-06"
"宝山区","上海市宝山区宝菊路22弄",121.4965630135246,31.41027947347614,"2022-05-06"
"宝山区","上海市宝山区宝菊路133弄",121.37253298362589,31.34877285235173,"2022-05-06"
"宝山区","上海市宝山区宝祁路399号",121.35609300465724,31.308227722215403,"2022-05-06"
"宝山区","上海市宝山区宝杨路1850号",121.48243545259973,31.397813340971908,"2022-05-06"
"宝山区","上海市宝山区宝杨路3184弄",121.44630991685487,31.38004181244712,"2022-05-06"
"宝山区","上海市宝山区宝杨路3410弄",121.43788201456024,31.378403706224404,"2022-05-06"
"宝山区","上海市宝山区长江路180号",121.50450538169108,31.357310762898145,"2022-05-06"
"宝山区","上海市宝山区长江路860弄",121.4918176248376,31.349638736658694,"2022-05-06"
"宝山区","上海市宝山区长江西路366号",121.48248171533348,31.34925793281885,"2022-05-06"
"宝山区","上海市宝山区长江西路1301号",121.46220471420952,31.34397113838864,"2022-05-06"
"宝山区","上海市宝山区长临路1318弄",121.43699736329403,31.33432278386323,"2022-05-06"
"宝山区","上海市宝山区长逸路128号",121.50152444468677,31.34440491343602,"2022-05-06"
"宝山区","上海市宝山区场北路71弄",121.42655303462116,31.341582255361168,"2022-05-06"
"宝山区","上海市宝山区城银路555弄",121.35643912177022,31.321472052667513,"2022-05-06"
"宝山区","上海市宝山区城银路655弄",121.35609776567642,31.322042743754995,"2022-05-06"
"宝山区","上海市宝山区大华路1380弄",121.4217265289466,31.291878245782012,"2022-05-06"
"宝山区","上海市宝山区大华一路198号",121.4205107622694,31.27594202068608,"2022-05-06"
"宝山区","上海市宝山区大康路61号",121.43585382037982,31.3210875282974,"2022-05-06"
"宝山区","上海市宝山区大康路325号",121.43259216290365,31.324292543654447,"2022-05-06"
"宝山区","上海市宝山区电台路398弄",121.39926601661952,31.359168868562204,"2022-05-06"
"宝山区","上海市宝山区东太路80弄",121.37452039473617,31.39308975420386,"2022-05-06"
"宝山区","上海市宝山区东太路399号",121.36697013692479,31.39003907640368,"2022-05-06"
"宝山区","上海市宝山区飞云路21号",121.34700368001562,31.471465522896647,"2022-05-06"
"宝山区","上海市宝山区富锦路885号",121.46655889084693,31.41495156924217,"2022-05-06"
"宝山区","上海市宝山区富联路128弄",121.4170625267388,31.35961683430447,"2022-05-06"
"宝山区","上海市宝山区富联路1588号",121.40405829685416,31.382562423457685,"2022-05-06"
"宝山区","上海市宝山区富联路1666号",121.40333489142698,31.38376809992248,"2022-05-06"
"宝山区","上海市宝山区富联三路66号",121.41338064194505,31.382765117538455,"2022-05-06"
"宝山区","上海市宝山区富桥路99号",121.41366827936933,31.382679646970427,"2022-05-06"
"宝山区","上海市宝山区高境路477弄",121.47848641174733,31.32976477614167,"2022-05-06"
"宝山区","上海市宝山区高跃路133弄",121.47927341720461,31.324680216643554,"2022-05-06"
"宝山区","上海市宝山区革新路20号",121.46149469353442,31.34486605742743,"2022-05-06"
"宝山区","上海市宝山区共富路518弄",121.4304325466271,31.354404464190388,"2022-05-06"
"宝山区","上海市宝山区共富路618号",121.42729251971697,31.353675697433374,"2022-05-06"
"宝山区","上海市宝山区共和新路4703弄",121.45779951381914,31.32450662386527,"2022-05-06"
"宝山区","上海市宝山区共和新路4719弄",121.45397533743261,31.325372733705944,"2022-05-06"
"宝山区","上海市宝山区共康东路356号",121.46515061729893,31.329183876129722,"2022-05-06"
"宝山区","上海市宝山区共康路88弄",121.45006959490577,31.32718674927915,"2022-05-06"
"宝山区","上海市宝山区顾北东路39弄",121.42263238022286,31.36727925091771,"2022-05-06"
"宝山区","上海市宝山区顾北路39弄",121.39751231893707,31.358395239633655,"2022-05-06"
"宝山区","上海市宝山区顾北路448号",121.39934488784331,31.357721117350007,"2022-05-06"
"宝山区","上海市宝山区顾太路98号",121.4056026636869,31.35086326573882,"2022-05-06"
"宝山区","上海市宝山区国权北路220弄",121.50021597288092,31.320858247367717,"2022-05-06"
"宝山区","上海市宝山区国权北路290弄",121.50127714117987,31.322473536091852,"2022-05-06"
"宝山区","上海市宝山区国权北路380弄",121.50204070086335,31.32284124269155,"2022-05-06"
"宝山区","上海市宝山区国权北路828弄",121.50212630937844,31.333039432939476,"2022-05-06"
"宝山区","上海市宝山区海江路667弄",121.49644003550029,31.401743187173206,"2022-05-06"
"宝山区","上海市宝山区涵青路398弄",121.4037305950041,31.335129428306214,"2022-05-06"
"宝山区","上海市宝山区呼兰路515弄",121.45662524885648,31.353420515934296,"2022-05-06"
"宝山区","上海市宝山区虎林路99弄",121.46787526774125,31.33337509688089,"2022-05-06"
"宝山区","上海市宝山区虎林路135弄",121.46483001206244,31.342649908521366,"2022-05-06"
"宝山区","上海市宝山区虎林路518弄",121.46215979893402,31.346223107448605,"2022-05-06"
"宝山区","上海市宝山区沪联路1666弄",121.3618745502073,31.366045953859363,"2022-05-06"
"宝山区","上海市宝山区沪太路3717弄",121.40711154745202,31.35149576189261,"2022-05-06"
"宝山区","上海市宝山区沪太路4201弄",121.41011844548557,31.342198854118443,"2022-05-06"
"宝山区","上海市宝山区沪太路6545弄",121.40905189763572,31.32549576596026,"2022-05-06"
"宝山区","上海市宝山区华灵路560弄",121.42864033730415,31.281212323327416,"2022-05-06"
"宝山区","上海市宝山区华灵路839号",121.42922378673288,31.285444197990035,"2022-05-06"
"宝山区","上海市宝山区华灵路1681弄",121.41567437523422,31.286743710950454,"2022-05-06"
"宝山区","上海市宝山区华灵路1781弄",121.41410009482799,31.287724814279247,"2022-05-06"
"宝山区","上海市宝山区华灵路1895弄",121.40975588938174,31.288562875270195,"2022-05-06"
"宝山区","上海市宝山区华灵路1900弄",121.41151405292587,31.284878529253408,"2022-05-06"
"宝山区","上海市宝山区华秋路205号",121.38620995450695,31.328433859688136,"2022-05-06"
"宝山区","上海市宝山区环镇北路699弄",121.40787771222148,31.314721437523154,"2022-05-06"
"宝山区","上海市宝山区环镇北路1366弄",121.39256654395666,31.31348023673619,"2022-05-06"
"宝山区","上海市宝山区吉浦路615弄",121.49860037042123,31.32326724995041,"2022-05-06"
"宝山区","上海市宝山区集贤路2020弄",121.35641271158823,31.43127867538036,"2022-05-06"
"宝山区","上海市宝山区佳龙路19号",121.3948116736336,31.346414050365304,"2022-05-06"
"宝山区","上海市宝山区江杨北路1568弄",121.4470099663388,31.40520193079418,"2022-05-06"
"宝山区","上海市宝山区江杨南路1568号",121.47298344209908,31.34157612130832,"2022-05-06"
"宝山区","上海市宝山区江杨南路1807号",121.47295446675577,31.346221565445138,"2022-05-06"
"宝山区","上海市宝山区蒋巷街123号",121.35325498805955,31.41753255850738,"2022-05-06"
"宝山区","上海市宝山区教育路555弄",121.40177803814763,31.362871555602567,"2022-05-06"
"宝山区","上海市宝山区金石路2588号",121.3390843084702,31.45519916283445,"2022-05-06"
"宝山区","上海市宝山区锦秋路101号",121.41038497273037,31.327980885699994,"2022-05-06"
"宝山区","上海市宝山区锦伟路40号",121.40468437087934,31.400314594285863,"2022-05-06"
"宝山区","上海市宝山区菊泉街1596弄",121.37881200842237,31.367549747702906,"2022-05-06"
"宝山区","上海市宝山区菊盛路468弄",121.37735050624534,31.36222433603662,"2022-05-06"
"宝山区","上海市宝山区菊太路1221弄",121.36260814502944,31.357060602289508,"2022-05-06"
"宝山区","上海市宝山区聚丰园路91弄",121.39170785371968,31.321183081131924,"2022-05-06"
"宝山区","上海市宝山区聚丰园路105弄",121.39141473663176,31.32172014947895,"2022-05-06"
"宝山区","上海市宝山区康陆路188号",121.4328659664231,31.325091871615484,"2022-05-06"
"宝山区","上海市宝山区克山路12号",121.4743980437103,31.403834876375317,"2022-05-06"
"宝山区","上海市宝山区克山路550弄",121.47141656772268,31.41351678215951,"2022-05-06"
"宝山区","上海市宝山区兰岗路679号",121.46214794130128,31.38204158242126,"2022-05-06"
"宝山区","上海市宝山区莲花山路700弄",121.44598014890215,31.36728225714443,"2022-05-06"
"宝山区","上海市宝山区联长路140号",121.47005680267223,31.34247735155644,"2022-05-06"
"宝山区","上海市宝山区联长路209号",121.46956273464174,31.343710995754236,"2022-05-06"
"宝山区","上海市宝山区联长路221号",121.46935540573004,31.344079775094723,"2022-05-06"
"宝山区","上海市宝山区陆翔路678弄",121.37404249620485,31.35824278833933,"2022-05-06"
"宝山区","上海市宝山区罗芬路1288弄",121.35416901391595,31.410993774402808,"2022-05-06"
"宝山区","上海市宝山区罗和路118弄",121.34899297756746,31.38742187311805,"2022-05-06"
"宝山区","上海市宝山区罗和路935弄",121.3403190886633,31.399240567204888,"2022-05-06"
"宝山区","上海市宝山区罗宁路3030弄",121.33415701291742,31.491537905681994,"2022-05-06"
"宝山区","上海市宝山区罗智路258弄",121.35093744967436,31.39284508408847,"2022-05-06"
"宝山区","上海市宝山区毛家路212弄",121.39326320398052,31.439018599477937,"2022-05-06"
"宝山区","上海市宝山区梅林路97弄",121.44585941664161,31.36628225744698,"2022-05-06"
"宝山区","上海市宝山区湄浦路358号",121.46277064668081,31.407984134941042,"2022-05-06"
"宝山区","上海市宝山区湄星路1858号",121.41874702923111,31.38249907183308,"2022-05-06"
"宝山区","上海市宝山区美安路215弄",121.3564429844839,31.393826920177187,"2022-05-06"
"宝山区","上海市宝山区美丹路1058弄",121.34264348473128,31.400496981583245,"2022-05-06"
"宝山区","上海市宝山区美秀路558弄",121.4965630135246,31.41027947347614,"2022-05-06"
"宝山区","上海市宝山区南陈路278弄",121.40465207679624,31.314619707961448,"2022-05-06"
"宝山区","上海市宝山区南陈路279弄",121.40518117874163,31.314654337673076,"2022-05-06"
"宝山区","上海市宝山区南东路108弄",121.36767692370005,31.392681174016356,"2022-05-06"
"宝山区","上海市宝山区年吉路650弄",121.34146445874944,31.404977403002018,"2022-05-06"
"宝山区","上海市宝山区潘泾路4777弄",121.35537400092704,31.47010991581619,"2022-05-06"
"宝山区","上海市宝山区盘古路827号",121.47179439502018,31.408225837353122,"2022-05-06"
"宝山区","上海市宝山区盘古路895弄",121.4703324028027,31.407791974525647,"2022-05-06"
"宝山区","上海市宝山区盘古路927弄",121.46849402057651,31.407824874512688,"2022-05-06"
"宝山区","上海市宝山区盘古路2618弄",121.43687204967539,31.39565555358279,"2022-05-06"
"宝山区","上海市宝山区祁华路655弄",121.3794708665711,31.32701609157915,"2022-05-06"
"宝山区","上海市宝山区乾溪路201弄",121.41783803388557,31.310202116187043,"2022-05-06"
"宝山区","上海市宝山区沙浦路128弄",121.3953925232605,31.362197355609215,"2022-05-06"
"宝山区","上海市宝山区市台路388弄",121.35909648912984,31.32079531647911,"2022-05-06"
"宝山区","上海市宝山区市台路555弄",121.35467997009003,31.325317209142323,"2022-05-06"
"宝山区","上海市宝山区水产路2159号",121.45530500924848,31.37472691825304,"2022-05-06"
"宝山区","上海市宝山区水产路2399号",121.45204595685827,31.373776867618382,"2022-05-06"
"宝山区","上海市宝山区水产路2600弄",121.45026335940427,31.369531889583666,"2022-05-06"
"宝山区","上海市宝山区水产西路500弄",121.42873304243278,31.364334875008453,"2022-05-06"
"宝山区","上海市宝山区四元路126弄",121.43690852087909,31.41947959745513,"2022-05-06"
"宝山区","上海市宝山区松兰路1060号",121.4502882424669,31.389055659021103,"2022-05-06"
"宝山区","上海市宝山区松兰路1169弄",121.44881035024189,31.391019092610563,"2022-05-06"
"宝山区","上海市宝山区淞滨路810弄",121.49582909792295,31.37496369717037,"2022-05-06"
"宝山区","上海市宝山区淞发路500弄",121.49748180040021,31.346802667641935,"2022-05-06"
"宝山区","上海市宝山区淞发路901弄",121.48809711290691,31.345298903096133,"2022-05-06"
"宝山区","上海市宝山区泰和路710弄",121.4921107419255,31.376041449843296,"2022-05-06"
"宝山区","上海市宝山区泰和路1425号",121.4637908522485,31.370334837562805,"2022-05-06"
"宝山区","上海市宝山区泰和西路3493弄",121.4097033385094,31.356407483350445,"2022-05-06"
"宝山区","上海市宝山区塘后路285弄",121.51008529619685,31.40459414806367,"2022-05-06"
"宝山区","上海市宝山区塘祁路577弄",121.38370592789788,31.331692446800645,"2022-05-06"
"宝山区","上海市宝山区铁城路1555号",121.45990595040948,31.363107902168917,"2022-05-06"
"宝山区","上海市宝山区铁峰路2000弄",121.46028305906258,31.402959094162384,"2022-05-06"
"宝山区","上海市宝山区铁力路390号",121.4758957884871,31.391468985716084,"2022-05-06"
"宝山区","上海市宝山区铁山路9号",121.47520490171937,31.366736741027935,"2022-05-06"
"宝山区","上海市宝山区铁山路38号",121.47414400291208,31.368750902911728,"2022-05-06"
"宝山区","上海市宝山区通南路55弄",121.48349868700133,31.34457438276891,"2022-05-06"
"宝山区","上海市宝山区通南路328弄",121.47755441978072,31.34198681924278,"2022-05-06"
"宝山区","上海市宝山区纬地路88弄",121.41132136639398,31.3330935649043,"2022-05-06"
"宝山区","上海市宝山区汶水路1585弄",121.42239567672098,31.295736193621245,"2022-05-06"
"宝山区","上海市宝山区新二路1398弄",121.48112895706602,31.34082354877654,"2022-05-06"
"宝山区","上海市宝山区新沪路1060弄",121.42566299352188,31.279787896491147,"2022-05-06"
"宝山区","上海市宝山区新沪路1208号",121.42700003144293,31.282566442245432,"2022-05-06"
"宝山区","上海市宝山区杨泰路55弄",121.45608401978673,31.36944987549975,"2022-05-06"
"宝山区","上海市宝山区杨泰路321号",121.44908891478053,31.379820460925277,"2022-05-06"
"宝山区","上海市宝山区杨泰路328弄",121.44793540067516,31.378618586956787,"2022-05-06"
"宝山区","上海市宝山区杨泰路338弄",121.44631701346839,31.377828042304163,"2022-05-06"
"宝山区","上海市宝山区杨鑫路98弄",121.45688764389595,31.3783697167948,"2022-05-06"
"宝山区","上海市宝山区一二八纪念路55弄",121.47230256644718,31.334751283267188,"2022-05-06"
"宝山区","上海市宝山区一二八纪念路788弄",121.45794665626167,31.330371197035948,"2022-05-06"
"宝山区","上海市宝山区怡华苑路188弄",121.42674338555874,31.27814100607825,"2022-05-06"
"宝山区","上海市宝山区逸仙路1321弄",121.49556158254208,31.32158626828503,"2022-05-06"
"宝山区","上海市宝山区逸仙路3458弄",121.50302551319393,31.352497693618606,"2022-05-06"
"宝山区","上海市宝山区永清路335弄",121.50270320117696,31.39486654082464,"2022-05-06"
"宝山区","上海市宝山区永顺路28弄",121.35917616882857,31.42225875477379,"2022-05-06"
"宝山区","上海市宝山区友谊路1869弄",121.45429702063572,31.401951926709412,"2022-05-06"
"宝山区","上海市宝山区友谊路2858弄",121.44120098392797,31.39150489692532,"2022-05-06"
"宝山区","上海市宝山区郁江巷路129弄",121.48439241115321,31.348321133712137,"2022-05-06"
"宝山区","上海市宝山区园光路198号",121.34798658594228,31.303558974930493,"2022-05-06"
"宝山区","上海市宝山区园和路10号",121.39498909425596,31.412337609886052,"2022-05-06"
"宝山区","上海市宝山区月罗路259弄",121.37818762906535,31.42364619299955,"2022-05-06"
"宝山区","上海市宝山区蕰川路1498弄",121.4353475353944,31.367418616403288,"2022-05-06"
"宝山区","上海市宝山区蕰川路2728号",121.4442821574543,31.35241978048138,"2022-05-06"
"宝山区","上海市宝山区张桥街5弄",121.4965630135246,31.41027947347614,"2022-05-06"
"宝山区","上海市宝山区真陈路1398弄",121.35861966856514,31.321601769516057,"2022-05-06"
"宝山区","上海市宝山区真金路1039弄",121.41290480951642,31.29118193130988,"2022-05-06"
"宝山区","上海市宝山区镇泰路111弄",121.45098200381226,31.387958867802453,"2022-05-06"
"宝山区","上海市宝山区白杨村",121.40288564884143,31.347963164987032,"2022-05-06"
"宝山区","上海市宝山区宝城二村",121.49702492221783,31.415194023958755,"2022-05-06"
"宝山区","上海市宝山区宝钢四村",121.4922086572261,31.414180671521642,"2022-05-06"
"宝山区","上海市宝山区宝钢八村",121.48560647104995,31.415157351471535,"2022-05-06"
"宝山区","上海市宝山区宝钢十一村",121.49100349055391,31.416258136127276,"2022-05-06"
"宝山区","上海市宝山区东街村",121.45082471051747,31.384928907125317,"2022-05-06"
"宝山区","上海市宝山区高境二村",121.48519100475158,31.327801900989314,"2022-05-06"
"宝山区","上海市宝山区共富一村",121.43647859186201,31.35861521045371,"2022-05-06"
"宝山区","上海市宝山区共富二村",121.43808296550284,31.35455387107869,"2022-05-06"
"宝山区","上海市宝山区共和二村",121.46739638107388,31.32806563534186,"2022-05-06"
"宝山区","上海市宝山区共康六村",121.44546991137248,31.33422076724902,"2022-05-06"
"宝山区","上海市宝山区共康八村",121.43955951026958,31.330407825842034,"2022-05-06"
"宝山区","上海市宝山区海滨新村",121.49957197766082,31.38265691132368,"2022-05-06"
"宝山区","上海市宝山区海滨三村",121.49887390444901,31.38828200332175,"2022-05-06"
"宝山区","上海市宝山区海江二村",121.50955296035164,31.39841492643438,"2022-05-06"
"宝山区","上海市宝山区海陆村",121.39536314867033,31.46749789473386,"2022-05-06"
"宝山区","上海市宝山区呼玛一村",121.45830175642976,31.34814388423969,"2022-05-06"
"宝山区","上海市宝山区呼玛二村",121.4533096930497,31.34725655242708,"2022-05-06"
"宝山区","上海市宝山区呼玛三村",121.44810203634728,31.34571239450605,"2022-05-06"
"宝山区","上海市宝山区呼玛四村",121.452469957059,31.349510369490794,"2022-05-06"
"宝山区","上海市宝山区华浜新村",121.50073393583799,31.355599404214495,"2022-05-06"
"宝山区","上海市宝山区聚源桥村",121.39220704209157,31.4452782264077,"2022-05-06"
"宝山区","上海市宝山区罗南二村",121.37192815452602,31.3922040068017,"2022-05-06"
"宝山区","上海市宝山区马泾桥三村",121.42038329271753,31.424540644609053,"2022-05-06"
"宝山区","上海市宝山区毛家弄村",121.39292775260222,31.433511738998423,"2022-05-06"
"宝山区","上海市宝山区茂盛村",121.40593018587585,31.416320925452265,"2022-05-06"
"宝山区","上海市宝山区湄浦村",121.43237764754785,31.394080989093933,"2022-05-06"
"宝山区","上海市宝山区南周村",121.3415816876185,31.387561902025073,"2022-05-06"
"宝山区","上海市宝山区潘桥村",121.34154530624534,31.46592924534006,"2022-05-06"
"宝山区","上海市宝山区祁连二村",121.38412399928224,31.320696909759338,"2022-05-06"
