"district","address","lng","lat","date"
"浦东新区","上海市浦东新区八灶村唐家宅",121.724141797525,31.1621241979325,2022-04-12
"浦东新区","上海市浦东新区白杨路1155弄",121.565798024265,31.1977391794061,2022-04-12
"浦东新区","上海市浦东新区百曲村",121.554663071129,31.1179027476089,2022-04-12
"浦东新区","上海市浦东新区板泉路1821号工地生活区",121.53178862681,31.1709379468317,2022-04-12
"浦东新区","上海市浦东新区板泉路2101弄",121.539604693221,31.1688158507634,2022-04-12
"浦东新区","上海市浦东新区北艾路1128弄",121.54102778881,31.1908599177956,2022-04-12
"浦东新区","上海市浦东新区北艾路1130弄",121.540282913881,31.1912627407483,2022-04-12
"浦东新区","上海市浦东新区北艾路1200弄",121.538886767458,31.1884818678728,2022-04-12
"浦东新区","上海市浦东新区北艾路1660弄",121.530288187116,31.1870408137803,2022-04-12
"浦东新区","上海市浦东新区北蔡大街31弄",121.560543565845,31.1936780975778,2022-04-12
"浦东新区","上海市浦东新区北蔡三村",121.560954450785,31.1881757258589,2022-04-12
"浦东新区","上海市浦东新区北蔡镇南新村",121.549849598071,31.1721417237226,2022-04-12
"浦东新区","上海市浦东新区北蔡镇吴家宅",121.600679856031,31.1605343349145,2022-04-12
"浦东新区","上海市浦东新区北蔡镇徐家宅",121.620733628236,31.1877979124894,2022-04-12
"浦东新区","上海市浦东新区北蔡镇姚家宅",121.560954450785,31.1881757258589,2022-04-12
"浦东新区","上海市浦东新区北蔡镇周家宅",121.61609774299,31.1723555346345,2022-04-12
"浦东新区","上海市浦东新区北城壕路111弄",121.707645764293,31.2040418941874,2022-04-12
"浦东新区","上海市浦东新区北万家宅",121.67504212513,31.269511195913,2022-04-12
"浦东新区","上海市浦东新区北新园路350弄",121.633354461329,31.3270160144631,2022-04-12
"浦东新区","上海市浦东新区北张家浜路28弄",121.526166761436,31.2215797725124,2022-04-12
"浦东新区","上海市浦东新区北张家浜路58号",121.527623453651,31.2221730769557,2022-04-12
"浦东新区","上海市浦东新区北中路247弄",121.563725992775,31.1903403230554,2022-04-12
"浦东新区","上海市浦东新区滨海一村傅家宅",121.769681754676,31.1574470035516,2022-04-12
"浦东新区","上海市浦东新区滨海一村龚家宅",121.769681754676,31.1574470035516,2022-04-12
"浦东新区","上海市浦东新区滨海一村盛家宅",121.769681754676,31.1574470035516,2022-04-12
"浦东新区","上海市浦东新区博华路930弄",121.556749213201,31.1803200299912,2022-04-12
"浦东新区","上海市浦东新区博华路999弄",121.557113925239,31.1768062904657,2022-04-12
"浦东新区","上海市浦东新区博山东路111弄",121.570150763613,31.2571442157431,2022-04-12
"浦东新区","上海市浦东新区博山东路136弄",121.571861047474,31.2559884535373,2022-04-12
"浦东新区","上海市浦东新区博山东路440弄",121.575265715187,31.258583187629,2022-04-12
"浦东新区","上海市浦东新区博山东路811弄",121.57981814785,31.2654428107137,2022-04-12
"浦东新区","上海市浦东新区博山路12弄",121.563217821348,31.2532525679138,2022-04-12
"浦东新区","上海市浦东新区博山路51弄",121.563650984265,31.2507948331348,2022-04-12
"浦东新区","上海市浦东新区博兴路1383弄",121.60541087183,31.2751699716404,2022-04-12
"浦东新区","上海市浦东新区博兴路250弄",121.586387276384,31.274900995229,2022-04-12
"浦东新区","上海市浦东新区博兴路341弄",121.5896261169,31.2815848989426,2022-04-12
"浦东新区","上海市浦东新区博兴路462弄",121.589409086289,31.2720183620453,2022-04-12
"浦东新区","上海市浦东新区博兴路465弄",121.58987225261,31.2720666651517,2022-04-12
"浦东新区","上海市浦东新区博兴路467号",121.590447617289,31.2714355591783,2022-04-12
"浦东新区","上海市浦东新区博兴路616弄",121.590505647825,31.2688501329907,2022-04-12
"浦东新区","上海市浦东新区博兴路799弄",121.59697731021,31.27188533547,2022-04-12
"浦东新区","上海市浦东新区博兴路986弄",121.597262971363,31.270671034824,2022-04-12
"浦东新区","上海市浦东新区彩云路220弄",121.820581002499,30.9055408236206,2022-04-12
"浦东新区","上海市浦东新区彩云路51弄",121.824338704277,30.9038108340246,2022-04-12
"浦东新区","上海市浦东新区蔡路村东蔡家宅",121.751834430791,31.2301868682127,2022-04-12
"浦东新区","上海市浦东新区蔡路村杨家宅",121.744404964744,31.2099848375333,2022-04-12
"浦东新区","上海市浦东新区曹家油车",121.647488310392,31.2834265378934,2022-04-12
"浦东新区","上海市浦东新区曹路镇姜家宅",121.704849429071,31.2927350155794,2022-04-12
"浦东新区","上海市浦东新区草高支路1050弄",121.569634687098,31.3574782043845,2022-04-12
"浦东新区","上海市浦东新区草高支路1118弄",121.568210693203,31.3571659859006,2022-04-12
"浦东新区","上海市浦东新区草高支路168弄",121.589932708571,31.3581616893912,2022-04-12
"浦东新区","上海市浦东新区草高支路170弄",121.588426070569,31.3579888528039,2022-04-12
"浦东新区","上海市浦东新区草高支路766弄",121.576688361623,31.3578860912019,2022-04-12
"浦东新区","上海市浦东新区柴场村工地生活区",121.894828827476,30.9001927274634,2022-04-12
"浦东新区","上海市浦东新区长浜村",121.568301062738,31.0474792798551,2022-04-12
"浦东新区","上海市浦东新区长岛路1066弄",121.597067769575,31.2660140759925,2022-04-12
"浦东新区","上海市浦东新区长岛路1201弄",121.596729737212,31.2693476089323,2022-04-12
"浦东新区","上海市浦东新区长岛路1203弄",121.60099758669,31.2700940107856,2022-04-12
"浦东新区","上海市浦东新区长岛路1267弄",121.601522825921,31.268319782292,2022-04-12
"浦东新区","上海市浦东新区长岛路1280弄",121.599642313167,31.266883120972,2022-04-12
"浦东新区","上海市浦东新区长岛路1398弄",121.605978421251,31.2697987842173,2022-04-12
"浦东新区","上海市浦东新区长岛路1560弄",121.608314285069,31.2706988133719,2022-04-12
"浦东新区","上海市浦东新区长岛路259弄",121.583252369815,31.2731793272369,2022-04-12
"浦东新区","上海市浦东新区长岛路625弄",121.590574547857,31.2669994097199,2022-04-12
"浦东新区","上海市浦东新区长岛路728弄",121.5896261169,31.2815848989426,2022-04-12
"浦东新区","上海市浦东新区长岛路800弄",121.593834768045,31.2653075369301,2022-04-12
"浦东新区","上海市浦东新区长岛路823弄",121.593831983298,31.2684288929538,2022-04-12
"浦东新区","上海市浦东新区长岛路85弄",121.584693431514,31.2745390409527,2022-04-12
"浦东新区","上海市浦东新区长丰村北张家宅",121.713216246591,31.1459400961833,2022-04-12
"浦东新区","上海市浦东新区长丰村顾家宅",121.67899889141,31.1902861855662,2022-04-12
"浦东新区","上海市浦东新区长丰村陆家宅",121.666225615872,31.197467509121,2022-04-12
"浦东新区","上海市浦东新区长丰村南张家宅",121.68373170382,31.1899476131692,2022-04-12
"浦东新区","上海市浦东新区长江村",121.812546288526,31.0560965910918,2022-04-12
"浦东新区","上海市浦东新区长路村",121.785972255607,31.0789677741361,2022-04-12
"浦东新区","上海市浦东新区长桥村龚家宅",121.742139617909,31.1531045742054,2022-04-12
"浦东新区","上海市浦东新区长桥村吴家宅",121.742139617909,31.1531045742054,2022-04-12
"浦东新区","上海市浦东新区长清路103弄",121.495981181046,31.1756628987045,2022-04-12
"浦东新区","上海市浦东新区长清路1658弄",121.501014027496,31.1521141010259,2022-04-12
"浦东新区","上海市浦东新区长清路595弄",121.498337885551,31.165653164939,2022-04-12
"浦东新区","上海市浦东新区长清路643弄",121.498775809487,31.1641831772803,2022-04-12
"浦东新区","上海市浦东新区长清路693弄",121.536884264815,31.1897022555378,2022-04-12
"浦东新区","上海市浦东新区长清路773弄",121.498012070143,31.1619738650998,2022-04-12
"浦东新区","上海市浦东新区长清路807弄",121.49922298597,31.1620532804187,2022-04-12
"浦东新区","上海市浦东新区长清路937弄",121.536884264815,31.1897022555378,2022-04-12
"浦东新区","上海市浦东新区长清路967弄",121.500661262922,31.1580997373579,2022-04-12
"浦东新区","上海市浦东新区长元村长元宅",121.647005650842,31.1723974007314,2022-04-12
"浦东新区","上海市浦东新区昌里东路190弄",121.514451330467,31.1818762689649,2022-04-12
"浦东新区","上海市浦东新区昌里东路500弄",121.520657363913,31.1835177490782,2022-04-12
"浦东新区","上海市浦东新区昌里东路650弄",121.521399004942,31.1835358991941,2022-04-12
"浦东新区","上海市浦东新区昌里东路675弄",121.524150963872,31.1867623933045,2022-04-12
"浦东新区","上海市浦东新区昌里东路80弄",121.512747873728,31.1803744049484,2022-04-12
"浦东新区","上海市浦东新区昌里路167弄",121.504545446117,31.1810916262197,2022-04-12
"浦东新区","上海市浦东新区昌里路340弄",121.500968393576,31.1782390828587,2022-04-12
"浦东新区","上海市浦东新区昌邑路1500号",121.544147154694,31.251028916923,2022-04-12
"浦东新区","上海市浦东新区潮洞坝",121.583505152986,31.2780564425446,2022-04-12
"浦东新区","上海市浦东新区潮乐路8弄",121.860149294111,30.8820740118067,2022-04-12
"浦东新区","上海市浦东新区车站新村",121.649738565695,31.0323989263156,2022-04-12
"浦东新区","上海市浦东新区沉香村",121.598551051633,31.0731536299133,2022-04-12
"浦东新区","上海市浦东新区陈胡村",121.775553708303,31.200086337707,2022-04-12
"浦东新区","上海市浦东新区陈家队陈家宅",121.578579474383,31.194413133383,2022-04-12
"浦东新区","上海市浦东新区陈桥村",121.562680275331,31.1801778362394,2022-04-12
"浦东新区","上海市浦东新区陈邵路103号工地生活区",121.639191186511,31.2932930058445,2022-04-12
"浦东新区","上海市浦东新区陈行村东陈家宅",121.766481451466,31.1970530521115,2022-04-12
"浦东新区","上海市浦东新区晨晖路377弄",121.616949875597,31.212694270152,2022-04-12
"浦东新区","上海市浦东新区晨晖路725号",121.601923110857,31.2065221687539,2022-04-12
"浦东新区","上海市浦东新区晨晖路825弄",121.602138614349,31.2442502059109,2022-04-12
"浦东新区","上海市浦东新区晨晖路828弄",121.602138614349,31.2442502059109,2022-04-12
"浦东新区","上海市浦东新区晨阳路200弄",121.757302655595,31.1814761089367,2022-04-12
"浦东新区","上海市浦东新区晨阳西路150弄",121.741127497091,31.1769436232136,2022-04-12
"浦东新区","上海市浦东新区成山路1066弄",121.527222719563,31.1792172310837,2022-04-12
"浦东新区","上海市浦东新区成山路1339号",121.531318813028,31.182029891035,2022-04-12
"浦东新区","上海市浦东新区成山路143号",121.497985120977,31.176820579878,2022-04-12
"浦东新区","上海市浦东新区成山路1488弄",121.533431537757,31.1819798422434,2022-04-12
"浦东新区","上海市浦东新区成山路2008弄",121.543485283194,31.1832765452903,2022-04-12
"浦东新区","上海市浦东新区成山路2388弄",121.552373028079,31.1856598246513,2022-04-12
"浦东新区","上海市浦东新区成山路24弄",121.492308997952,31.1741468770644,2022-04-12
"浦东新区","上海市浦东新区成山路475弄",121.513497240185,31.178313077688,2022-04-12
"浦东新区","上海市浦东新区成山路544弄",121.514758730613,31.174425412251,2022-04-12
"浦东新区","上海市浦东新区成山路608弄",121.515115986714,31.1776118237191,2022-04-12
"浦东新区","上海市浦东新区成山路648弄",121.515115986714,31.1776118237191,2022-04-12
"浦东新区","上海市浦东新区成山路668弄",121.519473037929,31.1758708312841,2022-04-12
"浦东新区","上海市浦东新区成山路963弄",121.522241615511,31.1792667406839,2022-04-12
"浦东新区","上海市浦东新区成一村",121.838843912839,31.0697523363727,2022-04-12
"浦东新区","上海市浦东新区城东路282弄",121.76954003201,31.0562425303121,2022-04-12
"浦东新区","上海市浦东新区城丰路15弄",121.697081871156,31.197356076198,2022-04-12
"浦东新区","上海市浦东新区城丰路212弄",121.693195891351,31.1965687829905,2022-04-12
"浦东新区","上海市浦东新区城丰路245弄",121.693384625338,31.1955081854874,2022-04-12
"浦东新区","上海市浦东新区城丰路599弄",121.686336071154,31.1932473290101,2022-04-12
"浦东新区","上海市浦东新区城丰路70弄",121.695835112939,31.1976201789603,2022-04-12
"浦东新区","上海市浦东新区城丰路98号",121.695181146528,31.1973719069401,2022-04-12
"浦东新区","上海市浦东新区城南村朱家宅",121.705982641471,31.1940629147939,2022-04-12
"浦东新区","上海市浦东新区城南路356弄",121.710102001049,31.1985302466648,2022-04-12
"浦东新区","上海市浦东新区城南路41弄",121.711334062988,31.1987130796288,2022-04-12
"浦东新区","上海市浦东新区城南路550弄",121.703256014757,31.1971108924117,2022-04-12
"浦东新区","上海市浦东新区城南路627弄",121.70162621907,31.1955905841654,2022-04-12
"浦东新区","上海市浦东新区储楼村",121.621475898079,31.0740691574058,2022-04-12
"浦东新区","上海市浦东新区川北公路2999号",121.618941329082,31.2107952588135,2022-04-12
"浦东新区","上海市浦东新区川北公路3087弄",121.619856926973,31.212281386129,2022-04-12
"浦东新区","上海市浦东新区川环南路918弄",121.702367590608,31.1925144464194,2022-04-12
"浦东新区","上海市浦东新区川南奉公路5053号",121.764064291,31.1202225433072,2022-04-12
"浦东新区","上海市浦东新区川沙路1666弄",121.67243200864,31.2858133621136,2022-04-12
"浦东新区","上海市浦东新区川沙路2015弄",121.652778790863,31.290487771739,2022-04-12
"浦东新区","上海市浦东新区川沙路2278弄",121.69089380382,31.2459183787591,2022-04-12
"浦东新区","上海市浦东新区川沙路326弄",121.672769322359,31.2863483196138,2022-04-12
"浦东新区","上海市浦东新区川沙路4586弄",121.699586885901,31.2054954275257,2022-04-12
"浦东新区","上海市浦东新区川沙路4650弄",121.703112735028,31.2041578749919,2022-04-12
"浦东新区","上海市浦东新区川沙路5015弄",121.652778790863,31.290487771739,2022-04-12
"浦东新区","上海市浦东新区川沙路5600弄",121.706040133024,31.1882216008863,2022-04-12
"浦东新区","上海市浦东新区川沙新镇张家宅",121.769026350976,31.1764553109204,2022-04-12
"浦东新区","上海市浦东新区川沙新镇朱家宅",121.707774401642,31.202328573802,2022-04-12
"浦东新区","上海市浦东新区川周公路2788号",121.630962183925,31.1498729044076,2022-04-12
"浦东新区","上海市浦东新区川周公路2828弄",121.624521962232,31.1491248483126,2022-04-12
"浦东新区","上海市浦东新区川周公路2928弄",121.620997999547,31.1479346835682,2022-04-12
"浦东新区","上海市浦东新区川周公路3010弄",121.617623155577,31.147196115555,2022-04-12
"浦东新区","上海市浦东新区川周公路3083号",121.614057331855,31.1443107074304,2022-04-12
"浦东新区","上海市浦东新区川周公路4011弄",121.593959991833,31.1314798283761,2022-04-12
"浦东新区","上海市浦东新区川周公路4058弄",121.591378261797,31.1321645808084,2022-04-12
"浦东新区","上海市浦东新区川周公路4293弄",121.588499731621,31.126402180415,2022-04-12
"浦东新区","上海市浦东新区川周公路4318弄",121.587429400606,31.1268947718151,2022-04-12
"浦东新区","上海市浦东新区川周公路8288弄",121.711194969363,31.1835088671054,2022-04-12
"浦东新区","上海市浦东新区川周公路凌空路交界口工地生活区",121.590814215768,31.1298587666359,2022-04-12
"浦东新区","上海市浦东新区川周路6561弄",121.682849028826,31.1731497513905,2022-04-12
"浦东新区","上海市浦东新区创新西路199弄",121.660810450597,31.2075822554859,2022-04-12
"浦东新区","上海市浦东新区创新西路28弄",121.664299379367,31.210286275536,2022-04-12
"浦东新区","上海市浦东新区创新西路300弄",121.659610224605,31.2094711398488,2022-04-12
"浦东新区","上海市浦东新区创新西路333弄",121.658090112021,31.2073177175211,2022-04-12
"浦东新区","上海市浦东新区创新西路75弄",121.663731470623,31.2097267922427,2022-04-12
"浦东新区","上海市浦东新区创新中路180弄",121.669828898934,31.212493831497,2022-04-12
"浦东新区","上海市浦东新区创新中路199弄",121.668695686533,31.2141451212896,2022-04-12
"浦东新区","上海市浦东新区创新中路380弄",121.672441890001,31.2138392947654,2022-04-12
"浦东新区","上海市浦东新区创新中路399弄",121.673244705635,31.2153254895784,2022-04-12
"浦东新区","上海市浦东新区创新中路593弄",121.675777028868,31.2168388376937,2022-04-12
"浦东新区","上海市浦东新区创业路66弄",121.584859707864,31.1200779398788,2022-04-12
"浦东新区","上海市浦东新区创业路78弄",121.584859707864,31.1200779398788,2022-04-12
"浦东新区","上海市浦东新区创业路87弄",121.584859707864,31.1200779398788,2022-04-12
"浦东新区","上海市浦东新区春晖路276弄",121.591825168788,31.3464065285783,2022-04-12
"浦东新区","上海市浦东新区春晖路289弄",121.59067273265,31.3445423085239,2022-04-12
"浦东新区","上海市浦东新区春雷村东夏家宅",121.744052649323,31.2255391302888,2022-04-12
"浦东新区","上海市浦东新区春泉路45弄",121.654880735925,31.2209310320678,2022-04-12
"浦东新区","上海市浦东新区达秀路151号",121.660133757056,31.2432925734162,2022-04-12
"浦东新区","上海市浦东新区大丰村丁家宅",121.669724605664,31.2288207632593,2022-04-12
"浦东新区","上海市浦东新区大洪村徐家宅",121.743469649047,31.1978645119639,2022-04-12
"浦东新区","上海市浦东新区大桥村",121.550454606832,31.2273482924363,2022-04-12
"浦东新区","上海市浦东新区大同路1010弄",121.578601123546,31.3414126263765,2022-04-12
"浦东新区","上海市浦东新区大同路118号",121.458398773425,30.9935789541733,2022-04-12
"浦东新区","上海市浦东新区大同路868弄",121.580160042928,31.3430273275785,2022-04-12
"浦东新区","上海市浦东新区大同路922弄",121.579332973045,31.3423643180898,2022-04-12
"浦东新区","上海市浦东新区大团镇果园村",121.737440132634,30.9836647732627,2022-04-12
"浦东新区","上海市浦东新区大星村凌家宅",121.728211211316,31.227971358702,2022-04-12
"浦东新区","上海市浦东新区大星村奚家宅",121.728211211316,31.227971358702,2022-04-12
"浦东新区","上海市浦东新区大众村沈家宅",121.609519721232,31.2066820820887,2022-04-12
"浦东新区","上海市浦东新区大众村田家宅",121.658057862853,31.2301031542229,2022-04-12
"浦东新区","上海市浦东新区大众村王家宅",121.532353481314,31.2226591437399,2022-04-12
"浦东新区","上海市浦东新区大众村中心队西沟圈",121.657946293309,31.2348171717716,2022-04-12
"浦东新区","上海市浦东新区道新村东杜家宅",121.766139017405,31.167091303361,2022-04-12
"浦东新区","上海市浦东新区道新村龚家宅",121.7662995446,31.1685967789971,2022-04-12
"浦东新区","上海市浦东新区道新村南金家宅",121.766632905775,31.1650197188801,2022-04-12
"浦东新区","上海市浦东新区道新村邱家宅",121.661712259498,31.1746955272532,2022-04-12
"浦东新区","上海市浦东新区德川路259弄",121.674683341909,31.201086806192,2022-04-12
"浦东新区","上海市浦东新区德平路100弄",121.568682662918,31.2539399811791,2022-04-12
"浦东新区","上海市浦东新区德平路1065弄",121.57423419097,31.2492630478328,2022-04-12
"浦东新区","上海市浦东新区德平路1088号",121.574461731756,31.2482278996243,2022-04-12
"浦东新区","上海市浦东新区德平路1125弄",121.57509494731,31.2490535802043,2022-04-12
"浦东新区","上海市浦东新区德平路1189弄",121.576813136258,31.2458715286161,2022-04-12
"浦东新区","上海市浦东新区德平路24弄",121.56223983614,31.2599824712324,2022-04-12
"浦东新区","上海市浦东新区德平路25弄",121.564731825455,31.2600917459727,2022-04-12
"浦东新区","上海市浦东新区德平路34弄",121.5896261169,31.2815848989426,2022-04-12
"浦东新区","上海市浦东新区德平路58弄",121.565028176443,31.2583109222033,2022-04-12
"浦东新区","上海市浦东新区德州路150弄",121.492570315024,31.1720443190957,2022-04-12
"浦东新区","上海市浦东新区德州路220弄",121.536884264815,31.1897022555378,2022-04-12
"浦东新区","上海市浦东新区德州路223弄",121.536884264815,31.1897022555378,2022-04-12
"浦东新区","上海市浦东新区德州路255弄",121.497632266573,31.1762287646668,2022-04-12
"浦东新区","上海市浦东新区德州路262号",121.499297545328,31.1734665247442,2022-04-12
"浦东新区","上海市浦东新区德州路380弄",121.493341150983,31.1714543276073,2022-04-12
"浦东新区","上海市浦东新区德州路420弄",121.490352488551,31.1723887494362,2022-04-12
"浦东新区","上海市浦东新区德州路465弄",121.536884264815,31.1897022555378,2022-04-12
"浦东新区","上海市浦东新区灯塔村陆蔡家宅",121.649595106305,31.315205711906,2022-04-12
"浦东新区","上海市浦东新区邓二村谢家宅",121.767960241996,31.1471819761588,2022-04-12
"浦东新区","上海市浦东新区邓三村北顾家宅",121.767019895788,31.1406933138706,2022-04-12
"浦东新区","上海市浦东新区邓三村南王家宅",121.55380142367,31.1628451123625,2022-04-12
"浦东新区","上海市浦东新区邓三村石家宅",121.762695003911,31.1378588600608,2022-04-12
"浦东新区","上海市浦东新区邓一村石家宅",121.762695003911,31.1378588600608,2022-04-12
"浦东新区","上海市浦东新区邓一村邬家宅",121.756384587364,31.1425014871938,2022-04-12
"浦东新区","上海市浦东新区荻山村安南队王家圈",121.545084536493,31.1419039693885,2022-04-12
"浦东新区","上海市浦东新区叠桥村",121.622828746177,31.1338499732159,2022-04-12
"浦东新区","上海市浦东新区丁香路1299弄",121.569359985273,31.2360168859408,2022-04-12
"浦东新区","上海市浦东新区丁香路1399弄",121.570496790896,31.236774283463,2022-04-12
"浦东新区","上海市浦东新区丁香路1599弄",121.572306876498,31.2338622988355,2022-04-12
"浦东新区","上海市浦东新区丁香路910弄",121.560392021706,31.2312404779508,2022-04-12
"浦东新区","上海市浦东新区东波路325弄",121.58954131686,31.2902621957683,2022-04-12
"浦东新区","上海市浦东新区东昌路490弄",121.519723575336,31.2375223348617,2022-04-12
"浦东新区","上海市浦东新区东方路1800弄",121.528473609986,31.2090892428252,2022-04-12
"浦东新区","上海市浦东新区东方路1888弄",121.527539372256,31.2055958088295,2022-04-12
"浦东新区","上海市浦东新区东方路1957弄",121.527162083942,31.2030167473568,2022-04-12
"浦东新区","上海市浦东新区东方路3344弄",121.520630235087,31.1975387859662,2022-04-12
"浦东新区","上海市浦东新区东方路573弄",121.531333545238,31.2376845881265,2022-04-12
"浦东新区","上海市浦东新区东风村奚家宅",121.710332613302,31.2353445551168,2022-04-12
"浦东新区","上海市浦东新区东高路152号",121.583090315501,31.2959192512504,2022-04-12
"浦东新区","上海市浦东新区东高路26弄",121.582672064456,31.2940973759933,2022-04-12
"浦东新区","上海市浦东新区东沟三村",121.580738102523,31.2984507787871,2022-04-12
"浦东新区","上海市浦东新区东海村曹家宅",121.680645934563,31.3070982772615,2022-04-12
"浦东新区","上海市浦东新区东海村胡家宅",121.677869901045,31.3070549287637,2022-04-12
"浦东新区","上海市浦东新区东海村张家宅",121.677869901045,31.3070549287637,2022-04-12
"浦东新区","上海市浦东新区东建路348号",121.540439039379,31.2065532866285,2022-04-12
"浦东新区","上海市浦东新区东建路680弄",121.529696185109,31.2072012517119,2022-04-12
"浦东新区","上海市浦东新区东靖路247弄",121.584071175287,31.2986857459865,2022-04-12
"浦东新区","上海市浦东新区东靖路374弄",121.5863964391,31.2964927214987,2022-04-12
"浦东新区","上海市浦东新区东康名苑",121.63093855849,31.1483921616878,2022-04-12
"浦东新区","上海市浦东新区东陆路1018弄",121.599020955246,31.2779119282265,2022-04-12
"浦东新区","上海市浦东新区东陆路1182弄",121.602356004282,31.2753682698756,2022-04-12
"浦东新区","上海市浦东新区东陆路1268弄",121.601560554753,31.2728788634835,2022-04-12
"浦东新区","上海市浦东新区东陆路1350弄",121.5896261169,31.2815848989426,2022-04-12
"浦东新区","上海市浦东新区东陆路1456弄",121.5896261169,31.2815848989426,2022-04-12
"浦东新区","上海市浦东新区东陆路1485弄",121.608539310599,31.273645607414,2022-04-12
"浦东新区","上海市浦东新区东陆路1528弄",121.608405552908,31.2728903604452,2022-04-12
"浦东新区","上海市浦东新区东陆路1755弄",121.617328421539,31.2692411229136,2022-04-12
"浦东新区","上海市浦东新区东陆路2000弄",121.615923651382,31.2677111832149,2022-04-12
"浦东新区","上海市浦东新区东陆路429弄",121.59239119109,31.2862846710958,2022-04-12
"浦东新区","上海市浦东新区东陆路898弄",121.598981609464,31.2808977661992,2022-04-12
"浦东新区","上海市浦东新区东门路500弄",121.776227078113,31.0514925450641,2022-04-12
"浦东新区","上海市浦东新区东明村池河队养鸭滩",121.526656697262,31.1700359537257,2022-04-12
"浦东新区","上海市浦东新区东明村西康队康家宅",121.535765155811,31.169821442313,2022-04-12
"浦东新区","上海市浦东新区东明路355弄",121.51669511797,31.1894556615896,2022-04-12
"浦东新区","上海市浦东新区东明路383弄",121.51666089253,31.1885680570182,2022-04-12
"浦东新区","上海市浦东新区东明路511弄",121.517331836915,31.1861863190199,2022-04-12
"浦东新区","上海市浦东新区东明路560弄",121.529696185109,31.2072012517119,2022-04-12
"浦东新区","上海市浦东新区东三街102弄",121.517106182571,31.207639780426,2022-04-12
"浦东新区","上海市浦东新区东三街15弄",121.513798352192,31.2069744193285,2022-04-12
"浦东新区","上海市浦东新区东三里桥路79弄",121.515301666463,31.2060957833369,2022-04-12
"浦东新区","上海市浦东新区东书房路390弄",121.541617795869,31.1696664870587,2022-04-12
"浦东新区","上海市浦东新区东书房路560弄",121.543073679609,31.1677333099084,2022-04-12
"浦东新区","上海市浦东新区东泰林路799弄",121.550311416934,31.1496681592191,2022-04-12
"浦东新区","上海市浦东新区东亭路836弄",121.759666007562,31.1767994933391,2022-04-12
"浦东新区","上海市浦东新区东钟文宅",121.652120782076,31.3242591514159,2022-04-12
"浦东新区","上海市浦东新区峨山路280弄",121.534409702627,31.2202734086393,2022-04-12
"浦东新区","上海市浦东新区繁锦路688弄",121.5896261169,31.2815848989426,2022-04-12
"浦东新区","上海市浦东新区繁荣东路159弄",121.591870173895,31.1128143261855,2022-04-12
"浦东新区","上海市浦东新区范桥村",121.639155628482,31.0638771486728,2022-04-12
"浦东新区","上海市浦东新区芳草路258号",121.563049029743,31.1995335117371,2022-04-12
"浦东新区","上海市浦东新区芳华路229弄",121.560810542243,31.2025519682178,2022-04-12
"浦东新区","上海市浦东新区芳华路310弄",121.564018211558,31.2013345278281,2022-04-12
"浦东新区","上海市浦东新区芳华路630弄",121.556559041925,31.2002051033578,2022-04-12
"浦东新区","上海市浦东新区芳华路63号",121.558171590146,31.200731052684,2022-04-12
"浦东新区","上海市浦东新区芳芯路251弄",121.563004024637,31.1984666927966,2022-04-12
"浦东新区","上海市浦东新区飞桥村",121.618821135805,31.0471041490063,2022-04-12
"浦东新区","上海市浦东新区丰乐村",121.693163821844,31.0795875736828,2022-04-12
"浦东新区","上海市浦东新区福山路100弄",121.533774690462,31.2384178890954,2022-04-12
"浦东新区","上海市浦东新区福山路102弄",121.53400762108,31.2373708107451,2022-04-12
"浦东新区","上海市浦东新区福山路111弄",121.534546155234,31.2379979013175,2022-04-12
"浦东新区","上海市浦东新区福山路40弄",121.530906490799,31.242456421864,2022-04-12
"浦东新区","上海市浦东新区福山路49弄",121.532470979675,31.2442258928029,2022-04-12
"浦东新区","上海市浦东新区福山路651弄",121.529696185109,31.2072012517119,2022-04-12
"浦东新区","上海市浦东新区富强村",121.772434252589,31.035656061793,2022-04-12
"浦东新区","上海市浦东新区高宝路379弄",121.5896261169,31.2815848989426,2022-04-12
"浦东新区","上海市浦东新区高宝路528弄",121.5896261169,31.2815848989426,2022-04-12
"浦东新区","上海市浦东新区高宝路68弄",121.62729152795,31.2973706625996,2022-04-12
"浦东新区","上海市浦东新区高东二路118弄",121.632030269176,31.3299086703681,2022-04-12
"浦东新区","上海市浦东新区高东二路47弄",121.628141504624,31.3304914936925,2022-04-12
"浦东新区","上海市浦东新区高东新路115弄",121.623937345006,31.3375054456454,2022-04-12
"浦东新区","上海市浦东新区高东镇南杨家宅",121.633531337684,31.3212207161198,2022-04-12
"浦东新区","上海市浦东新区高科西路2111弄",121.5423303318,31.1941812247261,2022-04-12
"浦东新区","上海市浦东新区高科西路2907弄",121.564936369619,31.1955708146672,2022-04-12
"浦东新区","上海市浦东新区高科中路2947弄",121.64283499802,31.2111938266147,2022-04-12
"浦东新区","上海市浦东新区高攀路149弄",121.540847049742,31.3682598152593,2022-04-12
"浦东新区","上海市浦东新区高桥村丁家宅",121.826345788278,30.9222774790088,2022-04-12
"浦东新区","上海市浦东新区高桥村钱家宅",121.734918229745,31.1671079889435,2022-04-12
"浦东新区","上海市浦东新区高桥村唐家宅",121.826345788278,30.9222774790088,2022-04-12
"浦东新区","上海市浦东新区高桥村西汤家宅",121.826345788278,30.9222774790088,2022-04-12
"浦东新区","上海市浦东新区高桥镇瞿家宅",121.608461697003,31.2932216412763,2022-04-12
"浦东新区","上海市浦东新区高桥镇沈家宅",121.558501268268,31.3625522632348,2022-04-12
"浦东新区","上海市浦东新区高桥镇西浜头",121.615635834297,31.2925041992064,2022-04-12
"浦东新区","上海市浦东新区高桥镇姚家宅",121.590814754751,31.3497384234724,2022-04-12
"浦东新区","上海市浦东新区高青路4567弄",121.536884264815,31.1897022555378,2022-04-12
"浦东新区","上海市浦东新区高斯路1296弄",121.624315262134,31.2059686858232,2022-04-12
"浦东新区","上海市浦东新区高斯路986弄",121.617937113353,31.2066539756604,2022-04-12
"浦东新区","上海市浦东新区高西村",121.628819904945,31.1623727178168,2022-04-12
"浦东新区","上海市浦东新区龚华路35弄",121.652778790863,31.290487771739,2022-04-12
"浦东新区","上海市浦东新区龚华路425弄",121.652778790863,31.290487771739,2022-04-12
"浦东新区","上海市浦东新区龚华路479弄",121.693823986563,31.2655189744749,2022-04-12
"浦东新区","上海市浦东新区龚华路50弄",121.691832533078,31.2705828378796,2022-04-12
"浦东新区","上海市浦东新区拱海路240弄",121.746834162504,31.0752144821346,2022-04-12
"浦东新区","上海市浦东新区拱海路78弄",121.774859587635,31.0609104552718,2022-04-12
"浦东新区","上海市浦东新区拱极路3058弄",121.765578474767,31.0604004270123,2022-04-12
"浦东新区","上海市浦东新区拱极路3335弄",121.763003212531,31.0596902496289,2022-04-12
"浦东新区","上海市浦东新区拱极路4100弄",121.774859587635,31.0609104552718,2022-04-12
"浦东新区","上海市浦东新区拱乐路698弄",121.7770938531,31.0696419890714,2022-04-12
"浦东新区","上海市浦东新区拱鸣路95弄",121.774859587635,31.0609104552718,2022-04-12
"浦东新区","上海市浦东新区拱泰路29弄",121.767737282569,31.0642684525934,2022-04-12
"浦东新区","上海市浦东新区拱为路2600弄",121.745418253359,31.0635577630424,2022-04-12
"浦东新区","上海市浦东新区共和村高家宅",121.740163974601,31.1765980509996,2022-04-12
"浦东新区","上海市浦东新区共一村陆家宅",121.729582295016,31.2513543024484,2022-04-12
"浦东新区","上海市浦东新区顾东村",121.668134784572,31.29938100167,2022-04-12
"浦东新区","上海市浦东新区顾东村胡家宅",121.668134784572,31.29938100167,2022-04-12
"浦东新区","上海市浦东新区顾东村新屋宅",121.66573451225,31.3018178654977,2022-04-12
"浦东新区","上海市浦东新区顾家圩村",121.552916413082,31.3709534812467,2022-04-12
"浦东新区","上海市浦东新区顾三村西蔡家宅",121.675134291275,31.1668617218035,2022-04-12
"浦东新区","上海市浦东新区顾唐路138弄",121.652778790863,31.290487771739,2022-04-12
"浦东新区","上海市浦东新区崮山路157号",121.558485997074,31.2530718191383,2022-04-12
"浦东新区","上海市浦东新区崮山路201号",121.559218655048,31.2525901551314,2022-04-12
"浦东新区","上海市浦东新区崮山路251弄",121.560059469006,31.2522828335212,2022-04-12
"浦东新区","上海市浦东新区崮山路322弄",121.559286117792,31.251792753022,2022-04-12
"浦东新区","上海市浦东新区崮山路717号",121.566756426413,31.2457458744099,2022-04-12
"浦东新区","上海市浦东新区崮山路73号",121.557155606614,31.2536557398412,2022-04-12
"浦东新区","上海市浦东新区崮山路908号",121.568134516896,31.2425541392132,2022-04-12
"浦东新区","上海市浦东新区关岳路159弄",121.592594657288,31.1259055677696,2022-04-12
"浦东新区","上海市浦东新区关岳路181弄",121.593389118681,31.1261347085398,2022-04-12
"浦东新区","上海市浦东新区关岳路39弄",121.588741285973,31.1252419451244,2022-04-12
"浦东新区","上海市浦东新区观海路1588弄",121.774859587635,31.0609104552718,2022-04-12
"浦东新区","上海市浦东新区光辉村",121.718709384784,31.0698578892064,2022-04-12
"浦东新区","上海市浦东新区光明村李家圈",121.664067077562,31.290130969551,2022-04-12
"浦东新区","上海市浦东新区光明村凌家圈",121.665292635769,31.2958850774345,2022-04-12
"浦东新区","上海市浦东新区光明村葡萄园",121.664900525414,31.296640292705,2022-04-12
"浦东新区","上海市浦东新区光明村沙桥宅",121.658185512066,31.292967682843,2022-04-12
"浦东新区","上海市浦东新区光明村施家宅",121.664900525414,31.296640292705,2022-04-12
"浦东新区","上海市浦东新区光明村双盘宅",121.659328605827,31.2963633554349,2022-04-12
"浦东新区","上海市浦东新区光明路222弄",121.622302967962,31.3377020692766,2022-04-12
"浦东新区","上海市浦东新区光耀村杜家宅",121.66795835737,31.282357280723,2022-04-12
"浦东新区","上海市浦东新区光耀村姚湾宅",121.662827146467,31.2817537880827,2022-04-12
"浦东新区","上海市浦东新区光泽路428弄",121.623076229345,31.3364001046861,2022-04-12
"浦东新区","上海市浦东新区光泽路429弄",121.624748694543,31.3361840469722,2022-04-12
"浦东新区","上海市浦东新区国展路1099号工地生活区",121.496422249051,31.1880576400369,2022-04-12
"浦东新区","上海市浦东新区国展路1776号工地生活区",121.496566767973,31.1889226474886,2022-04-12
"浦东新区","上海市浦东新区国展路812号工地生活区",121.491577620402,31.1865257260916,2022-04-12
"浦东新区","上海市浦东新区海春路150弄",121.592615138654,31.3549159003979,2022-04-12
"浦东新区","上海市浦东新区海基五路海洋六路交界口工地生活区",121.894828827476,30.9001927274634,2022-04-12
"浦东新区","上海市浦东新区海鸣路98弄",121.677548217842,31.2886278337477,2022-04-12
"浦东新区","上海市浦东新区海鹏路301弄",121.680730914264,31.2953639830489,2022-04-12
"浦东新区","上海市浦东新区海鹏路380弄",121.676483635982,31.2939871381692,2022-04-12
"浦东新区","上海市浦东新区海鹏路529弄",121.676828405637,31.2941850878708,2022-04-12
"浦东新区","上海市浦东新区海容路399弄",121.686258637219,31.2876554577026,2022-04-12
"浦东新区","上海市浦东新区海顺路359弄",121.68936776242,31.2816070420314,2022-04-12
"浦东新区","上海市浦东新区海松路398弄",121.687490753057,31.2839344288311,2022-04-12
"浦东新区","上海市浦东新区海松路421弄",121.687246593619,31.2860583134694,2022-04-12
"浦东新区","上海市浦东新区海松路52弄",121.681814360539,31.2819161960356,2022-04-12
"浦东新区","上海市浦东新区海桐路61弄",121.556976574326,31.2102748480885,2022-04-12
"浦东新区","上海市浦东新区海阳路1065弄",121.512534975323,31.1647564512598,2022-04-12
"浦东新区","上海市浦东新区海阳路1080弄",121.513439479141,31.1641353592278,2022-04-12
"浦东新区","上海市浦东新区海阳路1125弄",121.515260254579,31.1655971592099,2022-04-12
"浦东新区","上海市浦东新区海阳路1333弄",121.519576971876,31.1661688795715,2022-04-12
"浦东新区","上海市浦东新区海阳路215弄",121.495604611376,31.1592622705933,2022-04-12
"浦东新区","上海市浦东新区海阳路445弄",121.500539093373,31.1607098546426,2022-04-12
"浦东新区","上海市浦东新区海阳路815弄",121.508424958123,31.1642453638873,2022-04-12
"浦东新区","上海市浦东新区海阳路860弄",121.509555295946,31.1632176186981,2022-04-12
"浦东新区","上海市浦东新区韩荡村汤家宅",121.610580260717,31.1590221632345,2022-04-12
"浦东新区","上海市浦东新区航昌路376弄",121.615217673082,31.0849722970713,2022-04-12
"浦东新区","上海市浦东新区航昌路489弄",121.616375094816,31.0804408738662,2022-04-12
"浦东新区","上海市浦东新区航城七路450弄",121.765500501849,31.148175591932,2022-04-12
"浦东新区","上海市浦东新区航城三路86弄",121.750784281323,31.1544220727579,2022-04-12
"浦东新区","上海市浦东新区航城五路151弄",121.754215359219,31.1483316643714,2022-04-12
"浦东新区","上海市浦东新区航定路568弄",121.596691649058,31.0329904097472,2022-04-12
"浦东新区","上海市浦东新区航东村",121.607737213609,31.03214843823,2022-04-12
"浦东新区","上海市浦东新区航鹤路1700弄",121.592181616415,31.0536196115076,2022-04-12
"浦东新区","上海市浦东新区航鹤路89弄",121.592964040514,31.0279771490917,2022-04-12
"浦东新区","上海市浦东新区航梅路525弄",121.580651056719,31.0306667698032,2022-04-12
"浦东新区","上海市浦东新区航梅路526弄",121.58752462099,31.028592642453,2022-04-12
"浦东新区","上海市浦东新区航亭环路158号工地生活区",121.771856013332,31.1077023545704,2022-04-12
"浦东新区","上海市浦东新区航亭环路399弄",121.768482426989,31.105525647467,2022-04-12
"浦东新区","上海市浦东新区航头镇果园村",121.642441899529,31.025361102765,2022-04-12
"浦东新区","上海市浦东新区航头镇梅园村",121.591231748169,31.06555502677,2022-04-12
"浦东新区","上海市浦东新区航头镇郑庄村",121.593362439008,31.0394358378685,2022-04-12
"浦东新区","上海市浦东新区航兴北路95弄",121.60089491037,31.0332760161654,2022-04-12
"浦东新区","上海市浦东新区合庆镇赵家宅",121.729988508767,31.243208518641,2022-04-12
"浦东新区","上海市浦东新区和佳路105弄",121.520302084084,31.1332973749386,2022-04-12
"浦东新区","上海市浦东新区和炯路601弄",121.51595491423,31.1306111492492,2022-04-12
"浦东新区","上海市浦东新区和炯路77弄",121.525530311983,31.1391594184198,2022-04-12
"浦东新区","上海市浦东新区和龙路218号",121.578625108303,31.3481484330559,2022-04-12
"浦东新区","上海市浦东新区和平村罗家宅",121.641174570115,31.0768884467419,2022-04-12
"浦东新区","上海市浦东新区和平村钱家宅",121.736251135461,31.2055576639467,2022-04-12
"浦东新区","上海市浦东新区菏泽路25弄",121.59678004232,31.2796925327225,2022-04-12
"浦东新区","上海市浦东新区菏泽路418弄",121.599919620078,31.2729502372156,2022-04-12
"浦东新区","上海市浦东新区菏泽路567弄",121.601772100444,31.2704060021067,2022-04-12
"浦东新区","上海市浦东新区鹤驰路88弄",121.600970727355,31.0863948938048,2022-04-12
"浦东新区","上海市浦东新区鹤驰路99弄",121.599741665756,31.0849672715556,2022-04-12
"浦东新区","上海市浦东新区鹤东村",121.602978260509,31.061148957304,2022-04-12
"浦东新区","上海市浦东新区沿江村",121.608037966294,31.0602733641974,2022-04-12
"浦东新区","上海市浦东新区鹤洁路138弄",121.6042452306,31.0753084303108,2022-04-12
"浦东新区","上海市浦东新区鹤鸣村",121.600562088179,31.0502001326859,2022-04-12
"浦东新区","上海市浦东新区鹤沙路201弄",121.605880595781,31.0875272345057,2022-04-12
"浦东新区","上海市浦东新区鹤韵路549弄",121.603665015071,31.0807518517668,2022-04-12
"浦东新区","上海市浦东新区横沔江路116弄",121.639674310083,31.1851673099322,2022-04-12
"浦东新区","上海市浦东新区横桥路118弄",121.584115102427,31.1154634975011,2022-04-12
"浦东新区","上海市浦东新区红旗村陈家宅",121.760312787529,31.1744514428127,2022-04-12
"浦东新区","上海市浦东新区红旗村东桥队毛家塘",121.507890556175,31.1336601072747,2022-04-12
"浦东新区","上海市浦东新区红旗村姜胡宅队江湖宅",121.500206271181,31.126931789483,2022-04-12
"浦东新区","上海市浦东新区红旗村李家队李家油车",121.498257397378,31.1305221248337,2022-04-12
"浦东新区","上海市浦东新区红旗村余家宅",121.760312787529,31.1744514428127,2022-04-12
"浦东新区","上海市浦东新区红桥村",121.639952155977,31.1081102496522,2022-04-12
"浦东新区","上海市浦东新区红一村",121.771290979166,31.0958843007522,2022-04-12
"浦东新区","上海市浦东新区虹三村龚家宅",121.679576681514,31.2599663423934,2022-04-12
"浦东新区","上海市浦东新区虹三村赵家宅",121.679576681514,31.2599663423934,2022-04-12
"浦东新区","上海市浦东新区虹盛路107弄",121.688139419466,31.2442519811534,2022-04-12
"浦东新区","上海市浦东新区虹盛路160弄",121.688111571995,31.2444533551881,2022-04-12
"浦东新区","上海市浦东新区虹四村卫家宅",121.592233538473,31.2376906089368,2022-04-12
"浦东新区","上海市浦东新区虹四村吴张家宅",121.658368227407,31.2467905435275,2022-04-12
"浦东新区","上海市浦东新区洪山路180弄",121.505582090675,31.182015139002,2022-04-12
"浦东新区","上海市浦东新区洪山路237弄",121.506882477732,31.1789855165391,2022-04-12
"浦东新区","上海市浦东新区洪山路851弄",121.511211771306,31.1666243375901,2022-04-12
"浦东新区","上海市浦东新区胡桥村",121.696522316654,31.0474194137126,2022-04-12
"浦东新区","上海市浦东新区胡巷村金家宅",121.52500489309,31.1587157705195,2022-04-12
"浦东新区","上海市浦东新区沪南公路2688弄",121.571058052178,31.1374660849587,2022-04-12
"浦东新区","上海市浦东新区沪南公路3219号",121.574668970837,31.1299718253365,2022-04-12
"浦东新区","上海市浦东新区沪南公路4789弄",121.596470037089,31.0761268193467,2022-04-12
"浦东新区","上海市浦东新区沪南公路5192号",121.595382997591,31.0583018192039,2022-04-12
"浦东新区","上海市浦东新区沪南路2518弄",121.536884264815,31.1897022555378,2022-04-12
"浦东新区","上海市浦东新区沪南路4851弄",121.536884264815,31.1897022555378,2022-04-12
"浦东新区","上海市浦东新区沪一小区",121.590529542751,31.2758395544201,2022-04-12
"浦东新区","上海市浦东新区花木路500弄",121.549098435004,31.2178118734071,2022-04-12
"浦东新区","上海市浦东新区花墙村",121.55274169266,31.1563281752622,2022-04-12
"浦东新区","上海市浦东新区花山路1001弄",121.588490748566,31.3561458336138,2022-04-12
"浦东新区","上海市浦东新区花山路333弄",121.575102403245,31.3523825907451,2022-04-12
"浦东新区","上海市浦东新区花山路618弄",121.583019259535,31.3529487752432,2022-04-12
"浦东新区","上海市浦东新区花园石桥路28弄",121.507534108549,31.2391866139073,2022-04-12
"浦东新区","上海市浦东新区华丰路50弄",121.514504959306,31.1974954638598,2022-04-12
"浦东新区","上海市浦东新区华鹏路390弄",121.532330484693,31.1783398795585,2022-04-12
"浦东新区","上海市浦东新区华夏东路2139弄",121.699244721333,31.2063217168873,2022-04-12
"浦东新区","上海市浦东新区华夏东路860弄",121.672341549276,31.2003301237338,2022-04-12
"浦东新区","上海市浦东新区华夏东路孙东路交界口工地生活区",121.715297440796,31.2073266744522,2022-04-12
"浦东新区","上海市浦东新区华夏二路1278弄",121.696026452013,31.1815117148297,2022-04-12
"浦东新区","上海市浦东新区华夏二路1500弄",121.697079984715,31.1781718849987,2022-04-12
"浦东新区","上海市浦东新区华夏二路350弄",121.69105999034,31.1985758849567,2022-04-12
"浦东新区","上海市浦东新区华夏三路299弄",121.685539902981,31.1987135719192,2022-04-12
"浦东新区","上海市浦东新区华星村东宋家宅",121.709470851597,31.2084923036178,2022-04-12
"浦东新区","上海市浦东新区华星村西宋家宅",121.709470851597,31.2084923036178,2022-04-12
"浦东新区","上海市浦东新区华绣路179弄",121.531950321801,31.1907641544155,2022-04-12
"浦东新区","上海市浦东新区环东中心村四灶姚家宅",121.658264293459,31.1968055508244,2022-04-12
"浦东新区","上海市浦东新区环林东路271弄",121.533164112206,31.1552989527053,2022-04-12
"浦东新区","上海市浦东新区环林西路613弄",121.530575195727,31.14668408262,2022-04-12
"浦东新区","上海市浦东新区环桥路1136弄",121.584859707864,31.1200779398788,2022-04-12
"浦东新区","上海市浦东新区环桥路1137弄",121.584859707864,31.1200779398788,2022-04-12
"浦东新区","上海市浦东新区环桥路1481弄",121.584859707864,31.1200779398788,2022-04-12
"浦东新区","上海市浦东新区环桥路1488弄",121.584859707864,31.1200779398788,2022-04-12
"浦东新区","上海市浦东新区环庆东路820弄",121.73639279824,31.2370073988734,2022-04-12
"浦东新区","上海市浦东新区环庆南路239弄",121.731379984002,31.2347908492126,2022-04-12
"浦东新区","上海市浦东新区环庆南路336弄",121.734689790654,31.2324718104119,2022-04-12
"浦东新区","上海市浦东新区环庆中路168弄",121.728014212918,31.2391094252368,2022-04-12
"浦东新区","上海市浦东新区环镇东路185弄",121.610847955759,31.0264618393061,2022-04-12
"浦东新区","上海市浦东新区环镇东路200弄",121.610552413247,31.0265996238794,2022-04-12
"浦东新区","上海市浦东新区黄华村",121.883529940771,30.9778471500751,2022-04-12
"浦东新区","上海市浦东新区黄楼村华家宅",121.670267451684,31.1681474330854,2022-04-12
"浦东新区","上海市浦东新区黄楼村周黄家宅",121.638944167364,31.0590571718208,2022-04-12
"浦东新区","上海市浦东新区汇华路2弄",121.742779301263,31.2001365312709,2022-04-12
"浦东新区","上海市浦东新区汇南村",121.748981022843,31.0413899094454,2022-04-12
"浦东新区","上海市浦东新区会龙村",121.720019383709,31.1007360187369,2022-04-12
"浦东新区","上海市浦东新区惠东村",121.783071627116,31.0463207008159,2022-04-12
"浦东新区","上海市浦东新区惠东路300弄",121.777427843088,31.048886200602,2022-04-12
"浦东新区","上海市浦东新区火箭村",121.614989413652,31.1451293459159,2022-04-12
"浦东新区","上海市浦东新区藿香路238弄",121.602138614349,31.2442502059109,2022-04-12
"浦东新区","上海市浦东新区机口村北费家宅",121.666776995794,31.2184358524245,2022-04-12
"浦东新区","上海市浦东新区吉灿路17弄",121.712895731185,31.1165153388616,2022-04-12
"浦东新区","上海市浦东新区季景北路185弄",121.591100326072,31.3481643153618,2022-04-12
"浦东新区","上海市浦东新区季景路19弄",121.59338067461,31.346510613548,2022-04-12
"浦东新区","上海市浦东新区季景路259弄",121.596232794604,31.3423443483157,2022-04-12
"浦东新区","上海市浦东新区季景路333弄",121.597617712208,31.3403936894075,2022-04-12
"浦东新区","上海市浦东新区季景路370弄",121.595858650359,31.342088287629,2022-04-12
"浦东新区","上海市浦东新区济阳路65弄",121.488308933346,31.1730161980026,2022-04-12
"浦东新区","上海市浦东新区佳乐路77弄",121.5896261169,31.2815848989426,2022-04-12
"浦东新区","上海市浦东新区佳林路82弄",121.612359175119,31.27585375156,2022-04-12
"浦东新区","上海市浦东新区佳林路919弄",121.61825789825,31.270835776925,2022-04-12
"浦东新区","上海市浦东新区建光村倪家宅",121.753729106446,31.2183507716403,2022-04-12
"浦东新区","上海市浦东新区建中路126弄",121.620865589315,31.20975837233,2022-04-12
"浦东新区","上海市浦东新区建中路242弄",121.618481037339,31.2085878944491,2022-04-12
"浦东新区","上海市浦东新区建中路285弄",121.525530311983,31.1391594184198,2022-04-12
"浦东新区","上海市浦东新区江东路1075弄",121.545224941645,31.3732692347696,2022-04-12
"浦东新区","上海市浦东新区江东路1217弄",121.546926062789,31.3719911993864,2022-04-12
"浦东新区","上海市浦东新区江东路25号",121.555930138237,31.3688276760728,2022-04-12
"浦东新区","上海市浦东新区江晖路296弄",121.743787020384,31.179845869759,2022-04-12
"浦东新区","上海市浦东新区江绣路59弄",121.745660613192,31.1742322915199,2022-04-12
"浦东新区","上海市浦东新区江耀路123弄",121.483391608985,31.1582245821278,2022-04-12
"浦东新区","上海市浦东新区胶东路657弄",121.605178659855,31.2651986541246,2022-04-12
"浦东新区","上海市浦东新区胶东路818弄",121.607414811761,31.2664211283456,2022-04-12
"浦东新区","上海市浦东新区界龙村戴家宅",121.629117603391,31.3494749046565,2022-04-12
"浦东新区","上海市浦东新区界龙村费家宅",121.692421905035,31.1779911279228,2022-04-12
"浦东新区","上海市浦东新区界龙村孙家宅",121.692611992769,31.1764367732319,2022-04-12
"浦东新区","上海市浦东新区界龙村吴陆家宅",121.735633460592,31.1125570955963,2022-04-12
"浦东新区","上海市浦东新区金港路龙东大道交界口工地生活区",121.657993454348,31.2334182062668,2022-04-12
"浦东新区","上海市浦东新区金高路2131弄",121.61704653327,31.2674719711318,2022-04-12
"浦东新区","上海市浦东新区金高路988弄",121.61620527016,31.292764484741,2022-04-12
"浦东新区","上海市浦东新区金工路172弄",121.59656480832,31.2624665878972,2022-04-12
"浦东新区","上海市浦东新区金海路3333弄",121.669355042777,31.2762559000844,2022-04-12
"浦东新区","上海市浦东新区金沪路1218弄",121.610691291278,31.246915347325,2022-04-12
"浦东新区","上海市浦东新区金吉路33弄",121.652778790863,31.290487771739,2022-04-12
"浦东新区","上海市浦东新区金家浜",121.564865762806,31.2632021639192,2022-04-12
"浦东新区","上海市浦东新区金口路155弄",121.584244997404,31.2559342768333,2022-04-12
"浦东新区","上海市浦东新区金口路471弄",121.58930820658,31.2526068254862,2022-04-12
"浦东新区","上海市浦东新区金口路53弄",121.583033812085,31.2567326468791,2022-04-12
"浦东新区","上海市浦东新区金葵路1315弄",121.602138614349,31.2442502059109,2022-04-12
"浦东新区","上海市浦东新区金葵路945弄",121.602138614349,31.2442502059109,2022-04-12
"浦东新区","上海市浦东新区金陵村",121.789719896364,30.9969525056784,2022-04-12
"浦东新区","上海市浦东新区金明村",121.621449038744,31.2404090423905,2022-04-12
"浦东新区","上海市浦东新区金睦路353弄",121.681557714655,31.293510699442,2022-04-12
"浦东新区","上海市浦东新区金桥路1498弄",121.595704770625,31.2565196459679,2022-04-12
"浦东新区","上海市浦东新区金桥路301弄",121.578617113384,31.2728790178052,2022-04-12
"浦东新区","上海市浦东新区金桥路351弄",121.579623035894,31.273050854795,2022-04-12
"浦东新区","上海市浦东新区金桥路530弄",121.621784825343,31.2606638156741,2022-04-12
"浦东新区","上海市浦东新区金桥路835弄",121.621784825343,31.2606638156741,2022-04-12
"浦东新区","上海市浦东新区金桥路989弄",121.621784825343,31.2606638156741,2022-04-12
"浦东新区","上海市浦东新区金石村",121.788425887277,30.9627444421965,2022-04-12
"浦东新区","上海市浦东新区金台路115弄",121.590903956488,31.2556534372616,2022-04-12
"浦东新区","上海市浦东新区金台路200弄",121.594221578397,31.2570844831908,2022-04-12
"浦东新区","上海市浦东新区金晓路289弄",121.684608090675,31.2812295286536,2022-04-12
"浦东新区","上海市浦东新区金晓路96弄",121.681231989077,31.2838057397283,2022-04-12
"浦东新区","上海市浦东新区金星村",121.779087462518,31.1192198982828,2022-04-12
"浦东新区","上海市浦东新区金杨路1155弄",121.595565712932,31.2637922719701,2022-04-12
"浦东新区","上海市浦东新区金杨路660弄",121.588399929879,31.2575016841727,2022-04-12
"浦东新区","上海市浦东新区金杨路685弄",121.58834306714,31.2582554349061,2022-04-12
"浦东新区","上海市浦东新区金杨路757弄",121.588991553888,31.259965802193,2022-04-12
"浦东新区","上海市浦东新区金杨路785弄",121.589437562574,31.2596987884712,2022-04-12
"浦东新区","上海市浦东新区金钻路328弄",121.675613447435,31.2944921945076,2022-04-12
"浦东新区","上海市浦东新区金钻路398弄",121.677268934659,31.2931799063564,2022-04-12
"浦东新区","上海市浦东新区金钻路669弄",121.681134073777,31.2897694600404,2022-04-12
"浦东新区","上海市浦东新区锦安东路458弄",121.54897401969,31.2063128370759,2022-04-12
"浦东新区","上海市浦东新区锦绣路300弄",121.57156047445,31.231704265536,2022-04-12
"浦东新区","上海市浦东新区锦绣路3088弄",121.546294823507,31.1857314194091,2022-04-12
"浦东新区","上海市浦东新区锦绣路3336弄",121.547059550988,31.1835749798571,2022-04-12
"浦东新区","上海市浦东新区京浦路160弄",121.574694572544,31.1599125196442,2022-04-12
"浦东新区","上海市浦东新区竟新村",121.338402135266,31.8355999753659,2022-04-12
"浦东新区","上海市浦东新区居家桥路1070弄",121.578858667735,31.2489070915103,2022-04-12
"浦东新区","上海市浦东新区居家桥路151弄",121.56804217109,31.2667841172325,2022-04-12
"浦东新区","上海市浦东新区居家桥路199弄",121.568715091747,31.2641713991858,2022-04-12
"浦东新区","上海市浦东新区居家桥路699弄",121.575102043923,31.2561666499107,2022-04-12
"浦东新区","上海市浦东新区巨峰路176弄",121.603201669089,31.285412489154,2022-04-12
"浦东新区","上海市浦东新区巨峰路399弄",121.602835340102,31.2864912778845,2022-04-12
"浦东新区","上海市浦东新区巨峰路90弄",121.602480239934,31.2847557049287,2022-04-12
"浦东新区","上海市浦东新区巨峰路997弄",121.623727321178,31.2870005408357,2022-04-12
"浦东新区","上海市浦东新区巨野路197弄",121.551977683824,31.2480848056137,2022-04-12
"浦东新区","上海市浦东新区巨野路482弄",121.55494415811,31.2421741524547,2022-04-12
"浦东新区","上海市浦东新区俱进路285弄",121.614659645699,31.3061023365816,2022-04-12
"浦东新区","上海市浦东新区俱进路500弄",121.5896261169,31.2815848989426,2022-04-12
"浦东新区","上海市浦东新区军民村陈家宅",121.748544715856,31.1734496085643,2022-04-12
"浦东新区","上海市浦东新区军民村黄家宅",121.748544715856,31.1734496085643,2022-04-12
"浦东新区","上海市浦东新区军民村周家宅",121.748544715856,31.1734496085643,2022-04-12
"浦东新区","上海市浦东新区康安路御北路交界口工地生活区",121.563785999583,31.1639392972324,2022-04-12
"浦东新区","上海市浦东新区康安路御桥路交界口工地生活区",121.542390069116,31.1558117884755,2022-04-12
"浦东新区","上海市浦东新区康达路508弄",121.584859707864,31.1200779398788,2022-04-12
"浦东新区","上海市浦东新区康达路688弄",121.584859707864,31.1200779398788,2022-04-12
"浦东新区","上海市浦东新区康涵路188弄",121.584859707864,31.1200779398788,2022-04-12
"浦东新区","上海市浦东新区康弘路428弄",121.584859707864,31.1200779398788,2022-04-12
"浦东新区","上海市浦东新区康弘路508弄",121.606984613253,31.1269347261659,2022-04-12
"浦东新区","上海市浦东新区康弘路515弄",121.606533484226,31.127466032407,2022-04-12
"浦东新区","上海市浦东新区康弘路580弄",121.606076785704,31.132845541712,2022-04-12
"浦东新区","上海市浦东新区康桥东路905弄",121.627383334773,31.1632477466863,2022-04-12
"浦东新区","上海市浦东新区康桥路1259弄",121.584859707864,31.1200779398788,2022-04-12
"浦东新区","上海市浦东新区康桥路1298弄",121.584859707864,31.1200779398788,2022-04-12
"浦东新区","上海市浦东新区康桥路1558弄",121.587636370195,31.1554059546754,2022-04-12
"浦东新区","上海市浦东新区康桥路1633弄",121.584859707864,31.1200779398788,2022-04-12
"浦东新区","上海市浦东新区康桥路90弄",121.584859707864,31.1200779398788,2022-04-12
"浦东新区","上海市浦东新区康杉路151弄",121.567301338536,31.1577240432149,2022-04-12
"浦东新区","上海市浦东新区康杉路1758弄",121.58452158567,31.1196864815925,2022-04-12
"浦东新区","上海市浦东新区康杉路359弄",121.536884264815,31.1897022555378,2022-04-12
"浦东新区","上海市浦东新区康杉路386弄",121.565352644393,31.1579191911315,2022-04-12
"浦东新区","上海市浦东新区康杉路608弄",121.536884264815,31.1897022555378,2022-04-12
"浦东新区","上海市浦东新区康沈公路389弄",121.582849300133,31.1279738424437,2022-04-12
"浦东新区","上海市浦东新区康沈路1527弄",121.582648798343,31.1249531399078,2022-04-12
"浦东新区","上海市浦东新区康沈路1870弄",121.583784076846,31.1173942731762,2022-04-12
"浦东新区","上海市浦东新区康沈路1929弄",121.58702570211,31.1173485180928,2022-04-12
"浦东新区","上海市浦东新区康沈路1938弄",121.582681317002,31.1147577547379,2022-04-12
"浦东新区","上海市浦东新区康沈路2132号",121.587455631127,31.1098732914379,2022-04-12
"浦东新区","上海市浦东新区康沈路2262弄",121.58731262089,31.1071241716612,2022-04-12
"浦东新区","上海市浦东新区康沈路3001弄",121.590003944198,31.0953454718071,2022-04-12
"浦东新区","上海市浦东新区康沈路400弄",121.584859707864,31.1200779398788,2022-04-12
"浦东新区","上海市浦东新区康沈路465弄",121.584859707864,31.1200779398788,2022-04-12
"浦东新区","上海市浦东新区康士路15弄",121.569516739584,31.1556683987021,2022-04-12
"浦东新区","上海市浦东新区康梧路189号工地生活区",121.557148959153,31.1422771769984,2022-04-12
"浦东新区","上海市浦东新区康意路御北路交界口工地生活区",121.563785999583,31.1639392972324,2022-04-12
"浦东新区","上海市浦东新区科农路99弄",121.636263803384,31.1944164540822,2022-04-12
"浦东新区","上海市浦东新区莱阳路111弄",121.589537813468,31.332463488478,2022-04-12
"浦东新区","上海市浦东新区莱阳路1443弄",121.590045356082,31.3010960155363,2022-04-12
"浦东新区","上海市浦东新区莱阳路17号",121.583505152986,31.2780564425446,2022-04-12
"浦东新区","上海市浦东新区莱阳路201弄",121.586405332325,31.2794549715842,2022-04-12
"浦东新区","上海市浦东新区莱阳路301弄",121.585947196514,31.2803576852639,2022-04-12
"浦东新区","上海市浦东新区莱阳路350弄",121.588321507808,31.2804560573812,2022-04-12
"浦东新区","上海市浦东新区莱阳路3777弄",121.586575381558,31.338805467133,2022-04-12
"浦东新区","上海市浦东新区莱阳路451弄",121.58929185742,31.2821589973274,2022-04-12
"浦东新区","上海市浦东新区莱阳路817弄",121.587738417701,31.28696960402,2022-04-12
"浦东新区","上海市浦东新区莱阳路880弄",121.590822300517,31.2883369089077,2022-04-12
"浦东新区","上海市浦东新区莱阳路881弄",121.589560360937,31.2899718931953,2022-04-12
"浦东新区","上海市浦东新区兰城路115弄",121.585504152237,31.272452471814,2022-04-12
"浦东新区","上海市浦东新区兰谷路2777弄",121.602138973671,31.3162774463674,2022-04-12
"浦东新区","上海市浦东新区兰陵路23弄",121.523272241422,31.2010150687256,2022-04-12
"浦东新区","上海市浦东新区兰嵩路360弄",121.599493553774,31.3291411548124,2022-04-12
"浦东新区","上海市浦东新区兰亭路孙浦路交界口工地生活区",121.66455252186,31.1919123045579,2022-04-12
"浦东新区","上海市浦东新区栏杆村大徐家宅",121.672901912253,31.1797774372486,2022-04-12
"浦东新区","上海市浦东新区栏杆村潘家宅",121.676689078452,31.1788447882927,2022-04-12
"浦东新区","上海市浦东新区蓝村路30弄",121.538649794464,31.2167494318577,2022-04-12
"浦东新区","上海市浦东新区蓝村路470弄",121.531604025027,31.2174828969005,2022-04-12
"浦东新区","上海市浦东新区蓝靛路1688弄",121.646025869022,31.1037539438325,2022-04-12
"浦东新区","上海市浦东新区劳动新村",121.550454606832,31.2273482924363,2022-04-12
"浦东新区","上海市浦东新区崂山路150弄",121.529405132543,31.2333231814149,2022-04-12
"浦东新区","上海市浦东新区崂山路502号",121.52356526868,31.2427278844216,2022-04-12
"浦东新区","上海市浦东新区崂山路551弄",121.528755677916,31.2325728575384,2022-04-12
"浦东新区","上海市浦东新区崂山路571弄",121.529543491848,31.2323093937171,2022-04-12
"浦东新区","上海市浦东新区崂山路600号",121.530863102643,31.2315832239911,2022-04-12
"浦东新区","上海市浦东新区崂山路645弄",121.531348816432,31.2278054602837,2022-04-12
"浦东新区","上海市浦东新区崂山路80弄",121.523114678636,31.2441511781966,2022-04-12
"浦东新区","上海市浦东新区乐城路32弄",121.602012312594,31.0363827423364,2022-04-12
"浦东新区","上海市浦东新区乐城路3弄",121.550454606832,31.2273482924363,2022-04-12
"浦东新区","上海市浦东新区李桥村",121.721178916462,31.0224466573894,2022-04-12
"浦东新区","上海市浦东新区里仁村",121.575105367653,31.1138505842326,2022-04-12
"浦东新区","上海市浦东新区历城路22弄",121.536884264815,31.1897022555378,2022-04-12
"浦东新区","上海市浦东新区历城路83弄",121.536884264815,31.1897022555378,2022-04-12
"浦东新区","上海市浦东新区立新村",121.763918136693,31.1774717113271,2022-04-12
"浦东新区","上海市浦东新区丽雅路122号",121.688946906289,31.2417564199527,2022-04-12
"浦东新区","上海市浦东新区利川路421弄",121.688665736664,31.2141557761719,2022-04-12
"浦东新区","上海市浦东新区利川路王桥路交界口工地生活区",121.698632705789,31.2151713816381,2022-04-12
"浦东新区","上海市浦东新区利津路1111弄",121.599224870596,31.2848039242965,2022-04-12
"浦东新区","上海市浦东新区利津路158弄",121.58730282936,31.2846267083533,2022-04-12
"浦东新区","上海市浦东新区利津路385弄",121.590995673481,31.2827648790811,2022-04-12
"浦东新区","上海市浦东新区利津路51弄",121.584990231655,31.2884149055528,2022-04-12
"浦东新区","上海市浦东新区利民村",121.701957603973,31.039560530844,2022-04-12
"浦东新区","上海市浦东新区连波路66弄",121.558484380125,31.2008978485061,2022-04-12
"浦东新区","上海市浦东新区莲安西路125弄",121.559745780722,31.1853271824863,2022-04-12
"浦东新区","上海市浦东新区莲安西路35弄",121.561370276406,31.1871067695776,2022-04-12
"浦东新区","上海市浦东新区莲溪路1099弄",121.569863395681,31.1817477483468,2022-04-12
"浦东新区","上海市浦东新区莲溪路477弄",121.568933829139,31.188689385869,2022-04-12
"浦东新区","上海市浦东新区莲溪路780弄",121.56871715785,31.1834782049839,2022-04-12
"浦东新区","上海市浦东新区莲振路269号",121.574360941877,31.173909356805,2022-04-12
"浦东新区","上海市浦东新区莲中路255弄",121.565445529182,31.1882809912505,2022-04-12
"浦东新区","上海市浦东新区莲中路318弄",121.564485240592,31.1865044385056,2022-04-12
"浦东新区","上海市浦东新区莲中路356弄",121.56492999165,31.1857610767685,2022-04-12
"浦东新区","上海市浦东新区联丰村徐隆昌队陆家宅",121.511092925487,31.1583164387242,2022-04-12
"浦东新区","上海市浦东新区联丰村徐隆昌队徐隆昌",121.509627160387,31.1588742975862,2022-04-12
"浦东新区","上海市浦东新区联合村南浜宅",121.682533094778,31.3038748527031,2022-04-12
"浦东新区","上海市浦东新区联勤村冯桥队冯家宅",121.557447915227,31.1712123975815,2022-04-12
"浦东新区","上海市浦东新区联勤村冯桥队张家宅",121.557447915227,31.1712123975815,2022-04-12
"浦东新区","上海市浦东新区联勤村李家队李家宅",121.55718596934,31.1732310110799,2022-04-12
"浦东新区","上海市浦东新区联勤村麦家队麦家宅",121.553913442368,31.1692634940545,2022-04-12
"浦东新区","上海市浦东新区联勤村太平队北王家宅",121.591791661993,31.162595434953,2022-04-12
"浦东新区","上海市浦东新区林德路718弄",121.517756825252,31.1348698488989,2022-04-12
"浦东新区","上海市浦东新区林悦路125弄",121.525530311983,31.1391594184198,2022-04-12
"浦东新区","上海市浦东新区林展路411弄",121.515681739524,31.128169902288,2022-04-12
"浦东新区","上海市浦东新区临江村陈家宅",121.485179506441,31.1293456345277,2022-04-12
"浦东新区","上海市浦东新区临江村丁家队丁家宅",121.484386212845,31.1273406057646,2022-04-12
"浦东新区","上海市浦东新区临江村临江队王家渡",121.481034545157,31.1308233546774,2022-04-12
"浦东新区","上海市浦东新区临江村庞家宅",121.482806722267,31.124007039641,2022-04-12
"浦东新区","上海市浦东新区临江村泰保队泰保堂",121.484921243607,31.1239658475081,2022-04-12
"浦东新区","上海市浦东新区临江村唐家宅",121.485179506441,31.1293456345277,2022-04-12
"浦东新区","上海市浦东新区临江村王家渡队王家渡",121.481034545157,31.1308233546774,2022-04-12
"浦东新区","上海市浦东新区临江村王家宅队丁家宅",121.484386212845,31.1273406057646,2022-04-12
"浦东新区","上海市浦东新区临江村王家宅队王家宅",121.484029855049,31.1268779245209,2022-04-12
"浦东新区","上海市浦东新区临江村西新队罗汉松",121.487328612543,31.1320833628314,2022-04-12
"浦东新区","上海市浦东新区临江村西新队石河圈",121.485179506441,31.1293456345277,2022-04-12
"浦东新区","上海市浦东新区临江村西新队小金家宅",121.488457692739,31.1299419957814,2022-04-12
"浦东新区","上海市浦东新区临江村小陈家宅",121.524726687873,31.1243504097577,2022-04-12
"浦东新区","上海市浦东新区临江村益民队陈家宅",121.485179506441,31.1293456345277,2022-04-12
"浦东新区","上海市浦东新区临江村益民队罗汉松",121.487328612543,31.1320833628314,2022-04-12
"浦东新区","上海市浦东新区临江村益民队小金家宅",121.488457692739,31.1299419957814,2022-04-12
"浦东新区","上海市浦东新区临江村筠西队庞家宅",121.482806722267,31.124007039641,2022-04-12
"浦东新区","上海市浦东新区临江村张塘队塘湾宅",121.49501181957,31.1315686973293,2022-04-12
"浦东新区","上海市浦东新区临江村周北队周家宅",121.478736410171,31.1240123722048,2022-04-12
"浦东新区","上海市浦东新区临沂北路150弄",121.523465287276,31.2115689976617,2022-04-12
"浦东新区","上海市浦东新区临沂路101弄",121.521040491213,31.2013230220684,2022-04-12
"浦东新区","上海市浦东新区临沂路181弄",121.520668143579,31.1975792508032,2022-04-12
"浦东新区","上海市浦东新区临沂路280弄",121.516029653248,31.198943924921,2022-04-12
"浦东新区","上海市浦东新区临沂路81弄",121.525886040965,31.2013416320549,2022-04-12
"浦东新区","上海市浦东新区灵山路1396弄",121.569409481906,31.2434437791988,2022-04-12
"浦东新区","上海市浦东新区灵山路1415弄",121.570780206284,31.2449987378052,2022-04-12
"浦东新区","上海市浦东新区灵山路1671弄",121.572311008704,31.2457713448707,2022-04-12
"浦东新区","上海市浦东新区灵山路1724弄",121.574529733483,31.2463031356353,2022-04-12
"浦东新区","上海市浦东新区灵山路1799弄",121.577772616374,31.2483716108645,2022-04-12
"浦东新区","上海市浦东新区灵山路2000弄",121.582743839066,31.2484507214153,2022-04-12
"浦东新区","上海市浦东新区灵山路600弄",121.550404750876,31.2341249863555,2022-04-12
"浦东新区","上海市浦东新区灵山路701弄",121.552045146568,31.2362148041078,2022-04-12
"浦东新区","上海市浦东新区灵山路785弄",121.5568321268,31.2383432470385,2022-04-12
"浦东新区","上海市浦东新区灵岩路56弄",121.500072962644,31.1725382931417,2022-04-12
"浦东新区","上海市浦东新区灵岩南路1065号",121.506511836878,31.1484926041448,2022-04-12
"浦东新区","上海市浦东新区灵岩南路156弄",121.500710759556,31.1648391859701,2022-04-12
"浦东新区","上海市浦东新区灵岩南路380弄",121.503294286203,31.1590254851873,2022-04-12
"浦东新区","上海市浦东新区灵岩南路410弄",121.503068991181,31.1590666619419,2022-04-12
"浦东新区","上海市浦东新区灵岩南路499弄",121.504091801834,31.156965620083,2022-04-12
"浦东新区","上海市浦东新区凌河路155号",121.603378096291,31.2827475197325,2022-04-12
"浦东新区","上海市浦东新区凌河路188弄",121.602161970292,31.2819038514981,2022-04-12
"浦东新区","上海市浦东新区凌河路354弄",121.606028636529,31.2799354941061,2022-04-12
"浦东新区","上海市浦东新区凌河路38弄",121.600753606913,31.2825696826637,2022-04-12
"浦东新区","上海市浦东新区凌河路420弄",121.605932248348,31.2799170540613,2022-04-12
"浦东新区","上海市浦东新区凌河路618弄",121.608152859568,31.276965751274,2022-04-12
"浦东新区","上海市浦东新区凌空路55弄",121.723712407491,31.2084341614893,2022-04-12
"浦东新区","上海市浦东新区凌路村",121.784237678871,31.1023679563852,2022-04-12
"浦东新区","上海市浦东新区凌桥村仓房浜",121.539055648894,31.3702961432909,2022-04-12
"浦东新区","上海市浦东新区凌桥村毛家浜西",121.538413450285,31.3759958982237,2022-04-12
"浦东新区","上海市浦东新区凌桥村赵家浜西",121.543550320513,31.3728590259408,2022-04-12
"浦东新区","上海市浦东新区凌兆路379弄",121.525530311983,31.1391594184198,2022-04-12
"浦东新区","上海市浦东新区凌兆路405弄",121.503617496525,31.1501844252866,2022-04-12
"浦东新区","上海市浦东新区凌兆路555弄",121.508150525789,31.1502543473656,2022-04-12
"浦东新区","上海市浦东新区凌兆路608弄",121.525530311983,31.1391594184198,2022-04-12
"浦东新区","上海市浦东新区凌兆路726弄",121.511651941006,31.1508040644375,2022-04-12
"浦东新区","上海市浦东新区柳埠路135弄",121.588934241996,31.2688910299805,2022-04-12
"浦东新区","上海市浦东新区柳埠路142弄",121.588915647072,31.2693304014172,2022-04-12
"浦东新区","上海市浦东新区柳埠路196弄",121.589881325495,31.2710215840607,2022-04-12
"浦东新区","上海市浦东新区六灶镇果园村",121.737440132634,30.9836647732627,2022-04-12
"浦东新区","上海市浦东新区龙东大道2895弄",121.64040094941,31.2308981166323,2022-04-12
"浦东新区","上海市浦东新区龙居路150弄",121.568293966124,31.2579189604655,2022-04-12
"浦东新区","上海市浦东新区龙居路191弄",121.569897171968,31.2579176485215,2022-04-12
"浦东新区","上海市浦东新区龙居路30弄",121.5896261169,31.2815848989426,2022-04-12
"浦东新区","上海市浦东新区龙新路57号",121.660236702867,31.2400476492091,2022-04-12
"浦东新区","上海市浦东新区龙阳路158号工地生活区",121.518246401755,31.2084501447872,2022-04-12
"浦东新区","上海市浦东新区陆凌村瞿家宅",121.570109621221,31.3523997058498,2022-04-12
"浦东新区","上海市浦东新区陆凌村宋家宅",121.570109621221,31.3523997058498,2022-04-12
"浦东新区","上海市浦东新区陆凌村西凌家宅",121.5817386352,31.3535668406377,2022-04-12
"浦东新区","上海市浦东新区陆路村",121.798384232669,31.0611258340789,2022-04-12
"浦东新区","上海市浦东新区陆万村",121.703053896017,31.2697973181134,2022-04-12
"浦东新区","上海市浦东新区鹿溪村",121.702793387419,31.1246797904009,2022-04-12
"浦东新区","上海市浦东新区罗家村",121.698167653026,31.2883993216586,2022-04-12
"浦东新区","上海市浦东新区罗山路108弄",121.558879454888,31.2546415897529,2022-04-12
"浦东新区","上海市浦东新区罗山路1505号",121.576859219331,31.2342945788175,2022-04-12
"浦东新区","上海市浦东新区罗山路1700弄",121.575072579502,31.2314363219569,2022-04-12
"浦东新区","上海市浦东新区吕三村南蒋家宅",121.644956975295,31.2192186383339,2022-04-12
"浦东新区","上海市浦东新区吕三村三林新村",121.648444197285,31.2220812829293,2022-04-12
"浦东新区","上海市浦东新区绿林路211号",121.555493022776,31.1780956501267,2022-04-12
"浦东新区","上海市浦东新区绿林路51弄",121.555202959927,31.1808524243444,2022-04-12
"浦东新区","上海市浦东新区绿林路东钟家宅",121.548654941573,31.1732516349633,2022-04-12
"浦东新区","上海市浦东新区马樱丹路127弄",121.925623459002,30.8891255273482,2022-04-12
"浦东新区","上海市浦东新区梅花路777弄",121.529696185109,31.2072012517119,2022-04-12
"浦东新区","上海市浦东新区梅林村",121.56865355782,31.0925725798678,2022-04-12
"浦东新区","上海市浦东新区沔北村唐家宅",121.633629432645,31.1678540477443,2022-04-12
"浦东新区","上海市浦东新区沔北村朱家宅",121.637550266705,31.1732648435155,2022-04-12
"浦东新区","上海市浦东新区沔青村",121.643439108475,31.1564028826904,2022-04-12
"浦东新区","上海市浦东新区苗圃路219号",121.553247977646,31.2480834163504,2022-04-12
"浦东新区","上海市浦东新区苗圃路463弄",121.556692440293,31.242846750349,2022-04-12
"浦东新区","上海市浦东新区苗桥路445号",121.602516621307,31.104273708865,2022-04-12
"浦东新区","上海市浦东新区苗桥路935弄",121.602516621307,31.104273708865,2022-04-12
"浦东新区","上海市浦东新区妙川路1111弄",121.720690956908,31.1884085761446,2022-04-12
"浦东新区","上海市浦东新区妙境路162弄",121.695020439672,31.2023335930395,2022-04-12
"浦东新区","上海市浦东新区妙栏路392弄",121.697375617058,31.1919231936524,2022-04-12
"浦东新区","上海市浦东新区民春路399弄",121.652778790863,31.290487771739,2022-04-12
"浦东新区","上海市浦东新区民春路516弄",121.652778790863,31.290487771739,2022-04-12
"浦东新区","上海市浦东新区民丰村东曹家宅",121.648615953299,31.2142128338184,2022-04-12
"浦东新区","上海市浦东新区民丰村西龚家宅",121.644742190448,31.2076757624511,2022-04-12
"浦东新区","上海市浦东新区民建村北邵家宅",121.654516473041,31.2803786713243,2022-04-12
"浦东新区","上海市浦东新区民建村徐家宅",121.653580977683,31.2733973056005,2022-04-12
"浦东新区","上海市浦东新区民民路318弄",121.652778790863,31.290487771739,2022-04-12
"浦东新区","上海市浦东新区民区路260弄",121.662034391854,31.2795043510196,2022-04-12
"浦东新区","上海市浦东新区民区路265弄",121.661028132183,31.2814075715132,2022-04-12
"浦东新区","上海市浦东新区民生路423弄",121.549737040391,31.2461150410473,2022-04-12
"浦东新区","上海市浦东新区民唐路秦家港路交界口工地生活区",121.697451164552,31.2762273516085,2022-04-12
"浦东新区","上海市浦东新区民同路10弄",121.657041430168,31.2796818081502,2022-04-12
"浦东新区","上海市浦东新区民同路176弄",121.657803642394,31.2786100391049,2022-04-12
"浦东新区","上海市浦东新区民同路290弄",121.658550044442,31.2756468897586,2022-04-12
"浦东新区","上海市浦东新区民同路293弄",121.652778790863,31.290487771739,2022-04-12
"浦东新区","上海市浦东新区民同路40弄",121.657271755701,31.2792847666426,2022-04-12
"浦东新区","上海市浦东新区民雪路918弄",121.665106057715,31.2764061266504,2022-04-12
"浦东新区","上海市浦东新区民耀路227弄",121.660517423339,31.2798933674713,2022-04-12
"浦东新区","上海市浦东新区民耀路268弄",121.659229253238,31.2782094438455,2022-04-12
"浦东新区","上海市浦东新区民耀路277弄",121.652778790863,31.290487771739,2022-04-12
"浦东新区","上海市浦东新区民耀路290弄",121.652778790863,31.290487771739,2022-04-12
"浦东新区","上海市浦东新区民耀路358弄",121.652778790863,31.290487771739,2022-04-12
"浦东新区","上海市浦东新区民耀路391弄",121.652778790863,31.290487771739,2022-04-12
"浦东新区","上海市浦东新区民耀路423弄",121.661880961273,31.2756125542045,2022-04-12
"浦东新区","上海市浦东新区民耀路97弄",121.659507907607,31.2807116700925,2022-04-12
"浦东新区","上海市浦东新区民耀路98弄",121.658117959492,31.2801707393781,2022-04-12
"浦东新区","上海市浦东新区民义村",121.705067896971,31.1343239022766,2022-04-12
"浦东新区","上海市浦东新区民治村",121.635952720186,31.1170477860701,2022-04-12
"浦东新区","上海市浦东新区民众村运河西",121.676911049744,31.2824490155834,2022-04-12
"浦东新区","上海市浦东新区牟平路154弄",121.5896261169,31.2815848989426,2022-04-12
"浦东新区","上海市浦东新区牟平路304弄",121.606641999531,31.269810513048,2022-04-12
"浦东新区","上海市浦东新区牡丹路340弄",121.556393753711,31.214141338034,2022-04-12
"浦东新区","上海市浦东新区牡丹路89弄",121.550298840657,31.2132298778117,2022-04-12
"浦东新区","上海市浦东新区暮二村顾家宅",121.682574057509,31.2244915217944,2022-04-12
"浦东新区","上海市浦东新区暮二村小丁家宅",121.669724605664,31.2288207632593,2022-04-12
"浦东新区","上海市浦东新区南曹路901弄",121.670398694119,31.2084526156349,2022-04-12
"浦东新区","上海市浦东新区南阜村东汤队东汤家宅",121.526167659742,31.1360516018922,2022-04-12
"浦东新区","上海市浦东新区南阜村高树队北孙家宅",121.526784975288,31.1394910652598,2022-04-12
"浦东新区","上海市浦东新区南阜村高树队王家宅",121.526881543131,31.1363513458081,2022-04-12
"浦东新区","上海市浦东新区南阜村高树队西汤家宅",121.526881543131,31.1363513458081,2022-04-12
"浦东新区","上海市浦东新区南阜村红光队顾家宅",121.526167659742,31.1360516018922,2022-04-12
"浦东新区","上海市浦东新区南阜村红光队南孙家宅",121.526784975288,31.1394910652598,2022-04-12
"浦东新区","上海市浦东新区南泐村",121.792049382213,30.9230108406189,2022-04-12
"浦东新区","上海市浦东新区南六公路399弄",121.713108988913,31.0675268839181,2022-04-12
"浦东新区","上海市浦东新区南码头路1187弄",121.521831359384,31.1895060153079,2022-04-12
"浦东新区","上海市浦东新区南码头路1349弄",121.522360102007,31.186235979404,2022-04-12
"浦东新区","上海市浦东新区南码头路1675弄",121.520848882648,31.1809040184718,2022-04-12
"浦东新区","上海市浦东新区南码头路1696弄",121.521437362588,31.1826299338027,2022-04-12
"浦东新区","上海市浦东新区南码头路193弄",121.515512588596,31.2047431820535,2022-04-12
"浦东新区","上海市浦东新区南码头路450弄",121.516319536436,31.2003681163043,2022-04-12
"浦东新区","上海市浦东新区南码头路451弄",121.516514289071,31.2008203193739,2022-04-12
"浦东新区","上海市浦东新区南门大街21弄",121.761148211653,31.0482344872038,2022-04-12
"浦东新区","上海市浦东新区南桥路1152弄",121.694983788807,31.1928942486714,2022-04-12
"浦东新区","上海市浦东新区南桥路459弄",121.707911842385,31.195454514332,2022-04-12
"浦东新区","上海市浦东新区南桥路983弄",121.69942851464,31.1934602422984,2022-04-12
"浦东新区","上海市浦东新区南泉北路101弄",121.522040215415,31.244123854865,2022-04-12
"浦东新区","上海市浦东新区南泉北路170弄",121.523003378583,31.2424016970164,2022-04-12
"浦东新区","上海市浦东新区南泉路1111弄",121.529533610488,31.2193315893455,2022-04-12
"浦东新区","上海市浦东新区南泉路1211弄",121.529722254645,31.2192635716987,2022-04-12
"浦东新区","上海市浦东新区南泉路1300弄",121.528930308507,31.217418043381,2022-04-12
"浦东新区","上海市浦东新区南塘村龚家宅",121.5746809183,31.345394276907,2022-04-12
"浦东新区","上海市浦东新区南塘村顾家宅",121.5746809183,31.345394276907,2022-04-12
"浦东新区","上海市浦东新区南塘村姚家宅",121.5746809183,31.345394276907,2022-04-12
"浦东新区","上海市浦东新区南团公路35弄",121.77053999576,31.0461090008437,2022-04-12
"浦东新区","上海市浦东新区南新村东钟家宅",121.548654941573,31.1732516349633,2022-04-12
"浦东新区","上海市浦东新区南新村吴家宅",121.526625615891,31.3601914545598,2022-04-12
"浦东新区","上海市浦东新区南新村西钟家宅",121.548654941573,31.1732516349633,2022-04-12
"浦东新区","上海市浦东新区南新村徐家宅",121.526625615891,31.3601914545598,2022-04-12
"浦东新区","上海市浦东新区南新村杨家湾",121.515624876785,31.2297190254723,2022-04-12
"浦东新区","上海市浦东新区南新村赵家厍",121.543435157746,31.1767913831306,2022-04-12
"浦东新区","上海市浦东新区南洋泾路287弄",121.560686935404,31.2448456821215,2022-04-12
"浦东新区","上海市浦东新区南祝路111号",121.761321854108,31.1323112521057,2022-04-12
"浦东新区","上海市浦东新区南祝路258弄",121.761885989968,31.1259748896737,2022-04-12
"浦东新区","上海市浦东新区泥城路9弄",121.833012652451,30.908106042676,2022-04-12
"浦东新区","上海市浦东新区年家浜东路129弄",121.598925375539,31.1203651370632,2022-04-12
"浦东新区","上海市浦东新区年家浜路28弄",121.592127538423,31.1211568569416,2022-04-12
"浦东新区","上海市浦东新区年家浜路371弄",121.578721137162,31.1204141367105,2022-04-12
"浦东新区","上海市浦东新区年家浜路425弄",121.578911038946,31.1200416923784,2022-04-12
"浦东新区","上海市浦东新区宁桥路825号",121.626860520966,31.2591913831259,2022-04-12
"浦东新区","上海市浦东新区牌楼村",121.565577580092,31.0591482746553,2022-04-12
"浦东新区","上海市浦东新区牌楼东路528弄",121.663264351758,31.0291296873005,2022-04-12
"浦东新区","上海市浦东新区牌楼西路303弄",121.64756457653,31.0294629599204,2022-04-12
"浦东新区","上海市浦东新区潘桥村沈家宅",121.584346505926,31.2153562184861,2022-04-12
"浦东新区","上海市浦东新区彭平东路88弄",121.807412113214,30.9131573443756,2022-04-12
"浦东新区","上海市浦东新区鹏飞路333弄",121.536884264815,31.1897022555378,2022-04-12
"浦东新区","上海市浦东新区鹏飞路51弄",121.560521198038,31.1814926374874,2022-04-12
"浦东新区","上海市浦东新区鹏岳路152弄",121.560933340606,31.1772149667974,2022-04-12
"浦东新区","上海市浦东新区鹏岳路233弄",121.536884264815,31.1897022555378,2022-04-12
"浦东新区","上海市浦东新区鹏岳路70弄",121.558803637903,31.1809368440621,2022-04-12
"浦东新区","上海市浦东新区浦城路580弄",121.521080555639,31.230158967011,2022-04-12
"浦东新区","上海市浦东新区浦电路218弄",121.53039158208,31.2260317415484,2022-04-12
"浦东新区","上海市浦东新区浦电路221号",121.530044566662,31.2249883073877,2022-04-12
"浦东新区","上海市浦东新区浦电路29弄",121.521798301741,31.2219827721666,2022-04-12
"浦东新区","上海市浦东新区浦电路300号",121.531610582658,31.2256760828096,2022-04-12
"浦东新区","上海市浦东新区浦电路305弄",121.531913940428,31.2253816423621,2022-04-12
"浦东新区","上海市浦东新区浦电路330弄",121.534528817937,31.2266271793415,2022-04-12
"浦东新区","上海市浦东新区浦电路331弄",121.535182335196,31.225922581402,2022-04-12
"浦东新区","上海市浦东新区浦东北路4646弄",121.567934733751,31.3547015045847,2022-04-12
"浦东新区","上海市浦东新区浦东大道136弄",121.520173536566,31.2440242095398,2022-04-12
"浦东新区","上海市浦东新区浦东大道140弄",121.521669035579,31.2440488314387,2022-04-12
"浦东新区","上海市浦东新区浦东大道1585弄",121.547254752775,31.2507606428061,2022-04-12
"浦东新区","上海市浦东新区浦东大道1623弄",121.549043907859,31.2517675929144,2022-04-12
"浦东新区","上海市浦东新区浦东大道1695弄",121.550783925632,31.2536836006242,2022-04-12
"浦东新区","上海市浦东新区浦东大道1851弄",121.552497443392,31.2531016867014,2022-04-12
"浦东新区","上海市浦东新区浦东大道2511弄",121.566406266925,31.265127505972,2022-04-12
"浦东新区","上海市浦东新区浦东大道2530号",121.568202428793,31.2648689182495,2022-04-12
"浦东新区","上海市浦东新区浦东大道2639弄",121.573829414507,31.2700964028423,2022-04-12
"浦东新区","上海市浦东新区浦东大道2641弄",121.575420313565,31.2714724426133,2022-04-12
"浦东新区","上海市浦东新区浦东大道2746弄",121.579756524092,31.2744655851279,2022-04-12
"浦东新区","上海市浦东新区浦东大道2778弄",121.581374821469,31.2756511334779,2022-04-12
"浦东新区","上海市浦东新区浦东大道2894号",121.582823967917,31.2789444329845,2022-04-12
"浦东新区","上海市浦东新区浦东大道2902弄",121.568688412073,31.2656972298435,2022-04-12
"浦东新区","上海市浦东新区浦东大道2920弄",121.583602619133,31.2809363432894,2022-04-12
"浦东新区","上海市浦东新区浦东大道2970弄",121.585274365688,31.2829352319847,2022-04-12
"浦东新区","上海市浦东新区浦东大道3076弄",121.584105041405,31.2871692658819,2022-04-12
"浦东新区","上海市浦东新区浦东大道604弄",121.528653810071,31.2451947073744,2022-04-12
"浦东新区","上海市浦东新区浦东大道651弄",121.530084810749,31.2470338992011,2022-04-12
"浦东新区","上海市浦东新区浦东大道834弄",121.533047062998,31.2451030903012,2022-04-12
"浦东新区","上海市浦东新区浦东南路1288号",121.523559878847,31.2308961867454,2022-04-12
"浦东新区","上海市浦东新区浦东南路1475弄",121.525751744291,31.2285494147365,2022-04-12
"浦东新区","上海市浦东新区浦东南路1533号",121.527644653661,31.2273723011377,2022-04-12
"浦东新区","上海市浦东新区浦东南路1650弄",121.524288314785,31.2245473379296,2022-04-12
"浦东新区","上海市浦东新区浦东南路1700弄",121.525060767693,31.2237849777418,2022-04-12
"浦东新区","上海市浦东新区浦东南路2351弄",121.519461719279,31.2055986658343,2022-04-12
"浦东新区","上海市浦东新区浦东南路3405弄",121.515403264816,31.2003488111383,2022-04-12
"浦东新区","上海市浦东新区浦东南路3649弄",121.512313183692,31.1950220549798,2022-04-12
"浦东新区","上海市浦东新区浦东南路595弄",121.519777832988,31.2411515844425,2022-04-12
"浦东新区","上海市浦东新区浦建路83弄",121.525390176323,31.2156239764809,2022-04-12
"浦东新区","上海市浦东新区浦明路233弄",121.517192869053,31.2325821208295,2022-04-12
"浦东新区","上海市浦东新区浦三路12弄",121.517827791387,31.2027220039836,2022-04-12
"浦东新区","上海市浦东新区浦三路2801弄",121.536884264815,31.1897022555378,2022-04-12
"浦东新区","上海市浦东新区浦三路288弄",121.519581912557,31.1984411322372,2022-04-12
"浦东新区","上海市浦东新区浦三路4688弄",121.522452447814,31.1943233972342,2022-04-12
"浦东新区","上海市浦东新区浦三路5127弄",121.536884264815,31.1897022555378,2022-04-12
"浦东新区","上海市浦东新区浦三路628弄",121.522452447814,31.1943233972342,2022-04-12
"浦东新区","上海市浦东新区浦三路635弄",121.525132182981,31.1951443021741,2022-04-12
"浦东新区","上海市浦东新区浦三路657号",121.536884264815,31.1897022555378,2022-04-12
"浦东新区","上海市浦东新区浦三路724弄",121.524085549193,31.1908572471261,2022-04-12
"浦东新区","上海市浦东新区浦三路775弄",121.526729010855,31.1896008532192,2022-04-12
"浦东新区","上海市浦东新区浦三路783弄",121.525894125714,31.1893677742066,2022-04-12
"浦东新区","上海市浦东新区浦三路817弄",121.525675029,31.1889618539061,2022-04-12
"浦东新区","上海市浦东新区浦三路858弄",121.525334122059,31.1878640994469,2022-04-12
"浦东新区","上海市浦东新区浦三路新浦路交界口工地生活区",121.541682743358,31.1762116945041,2022-04-12
"浦东新区","上海市浦东新区浦三路秀浦路交界口工地生活区",121.616024890413,31.1357172383185,2022-04-12
"浦东新区","上海市浦东新区浦兴路1185弄",121.5896261169,31.2815848989426,2022-04-12
"浦东新区","上海市浦东新区普庆路115弄",121.726343364669,31.1605833136041,2022-04-12
"浦东新区","上海市浦东新区七灶村",121.72086397055,31.1440249742615,2022-04-12
"浦东新区","上海市浦东新区栖山路100弄",121.550437449197,31.2475527934367,2022-04-12
"浦东新区","上海市浦东新区栖山路1088弄",121.566094375252,31.2601400552451,2022-04-12
"浦东新区","上海市浦东新区栖山路1460弄",121.572349456179,31.2616772957301,2022-04-12
"浦东新区","上海市浦东新区栖山路1558弄",121.57216036287,31.2630398005953,2022-04-12
"浦东新区","上海市浦东新区栖山路1689弄",121.57390154844,31.2651031982935,2022-04-12
"浦东新区","上海市浦东新区栖山路1899弄",121.580127614099,31.2679922952123,2022-04-12
"浦东新区","上海市浦东新区栖山路400弄",121.557578978001,31.2520178816585,2022-04-12
"浦东新区","上海市浦东新区栖山路401弄",121.556033443371,31.2539878305727,2022-04-12
"浦东新区","上海市浦东新区栖山路465弄",121.557328440594,31.2538809411679,2022-04-12
"浦东新区","上海市浦东新区栖山路友林路交界口工地生活区",121.574151187541,31.2672739647958,2022-04-12
"浦东新区","上海市浦东新区栖霞路190弄",121.526081152921,31.2441861427874,2022-04-12
"浦东新区","上海市浦东新区栖霞路86号",121.524251574089,31.2422432340542,2022-04-12
"浦东新区","上海市浦东新区齐爱路168弄",121.636263803384,31.1944164540822,2022-04-12
"浦东新区","上海市浦东新区齐爱路99弄",121.662474022571,31.2243608980118,2022-04-12
"浦东新区","上海市浦东新区齐河路10弄",121.508225444469,31.1834231367154,2022-04-12
"浦东新区","上海市浦东新区齐河路1179弄",121.526385049675,31.1908589910537,2022-04-12
"浦东新区","上海市浦东新区齐河路28弄",121.536884264815,31.1897022555378,2022-04-12
"浦东新区","上海市浦东新区齐河路438弄",121.514954830705,31.1854956276215,2022-04-12
"浦东新区","上海市浦东新区其成村",121.692090616251,31.1200929335103,2022-04-12
"浦东新区","上海市浦东新区启明村小秦家宅",121.696842023585,31.2844856760084,2022-04-12
"浦东新区","上海市浦东新区启明村庄家宅",121.699185882322,31.2841232959702,2022-04-12
"浦东新区","上海市浦东新区千汇路1000弄",121.771261784237,31.1267973202228,2022-04-12
"浦东新区","上海市浦东新区千汇路1280弄",121.766842749942,31.1140887975279,2022-04-12
"浦东新区","上海市浦东新区千汇路198弄",121.774671033309,31.1118828667661,2022-04-12
"浦东新区","上海市浦东新区千汇路280弄",121.773919960072,31.1148449391051,2022-04-12
"浦东新区","上海市浦东新区千汇路750弄",121.77091009763,31.1228952321347,2022-04-12
"浦东新区","上海市浦东新区前峰村夹路村宅",121.697049262666,31.2767541853208,2022-04-12
"浦东新区","上海市浦东新区前锋村曹黄宅",121.704838559574,31.2766295756821,2022-04-12
"浦东新区","上海市浦东新区前锋村大徐家宅",121.704838559574,31.2766295756821,2022-04-12
"浦东新区","上海市浦东新区前锋村黄家宅",121.704838559574,31.2766295756821,2022-04-12
"浦东新区","上海市浦东新区前锋村陆家宅",121.704838559574,31.2766295756821,2022-04-12
"浦东新区","上海市浦东新区前锋村杨张村",121.701698173342,31.2771696010206,2022-04-12
"浦东新区","上海市浦东新区前进村顾家宅",121.758661702001,31.1245035850386,2022-04-12
"浦东新区","上海市浦东新区前进村南李家宅",121.603576442148,31.2406625262236,2022-04-12
"浦东新区","上海市浦东新区前进村唐家队",121.758661702001,31.1245035850386,2022-04-12
"浦东新区","上海市浦东新区前哨村包家宅",121.764207480898,31.2058888444051,2022-04-12
"浦东新区","上海市浦东新区钱仓路399号",121.527978913142,31.2448800289811,2022-04-12
"浦东新区","上海市浦东新区钱堂村立达宅",121.599518706329,31.1638817454656,2022-04-12
"浦东新区","上海市浦东新区桥北村",121.806711345086,31.0229630803716,2022-04-12
"浦东新区","上海市浦东新区勤奋村卫家宅",121.732101682649,31.2614765761563,2022-04-12
"浦东新区","上海市浦东新区勤奋村徐家宅",121.740394030642,31.2551728670129,2022-04-12
"浦东新区","上海市浦东新区勤奋村张家宅",121.732101682649,31.2614765761563,2022-04-12
"浦东新区","上海市浦东新区勤俭村北杨家宅",121.744404964744,31.2099848375333,2022-04-12
"浦东新区","上海市浦东新区勤俭村程家宅",121.724485848535,30.9897182443517,2022-04-12
"浦东新区","上海市浦东新区勤乐村",121.76096352004,31.0843332039507,2022-04-12
"浦东新区","上海市浦东新区勤星村",121.766872304193,31.1012749714047,2022-04-12
"浦东新区","上海市浦东新区勤益村东顾家宅",121.716810366936,31.2151954706716,2022-04-12
"浦东新区","上海市浦东新区勤益村东周家宅",121.716810366936,31.2151954706716,2022-04-12
"浦东新区","上海市浦东新区勤益村徐家宅",121.628372728462,31.1841257374287,2022-04-12
"浦东新区","上海市浦东新区勤政路88弄",121.630646878691,31.1780795844112,2022-04-12
"浦东新区","上海市浦东新区青三村二村宅",121.727442531291,31.2322569015692,2022-04-12
"浦东新区","上海市浦东新区青三村金家宅",121.728965787944,31.2323260676874,2022-04-12
"浦东新区","上海市浦东新区青四村龚家宅",121.743695932205,31.2340538145526,2022-04-12
"浦东新区","上海市浦东新区青桐路18弄",121.627538741626,31.2237784928285,2022-04-12
"浦东新区","上海市浦东新区清溪路260弄",121.580223283635,31.3489553432852,2022-04-12
"浦东新区","上海市浦东新区清溪路299弄",121.579437445975,31.3479769656591,2022-04-12
"浦东新区","上海市浦东新区清溪路365弄",121.578081633469,31.347103664356,2022-04-12
"浦东新区","上海市浦东新区清溪路400弄",121.577475636572,31.3476508374997,2022-04-12
"浦东新区","上海市浦东新区清溪路430号",121.577138502514,31.3470042060207,2022-04-12
"浦东新区","上海市浦东新区清溪路80弄",121.582110443851,31.3510675707926,2022-04-12
"浦东新区","上海市浦东新区庆丰村",121.723719504105,31.2470521913717,2022-04-12
"浦东新区","上海市浦东新区庆星村顾家宅",121.725707094876,31.2404364439951,2022-04-12
"浦东新区","上海市浦东新区庆星村夏家宅",121.729119308356,31.2388018277518,2022-04-12
"浦东新区","上海市浦东新区庆星村张家宅",121.740482334074,31.2418269684034,2022-04-12
"浦东新区","上海市浦东新区秋岚路251弄",121.599200796009,31.3327799537827,2022-04-12
"浦东新区","上海市浦东新区秋亭路88弄",121.767663980839,31.1028828439709,2022-04-12
"浦东新区","上海市浦东新区秋霞路300弄",121.593594201829,31.340699641535,2022-04-12
"浦东新区","上海市浦东新区人民东路2640弄",121.772453476327,31.0590831570186,2022-04-12
"浦东新区","上海市浦东新区人民东路580号",121.785801038577,31.0555308521255,2022-04-12
"浦东新区","上海市浦东新区人民西路1955弄",121.728803014986,31.0554288408691,2022-04-12
"浦东新区","上海市浦东新区人南村",121.633575534315,31.1452932272884,2022-04-12
"浦东新区","上海市浦东新区仁义村",121.647293378096,31.0643146974948,2022-04-12
"浦东新区","上海市浦东新区日新村北万家宅",121.67504212513,31.269511195913,2022-04-12
"浦东新区","上海市浦东新区日新村龚家宅",121.818680457531,31.0678393737447,2022-04-12
"浦东新区","上海市浦东新区日新村南房宅",121.675610213535,31.2719155828286,2022-04-12
"浦东新区","上海市浦东新区荣成路41弄",121.525004084615,31.2476363812169,2022-04-12
"浦东新区","上海市浦东新区乳山路130弄",121.529822056387,31.2407719007347,2022-04-12
"浦东新区","上海市浦东新区乳山路161弄",121.528018079262,31.2415971840306,2022-04-12
"浦东新区","上海市浦东新区乳山路200弄",121.535521715017,31.2435075340906,2022-04-12
"浦东新区","上海市浦东新区乳山路313弄",121.526396817478,31.2389325085635,2022-04-12
"浦东新区","上海市浦东新区瑞安路211弄",121.597322259526,31.0967757195941,2022-04-12
"浦东新区","上海市浦东新区瑞福路52弄",121.607602647444,31.1017584182868,2022-04-12
"浦东新区","上海市浦东新区瑞和路900弄",121.609397192361,31.0937200759825,2022-04-12
"浦东新区","上海市浦东新区瑞建路88弄",121.599359796084,31.1025420236639,2022-04-12
"浦东新区","上海市浦东新区瑞浦路287弄",121.590850597141,31.1004468290055,2022-04-12
"浦东新区","上海市浦东新区瑞浦路288弄",121.591110297264,31.1018488613834,2022-04-12
"浦东新区","上海市浦东新区瑞浦路611弄",121.592073640093,31.0973300787465,2022-04-12
"浦东新区","上海市浦东新区瑞浦路612弄",121.592520906406,31.0963454338329,2022-04-12
"浦东新区","上海市浦东新区瑞浦路77弄",121.592640920022,31.1039600259099,2022-04-12
"浦东新区","上海市浦东新区瑞浦路8弄",121.550454606832,31.2273482924363,2022-04-12
"浦东新区","上海市浦东新区瑞阳路693弄",121.5976750241,31.0945438710696,2022-04-12
"浦东新区","上海市浦东新区瑞阳路81弄",121.594743853221,31.1053716682663,2022-04-12
"浦东新区","上海市浦东新区瑞意路399弄",121.59268628445,31.1027918607619,2022-04-12
"浦东新区","上海市浦东新区三八村工地生活区",121.894828827476,30.9001927274634,2022-04-12
"浦东新区","上海市浦东新区三彩路166弄",121.525530311983,31.1391594184198,2022-04-12
"浦东新区","上海市浦东新区三彩路52弄",121.525530311983,31.1391594184198,2022-04-12
"浦东新区","上海市浦东新区三岔港村唐家宅",121.517984186377,31.3805087144522,2022-04-12
"浦东新区","上海市浦东新区三吉村",121.731310365325,31.1140732618966,2022-04-12
"浦东新区","上海市浦东新区三林村南行街金家宅",121.506713326804,31.1407565978205,2022-04-12
"浦东新区","上海市浦东新区三林村镇前队洪家新宅",121.504634198701,31.1395246780499,2022-04-12
"浦东新区","上海市浦东新区三林路165号",121.501290885254,31.1424347273433,2022-04-12
"浦东新区","上海市浦东新区三林路184号",121.502530996011,31.1424148693693,2022-04-12
"浦东新区","上海市浦东新区三林路235号",121.502736528311,31.1436912572177,2022-04-12
"浦东新区","上海市浦东新区三林路359弄",121.536884264815,31.1897022555378,2022-04-12
"浦东新区","上海市浦东新区三林路430弄",121.50748703734,31.1447297245097,2022-04-12
"浦东新区","上海市浦东新区三林路675弄",121.511686166446,31.1470469950398,2022-04-12
"浦东新区","上海市浦东新区三林路788弄",121.514306433788,31.1473404454447,2022-04-12
"浦东新区","上海市浦东新区三林镇大陈家宅",121.509097249966,31.1508970872188,2022-04-12
"浦东新区","上海市浦东新区三林镇大瞿家宅",121.532611205165,31.1270776188598,2022-04-12
"浦东新区","上海市浦东新区三林镇红旗村",121.505968092553,31.1333875558612,2022-04-12
"浦东新区","上海市浦东新区三林镇庞家宅",121.482806722267,31.124007039641,2022-04-12
"浦东新区","上海市浦东新区三林镇小陈家宅",121.524726687873,31.1243504097577,2022-04-12
"浦东新区","上海市浦东新区三林镇小金家宅",121.488457692739,31.1299419957814,2022-04-12
"浦东新区","上海市浦东新区三三公路5020弄",121.879902942444,30.9812557067702,2022-04-12
"浦东新区","上海市浦东新区三舒路181弄",121.525530311983,31.1391594184198,2022-04-12
"浦东新区","上海市浦东新区三旋路506弄",121.525530311983,31.1391594184198,2022-04-12
"浦东新区","上海市浦东新区三灶村",121.712526347959,31.0750539581203,2022-04-12
"浦东新区","上海市浦东新区森林村孙家宅",121.752433839731,31.2091805090974,2022-04-12
"浦东新区","上海市浦东新区森林村杨家宅",121.744404964744,31.2099848375333,2022-04-12
"浦东新区","上海市浦东新区沙北村",121.597990958148,31.0571772474828,2022-04-12
"浦东新区","上海市浦东新区商城路1028弄",121.532816917127,31.2375437164926,2022-04-12
"浦东新区","上海市浦东新区商城路108弄",121.515923024384,31.2338968041146,2022-04-12
"浦东新区","上海市浦东新区商城路1177弄",121.533303080069,31.2409195599813,2022-04-12
"浦东新区","上海市浦东新区商城路1266号工地生活区",121.536858842769,31.2416091479605,2022-04-12
"浦东新区","上海市浦东新区商城路341号",121.517845218514,31.235682492829,2022-04-12
"浦东新区","上海市浦东新区商城路918弄",121.528749479608,31.2378278524308,2022-04-12
"浦东新区","上海市浦东新区商城路930号",121.529461207064,31.2383585305255,2022-04-12
"浦东新区","上海市浦东新区上川路620号",121.654460957761,31.2797095840184,2022-04-12
"浦东新区","上海市浦东新区上南路1000弄",121.50066746123,31.1805938353858,2022-04-12
"浦东新区","上海市浦东新区上南路1251弄",121.502606274012,31.1785212361064,2022-04-12
"浦东新区","上海市浦东新区上南路1500弄",121.502331302696,31.1749569131774,2022-04-12
"浦东新区","上海市浦东新区上南路1551弄",121.504524605429,31.1745415069555,2022-04-12
"浦东新区","上海市浦东新区上南路3058弄",121.503515898172,31.166831594976,2022-04-12
"浦东新区","上海市浦东新区上南路3339弄",121.513109172205,31.1658360910049,2022-04-12
"浦东新区","上海市浦东新区上南路3827弄",121.513376418094,31.1574412866063,2022-04-12
"浦东新区","上海市浦东新区上南路3848弄",121.511836003805,31.1560752357101,2022-04-12
"浦东新区","上海市浦东新区上南路3880弄",121.512285965035,31.1550669472926,2022-04-12
"浦东新区","上海市浦东新区上南路5588号",121.534100685531,31.1291441675857,2022-04-12
"浦东新区","上海市浦东新区上南路6500弄",121.584859707864,31.1200779398788,2022-04-12
"浦东新区","上海市浦东新区上南路6869弄",121.571807867787,31.1245453952005,2022-04-12
"浦东新区","上海市浦东新区上南路929弄",121.507678825566,31.1860937173936,2022-04-12
"浦东新区","上海市浦东新区上南路东明路交界口工地生活区",121.524156982519,31.16133938991,2022-04-12
"浦东新区","上海市浦东新区上浦路201弄",121.499808681163,31.1514553764919,2022-04-12
"浦东新区","上海市浦东新区上浦路202弄",121.498717239968,31.1501399996292,2022-04-12
"浦东新区","上海市浦东新区上浦路276弄",121.525530311983,31.1391594184198,2022-04-12
"浦东新区","上海市浦东新区上浦路510弄",121.506222941826,31.1521017393601,2022-04-12
"浦东新区","上海市浦东新区上浦路69弄",121.496511810111,31.1516762652833,2022-04-12
"浦东新区","上海市浦东新区尚博路799弄",121.530770397514,31.1561646994414,2022-04-12
"浦东新区","上海市浦东新区申江路985弄",121.633735163204,31.2928244259128,2022-04-12
"浦东新区","上海市浦东新区申江路轲桥路交界口工地生活区",121.636677742563,31.2908116312254,2022-04-12
"浦东新区","上海市浦东新区申江南路5550号",121.651746727662,31.0715253762937,2022-04-12
"浦东新区","上海市浦东新区沈家弄路900弄",121.551370339469,31.2449460212264,2022-04-12
"浦东新区","上海市浦东新区沈家弄路901弄",121.552898267311,31.2449719550083,2022-04-12
"浦东新区","上海市浦东新区沈家弄路936号",121.553671079541,31.2460098406675,2022-04-12
"浦东新区","上海市浦东新区沈梅东路300弄",121.599445314769,31.0976181184832,2022-04-12
"浦东新区","上海市浦东新区沈西村梅林施家宅",121.566525022914,31.0982124392316,2022-04-12
"浦东新区","上海市浦东新区沈庄村",121.589114801404,31.0850414945296,2022-04-12
"浦东新区","上海市浦东新区胜利路169弄",121.694494032643,31.2515858379485,2022-04-12
"浦东新区","上海市浦东新区盛苑路800弄",121.539763962788,31.162400837526,2022-04-12
"浦东新区","上海市浦东新区盛朱村",121.704742530715,31.2749675063931,2022-04-12
"浦东新区","上海市浦东新区施湾二路1026弄",121.755632525991,31.1472254760431,2022-04-12
"浦东新区","上海市浦东新区施湾三路1106弄",121.758679578281,31.14561635323,2022-04-12
"浦东新区","上海市浦东新区世博家园大道站路94弄",121.545610314708,31.1654593463491,2022-04-12
"浦东新区","上海市浦东新区世纪大道1952号工地生活区",121.508760291976,31.2425085431993,2022-04-12
"浦东新区","上海市浦东新区世纪大道杨高南路交界口工地生活区",121.541837162075,31.2239095034302,2022-04-12
"浦东新区","上海市浦东新区寿光路161弄",121.590525320716,31.2803961854226,2022-04-12
"浦东新区","上海市浦东新区寿光路31弄",121.589460469364,31.2787974510506,2022-04-12
"浦东新区","上海市浦东新区寿光路75弄",121.589577991099,31.2796470691226,2022-04-12
"浦东新区","上海市浦东新区寿光路78弄",121.592102026547,31.2793908554345,2022-04-12
"浦东新区","上海市浦东新区寿光路81弄",121.591060261647,31.2795414627344,2022-04-12
"浦东新区","上海市浦东新区曙光村小秦家宅",121.696842023585,31.2844856760084,2022-04-12
"浦东新区","上海市浦东新区双桥路218弄",121.5896261169,31.2815848989426,2022-04-12
"浦东新区","上海市浦东新区双桥路220弄",121.5896261169,31.2815848989426,2022-04-12
"浦东新区","上海市浦东新区水洞港路69弄",121.672470006963,31.3016768591264,2022-04-12
"浦东新区","上海市浦东新区顺和路126弄",121.633712076752,31.1916158272345,2022-04-12
"浦东新区","上海市浦东新区思浦路11弄",121.500416923824,31.16443161446,2022-04-12
"浦东新区","上海市浦东新区思浦路13弄",121.500159469464,31.1649102558777,2022-04-12
"浦东新区","上海市浦东新区思浦路17弄",121.499381626723,31.1638258159296,2022-04-12
"浦东新区","上海市浦东新区思学路165弄",121.5896261169,31.2815848989426,2022-04-12
"浦东新区","上海市浦东新区思学路55弄",121.585237624992,31.3047120744692,2022-04-12
"浦东新区","上海市浦东新区四墩村",121.783682205371,31.0207668512002,2022-04-12
"浦东新区","上海市浦东新区松林路95弄",121.536630493508,31.2392448913114,2022-04-12
"浦东新区","上海市浦东新区孙环路366弄",121.6452495534,31.1862322722534,2022-04-12
"浦东新区","上海市浦东新区孙桥路306号",121.637248525884,31.1857083268233,2022-04-12
"浦东新区","上海市浦东新区孙耀路111弄",121.642711660673,31.1925380006909,2022-04-12
"浦东新区","上海市浦东新区台儿庄路363弄",121.600337960954,31.264978881782,2022-04-12
"浦东新区","上海市浦东新区谈弄村",121.56382300977,31.0616364770888,2022-04-12
"浦东新区","上海市浦东新区檀香村",121.60726299813,31.0110244377993,2022-04-12
"浦东新区","上海市浦东新区坦北村",121.651215559614,31.0897996061926,2022-04-12
"浦东新区","上海市浦东新区坦南村",121.65884962933,31.0724938878595,2022-04-12
"浦东新区","上海市浦东新区汤店村",121.727230171868,31.134640033963,2022-04-12
"浦东新区","上海市浦东新区汤巷村",121.610593825131,31.1445646831543,2022-04-12
"浦东新区","上海市浦东新区唐家新村",121.646853789241,31.2060569952943,2022-04-12
"浦东新区","上海市浦东新区唐龙路115号",121.647137971243,31.2221468280423,2022-04-12
"浦东新区","上海市浦东新区唐龙路73号",121.646302996272,31.2221478316774,2022-04-12
"浦东新区","上海市浦东新区唐四村费家宅",121.666776995794,31.2184358524245,2022-04-12
"浦东新区","上海市浦东新区唐四村龚家宅",121.667689494531,31.2210198162809,2022-04-12
"浦东新区","上海市浦东新区唐四村孙家老宅",121.594180974988,31.1490328281933,2022-04-12
"浦东新区","上海市浦东新区唐兴路373弄",121.659967570537,31.2116570958518,2022-04-12
"浦东新区","上海市浦东新区唐镇包家宅",121.654887203725,31.2451490146246,2022-04-12
"浦东新区","上海市浦东新区唐镇路127弄",121.656604943521,31.2133554984813,2022-04-12
"浦东新区","上海市浦东新区塘路村",121.797201613465,31.0679925637511,2022-04-12
"浦东新区","上海市浦东新区塘桥路551号",121.527653007903,31.2169058534111,2022-04-12
"浦东新区","上海市浦东新区桃林路299号",121.54468775495,31.2458762367864,2022-04-12
"浦东新区","上海市浦东新区桃园村",121.873269585067,30.9887199367047,2022-04-12
"浦东新区","上海市浦东新区天花庵村北陈队大陈家宅",121.582591396621,31.1611810215142,2022-04-12
"浦东新区","上海市浦东新区天花庵村东瞿队大瞿家宅",121.532611205165,31.1270776188598,2022-04-12
"浦东新区","上海市浦东新区天花庵村芦家队芦家油车",121.533159710509,31.1300725193346,2022-04-12
"浦东新区","上海市浦东新区天花庵村闵北队闵家宅",121.539890174712,31.126238497919,2022-04-12
"浦东新区","上海市浦东新区天花庵村闵西队闵家宅",121.539890174712,31.126238497919,2022-04-12
"浦东新区","上海市浦东新区天花庵村南陈队大陈家宅",121.582591396621,31.1611810215142,2022-04-12
"浦东新区","上海市浦东新区天花庵村南王家队南王家宅",121.55380142367,31.1628451123625,2022-04-12
"浦东新区","上海市浦东新区天花庵村南周家队大周家宅",121.531939542135,31.1285359001772,2022-04-12
"浦东新区","上海市浦东新区天花庵村西瞿队大瞿家宅",121.532611205165,31.1270776188598,2022-04-12
"浦东新区","上海市浦东新区听谐路86弄",121.757289001352,31.0625718367426,2022-04-12
"浦东新区","上海市浦东新区听悦路1101弄",121.743429135469,31.0686067132076,2022-04-12
"浦东新区","上海市浦东新区听悦路1353弄",121.744964070094,31.0717691869699,2022-04-12
"浦东新区","上海市浦东新区听云路233弄",121.774859587635,31.0609104552718,2022-04-12
"浦东新区","上海市浦东新区通济路328弄",121.752532473676,31.0577488542489,2022-04-12
"浦东新区","上海市浦东新区瓦南村",121.659544468641,31.1047808712322,2022-04-12
"浦东新区","上海市浦东新区晚霞路715弄",121.760628991068,31.184636677841,2022-04-12
"浦东新区","上海市浦东新区万德路52弄",121.565303147759,31.255246569532,2022-04-12
"浦东新区","上海市浦东新区万六村",121.825190477562,30.974499234353,2022-04-12
"浦东新区","上海市浦东新区万一村",121.830318813888,30.9603269458143,2022-04-12
"浦东新区","上海市浦东新区王楼村",121.624150692565,31.0742551228397,2022-04-12
"浦东新区","上海市浦东新区王桥村",121.701828427641,31.21255135342,2022-04-12
"浦东新区","上海市浦东新区望楼三村包家宅",121.769942981918,31.1592943312141,2022-04-12
"浦东新区","上海市浦东新区微山二村",121.519896858468,31.2144186734285,2022-04-12
"浦东新区","上海市浦东新区潍坊路126弄",121.53066547543,31.2296456116188,2022-04-12
"浦东新区","上海市浦东新区潍坊路154弄",121.532304344003,31.2313464668942,2022-04-12
"浦东新区","上海市浦东新区潍坊路606号",121.528018797906,31.2292048956976,2022-04-12
"浦东新区","上海市浦东新区潍坊路716号",121.528397793001,31.229747279369,2022-04-12
"浦东新区","上海市浦东新区潍坊西路1弄",121.550454606832,31.2273482924363,2022-04-12
"浦东新区","上海市浦东新区卫民村",121.747808195169,31.1040113531087,2022-04-12
"浦东新区","上海市浦东新区卫行村王家宅",121.59502735844,31.1638725526298,2022-04-12
"浦东新区","上海市浦东新区卫行村张浜队曹家宅",121.587201410668,31.1666652020159,2022-04-12
"浦东新区","上海市浦东新区卫行村张浜队王家宅",121.59502735844,31.1638725526298,2022-04-12
"浦东新区","上海市浦东新区卫行村张浜队杨家宅",121.587201410668,31.1666652020159,2022-04-12
"浦东新区","上海市浦东新区卫行村朱家队朱家宅",121.587201410668,31.1666652020159,2022-04-12
"浦东新区","上海市浦东新区文化路26弄",121.774859587635,31.0609104552718,2022-04-12
"浦东新区","上海市浦东新区吴店村北朱家宅",121.805643978479,30.942819291076,2022-04-12
"浦东新区","上海市浦东新区五莲路100弄",121.585797359155,31.2816781004793,2022-04-12
"浦东新区","上海市浦东新区五莲路1047弄",121.601390415689,31.2777458097831,2022-04-12
"浦东新区","上海市浦东新区五莲路108弄",121.588773624971,31.2771578731139,2022-04-12
"浦东新区","上海市浦东新区五莲路1168号",121.602929392689,31.2784563440545,2022-04-12
"浦东新区","上海市浦东新区五莲路1728弄",121.605773877086,31.2879444559569,2022-04-12
"浦东新区","上海市浦东新区五莲路1769弄",121.60380012022,31.290088693223,2022-04-12
"浦东新区","上海市浦东新区五莲路30弄",121.584500744982,31.2815552719446,2022-04-12
"浦东新区","上海市浦东新区五莲路400弄",121.587997039858,31.2780022786352,2022-04-12
"浦东新区","上海市浦东新区五莲路593弄",121.593416966152,31.2756029093837,2022-04-12
"浦东新区","上海市浦东新区五莲路758弄",121.597115379767,31.2759334561154,2022-04-12
"浦东新区","上海市浦东新区五莲路759弄",121.597702871571,31.2763872229612,2022-04-12
"浦东新区","上海市浦东新区五莲路959弄",121.598657680497,31.2773239154459,2022-04-12
"浦东新区","上海市浦东新区五四村沈家宅",121.658040076404,31.2603987332248,2022-04-12
"浦东新区","上海市浦东新区五四村沈孙家宅",121.658040076404,31.2603987332248,2022-04-12
"浦东新区","上海市浦东新区五四村唐朱家宅",121.668338969415,31.2583088385362,2022-04-12
"浦东新区","上海市浦东新区五星村陈家队陈家宅",121.578579474383,31.194413133383,2022-04-12
"浦东新区","上海市浦东新区五星村家务队顾家宅",121.57836549801,31.1799884502015,2022-04-12
"浦东新区","上海市浦东新区五星村三联队黄家宅",121.57836549801,31.1799884502015,2022-04-12
"浦东新区","上海市浦东新区五星村吴家队吴家宅",121.522180979889,31.1256048631317,2022-04-12
"浦东新区","上海市浦东新区西柴场",121.67746314831,31.3033290423911,2022-04-12
"浦东新区","上海市浦东新区西林村洪家队洪家新宅",121.504634198701,31.1395246780499,2022-04-12
"浦东新区","上海市浦东新区西林村圈门队王家沙",121.505050473475,31.1424654028824,2022-04-12
"浦东新区","上海市浦东新区西林村圈门队西林街",121.505050473475,31.1424654028824,2022-04-12
"浦东新区","上海市浦东新区西林村圈门队叶家宅",121.505050473475,31.1424654028824,2022-04-12
"浦东新区","上海市浦东新区西林村西林队金家宅",121.506713326804,31.1407565978205,2022-04-12
"浦东新区","上海市浦东新区西林街241弄",121.503058930159,31.1394971696525,2022-04-12
"浦东新区","上海市浦东新区西门村",121.748019117303,31.0603939308044,2022-04-12
"浦东新区","上海市浦东新区西门路113弄",121.753914247212,31.0502395782092,2022-04-12
"浦东新区","上海市浦东新区西门路369号",121.754058604907,31.0556837527936,2022-04-12
"浦东新区","上海市浦东新区西泥路153弄",121.709255707428,31.2036371957282,2022-04-12
"浦东新区","上海市浦东新区西泰林路750弄",121.544512854867,31.1490233248509,2022-04-12
"浦东新区","上海市浦东新区西泰林路850弄",121.546822039011,31.1487391512895,2022-04-12
"浦东新区","上海市浦东新区西泰林路901弄",121.54507097208,31.1494599367676,2022-04-12
"浦东新区","上海市浦东新区西新村草镇",121.536259223841,31.3635495279183,2022-04-12
"浦东新区","上海市浦东新区西新村尖角圩",121.523275744814,31.3619537605392,2022-04-12
"浦东新区","上海市浦东新区西营路170弄",121.489786017096,31.1721608802115,2022-04-12
"浦东新区","上海市浦东新区西营路33弄",121.490422736042,31.1765666914554,2022-04-12
"浦东新区","上海市浦东新区西营路44弄",121.488083907816,31.1744900638108,2022-04-12
"浦东新区","上海市浦东新区西营南路11弄",121.492535011618,31.1670638802906,2022-04-12
"浦东新区","上海市浦东新区西营南路18弄",121.49313364241,31.1654734829916,2022-04-12
"浦东新区","上海市浦东新区西营南路518弄",121.495843021658,31.1589028818728,2022-04-12
"浦东新区","上海市浦东新区西营南路68弄",121.525530311983,31.1391594184198,2022-04-12
"浦东新区","上海市浦东新区溪平路425弄",121.692846989491,31.2677558617909,2022-04-12
"浦东新区","上海市浦东新区霞光路368弄",121.809841760127,30.9069624078753,2022-04-12
"浦东新区","上海市浦东新区霞玉路436弄",121.696086997804,31.2622910273004,2022-04-12
"浦东新区","上海市浦东新区下南路1071弄",121.541526977182,31.1913899354429,2022-04-12
"浦东新区","上海市浦东新区下南路115弄",121.550203620272,31.1724023443283,2022-04-12
"浦东新区","上海市浦东新区下南路161弄",121.549904215046,31.1727314791562,2022-04-12
"浦东新区","上海市浦东新区下南路225弄",121.552785889291,31.1753995837175,2022-04-12
"浦东新区","上海市浦东新区下南路276弄",121.536884264815,31.1897022555378,2022-04-12
"浦东新区","上海市浦东新区下南路320弄",121.547891741212,31.1755488136572,2022-04-12
"浦东新区","上海市浦东新区下南路370弄",121.536884264815,31.1897022555378,2022-04-12
"浦东新区","上海市浦东新区下南路526弄",121.544402003967,31.1780418917603,2022-04-12
"浦东新区","上海市浦东新区夏碧路79弄",121.596205845438,31.3449369134913,2022-04-12
"浦东新区","上海市浦东新区先锋村卢家宅",121.70936539053,31.1152777680992,2022-04-12
"浦东新区","上海市浦东新区先锋村西周家宅",121.638734413028,31.1175091245204,2022-04-12
"浦东新区","上海市浦东新区先锋村杨树园",121.639655984651,31.3120842228244,2022-04-12
"浦东新区","上海市浦东新区祥安路228弄",121.817149295789,30.9688076912297,2022-04-12
"浦东新区","上海市浦东新区祥安路36弄",121.821194455331,30.9666463539506,2022-04-12
"浦东新区","上海市浦东新区向东村顾家宅",121.750008504685,31.2419070879143,2022-04-12
"浦东新区","上海市浦东新区小包新村包家宅",121.654887203725,31.2451490146246,2022-04-12
"浦东新区","上海市浦东新区小湾村第二新村",121.695242321133,31.2385587594127,2022-04-12
"浦东新区","上海市浦东新区小湾村东张家宅",121.691947606014,31.2362337931142,2022-04-12
"浦东新区","上海市浦东新区小湾村顾家宅",121.696076936782,31.2397902271145,2022-04-12
"浦东新区","上海市浦东新区小湾村奚家宅",121.710332613302,31.2353445551168,2022-04-12
"浦东新区","上海市浦东新区新浜村鲍家宅",121.758057771207,31.1276564518324,2022-04-12
"浦东新区","上海市浦东新区新浜村陈家宅",121.738244295726,31.1345417403823,2022-04-12
"浦东新区","上海市浦东新区新浜村储家宅",121.74667525226,31.1302721296044,2022-04-12
"浦东新区","上海市浦东新区新浜村乔家宅",121.073664584523,30.9310233891171,2022-04-12
"浦东新区","上海市浦东新区新北村",121.866274120739,30.9454950771669,2022-04-12
"浦东新区","上海市浦东新区新场镇果园村",121.642441899529,31.025361102765,2022-04-12
"浦东新区","上海市浦东新区新陈路150弄",121.536884264815,31.1897022555378,2022-04-12
"浦东新区","上海市浦东新区新陈路428弄",121.571837332208,31.1861656207494,2022-04-12
"浦东新区","上海市浦东新区新川路190弄",121.712521946262,31.2012610917132,2022-04-12
"浦东新区","上海市浦东新区新川路742弄",121.698304195464,31.1972881970345,2022-04-12
"浦东新区","上海市浦东新区新川路922弄",121.694525473336,31.1967990640424,2022-04-12
"浦东新区","上海市浦东新区新春村陈桥队陈家桥",121.482444895587,31.1340229536591,2022-04-12
"浦东新区","上海市浦东新区新春村汤顾家宅",121.696256508054,31.1651342802342,2022-04-12
"浦东新区","上海市浦东新区新春村张陈家宅",121.579432774787,31.2724251567548,2022-04-12
"浦东新区","上海市浦东新区新村路59弄",121.503186399711,31.1700145566784,2022-04-12
"浦东新区","上海市浦东新区新德路341弄",121.705113980043,31.2035723326185,2022-04-12
"浦东新区","上海市浦东新区新德路361号",121.70435051019,31.2036387400874,2022-04-12
"浦东新区","上海市浦东新区新德路365弄",121.704561252663,31.2031656244534,2022-04-12
"浦东新区","上海市浦东新区新德路506弄",121.699537928251,31.2032561243156,2022-04-12
"浦东新区","上海市浦东新区新德西路207弄",121.680140008899,31.1975838841804,2022-04-12
"浦东新区","上海市浦东新区新德西路508弄",121.676387607123,31.198096102614,2022-04-12
"浦东新区","上海市浦东新区新光村姜薛家宅",121.668889540862,31.2677748443918,2022-04-12
"浦东新区","上海市浦东新区新光村陆家宅",121.666333322703,31.2663713561625,2022-04-12
"浦东新区","上海市浦东新区新光村沈家旗杆",121.665433310412,31.2614243318905,2022-04-12
"浦东新区","上海市浦东新区新光村杨家圈",121.666333322703,31.2663713561625,2022-04-12
"浦东新区","上海市浦东新区新虹村东包家宅",121.654887203725,31.2451490146246,2022-04-12
"浦东新区","上海市浦东新区新虹村刘家宅",121.655033627523,31.2487133679639,2022-04-12
"浦东新区","上海市浦东新区新虹村陆家宅",121.655033627523,31.2487133679639,2022-04-12
"浦东新区","上海市浦东新区新虹村瞿家宅",121.655033627523,31.2487133679639,2022-04-12
"浦东新区","上海市浦东新区新虹村张家宅",121.641939387426,31.3298699592958,2022-04-12
"浦东新区","上海市浦东新区新华村强顾家宅",121.667109279002,31.2712149527223,2022-04-12
"浦东新区","上海市浦东新区新华路25号",121.428590571179,31.2110211038142,2022-04-12
"浦东新区","上海市浦东新区新环西路1000弄",121.645105644857,31.0347522286138,2022-04-12
"浦东新区","上海市浦东新区新环西路58弄",121.650009584467,31.0214823507874,2022-04-12
"浦东新区","上海市浦东新区新吉村",121.725028425063,31.1167471303745,2022-04-12
"浦东新区","上海市浦东新区新龙路203弄",121.63662186796,31.3203509429906,2022-04-12
"浦东新区","上海市浦东新区新龙路389弄",121.652778790863,31.290487771739,2022-04-12
"浦东新区","上海市浦东新区新龙路489弄",121.652778790863,31.290487771739,2022-04-12
"浦东新区","上海市浦东新区新龙路69弄",121.634390027921,31.3235124885829,2022-04-12
"浦东新区","上海市浦东新区新苗村",121.643903173102,31.1277161896651,2022-04-12
"浦东新区","上海市浦东新区新庙村",121.7462531385,31.1745517028908,2022-04-12
"浦东新区","上海市浦东新区新民村",121.813512326271,31.0333135348207,2022-04-12
"浦东新区","上海市浦东新区新农村沈家宅",121.558501268268,31.3625522632348,2022-04-12
"浦东新区","上海市浦东新区新浦路199弄",121.545245782332,31.1712264561122,2022-04-12
"浦东新区","上海市浦东新区新浦路346弄",121.541876328195,31.1775466336355,2022-04-12
"浦东新区","上海市浦东新区新浦路543弄",121.536926664835,31.1758010055361,2022-04-12
"浦东新区","上海市浦东新区新浦路673弄",121.536884264815,31.1897022555378,2022-04-12
"浦东新区","上海市浦东新区新浦路91弄",121.54575575037,31.1700380393581,2022-04-12
"浦东新区","上海市浦东新区新生村金家宅",121.593249522005,31.1310947543661,2022-04-12
"浦东新区","上海市浦东新区新生村陆家宅",121.748521809066,31.182988845436,2022-04-12
"浦东新区","上海市浦东新区新生村徐唐家宅",121.746237687646,31.1872706548591,2022-04-12
"浦东新区","上海市浦东新区新生村叶家宅",121.748521809066,31.182988845436,2022-04-12
"浦东新区","上海市浦东新区新西村",121.640340403619,31.0242611270328,2022-04-12
"浦东新区","上海市浦东新区新星村胡家宅",121.708279428999,31.2618387353821,2022-04-12
"浦东新区","上海市浦东新区新星村黄家圈",121.711425654217,31.2629941165674,2022-04-12
"浦东新区","上海市浦东新区新兴村",121.732209569141,31.0990814178426,2022-04-12
"浦东新区","上海市浦东新区新雅东路51弄",121.693518572146,31.2438690195239,2022-04-12
"浦东新区","上海市浦东新区新一村",121.798511073407,31.1742425801794,2022-04-12
"浦东新区","上海市浦东新区新营村张刘家宅",121.75788215248,31.2022478798707,2022-04-12
"浦东新区","上海市浦东新区新园路251弄",121.652778790863,31.290487771739,2022-04-12
"浦东新区","上海市浦东新区新园路288弄",121.652778790863,31.290487771739,2022-04-12
"浦东新区","上海市浦东新区新园路32弄",121.635502758956,31.324576801349,2022-04-12
"浦东新区","上海市浦东新区新园路436弄",121.652778790863,31.290487771739,2022-04-12
"浦东新区","上海市浦东新区新园路439弄",121.641715080541,31.3196897002137,2022-04-12
"浦东新区","上海市浦东新区新园路50弄",121.636363605126,31.3244415361298,2022-04-12
"浦东新区","上海市浦东新区新镇村陈家宅",121.740394030642,31.2551728670129,2022-04-12
"浦东新区","上海市浦东新区新镇村石家观音堂",121.488082021374,31.1321938687201,2022-04-12
"浦东新区","上海市浦东新区星光村",121.755200800363,31.1255442738515,2022-04-12
"浦东新区","上海市浦东新区星火村陆家村宅",121.71170161367,31.2591670739033,2022-04-12
"浦东新区","上海市浦东新区行南路1150弄",121.591471326248,31.3367516407738,2022-04-12
"浦东新区","上海市浦东新区行南路349弄",121.593356779683,31.3312557594008,2022-04-12
"浦东新区","上海市浦东新区行南路900弄",121.592957033731,31.3358871017378,2022-04-12
"浦东新区","上海市浦东新区兴城路18弄",121.602371275476,31.0355382483563,2022-04-12
"浦东新区","上海市浦东新区秀龙村",121.569139900423,31.1326056758834,2022-04-12
"浦东新区","上海市浦东新区秀浦路788弄",121.580855331392,31.1330577420922,2022-04-12
"浦东新区","上海市浦东新区秀浦路800弄",121.584859707864,31.1200779398788,2022-04-12
"浦东新区","上海市浦东新区秀浦路886弄",121.574563240278,31.1321064686189,2022-04-12
"浦东新区","上海市浦东新区秀浦路99号工地生活区",121.552319039918,31.1299128617249,2022-04-12
"浦东新区","上海市浦东新区秀沿路2501弄",121.607210087936,31.1446754834221,2022-04-12
"浦东新区","上海市浦东新区秀沿路2547弄",121.584859707864,31.1200779398788,2022-04-12
"浦东新区","上海市浦东新区秀沿路2585弄",121.584859707864,31.1200779398788,2022-04-12
"浦东新区","上海市浦东新区秀沿路2875弄",121.616066481959,31.1449302308223,2022-04-12
"浦东新区","上海市浦东新区秀沿路3668号",121.623371502366,31.1432968066237,2022-04-12
"浦东新区","上海市浦东新区秀沿路505弄",121.568278874591,31.1419436855484,2022-04-12
"浦东新区","上海市浦东新区秀沿西路218弄",121.540521863147,31.1357646072078,2022-04-12
"浦东新区","上海市浦东新区秀沿西路258弄",121.538346257032,31.1354788480318,2022-04-12
"浦东新区","上海市浦东新区徐路村",121.655237093721,31.3188120462716,2022-04-12
"浦东新区","上海市浦东新区徐庙村",121.721202721558,31.0362185164271,2022-04-12
"浦东新区","上海市浦东新区宣镇东路625弄",121.706413289133,31.0270200164429,2022-04-12
"浦东新区","上海市浦东新区宣镇东路628弄",121.707874203384,31.0263214241633,2022-04-12
"浦东新区","上海市浦东新区宣治村",121.692875375945,31.0232159912098,2022-04-12
"浦东新区","上海市浦东新区薛洪村",121.8217583217,31.1005153966593,2022-04-12
"浦东新区","上海市浦东新区学前二村",121.590492532564,31.3525874321299,2022-04-12
"浦东新区","上海市浦东新区雪野二路296号工地生活区",121.481863055784,31.1831820039776,2022-04-12
"浦东新区","上海市浦东新区雪野路34弄",121.503822310181,31.1865529402405,2022-04-12
"浦东新区","上海市浦东新区迅建村蔡家宅",121.697148794917,31.2892028145954,2022-04-12
"浦东新区","上海市浦东新区迅建村撑圩村",121.699485287548,31.2867503457957,2022-04-12
"浦东新区","上海市浦东新区迅建村黄家宅",121.699225138273,31.2840908923215,2022-04-12
"浦东新区","上海市浦东新区迅建村季家厅",121.693190591348,31.2857348232436,2022-04-12
"浦东新区","上海市浦东新区迅建村南黄家宅",121.723999505932,31.0688946088856,2022-04-12
"浦东新区","上海市浦东新区严民路40弄",121.535360828501,31.1982091563279,2022-04-12
"浦东新区","上海市浦东新区严木桥路198弄",121.81422459271,30.9633108150302,2022-04-12
"浦东新区","上海市浦东新区严杨路166弄",121.536194994997,31.2003668807737,2022-04-12
"浦东新区","上海市浦东新区严镇路96弄",121.535558455713,31.1968113425936,2022-04-12
"浦东新区","上海市浦东新区严中路140弄",121.536105883091,31.1992723487879,2022-04-12
"浦东新区","上海市浦东新区严中路300弄",121.538876616606,31.1961560209361,2022-04-12
"浦东新区","上海市浦东新区沿北村",121.608678997106,31.1451966447131,2022-04-12
"浦东新区","上海市浦东新区沿南村",121.605619727861,31.1386417781057,2022-04-12
"浦东新区","上海市浦东新区盐大路2585弄",121.807048479144,31.0645480869682,2022-04-12
"浦东新区","上海市浦东新区杨高北路3839弄",121.614513311732,31.2915598673188,2022-04-12
"浦东新区","上海市浦东新区杨高北路3885弄",121.614215972608,31.2898991438308,2022-04-12
"浦东新区","上海市浦东新区杨高北路5291弄",121.61256156335,31.2706103849656,2022-04-12
"浦东新区","上海市浦东新区杨高南路1126号",121.536611988415,31.2124888900147,2022-04-12
"浦东新区","上海市浦东新区杨高南路1号工地生活区",121.535542376044,31.2017154526193,2022-04-12
"浦东新区","上海市浦东新区杨高南路2030弄",121.52893228478,31.1967108746521,2022-04-12
"浦东新区","上海市浦东新区杨高南路3225号工地生活区",121.528783525387,31.1749822484174,2022-04-12
"浦东新区","上海市浦东新区杨高南路3340弄",121.525618435753,31.1742592644897,2022-04-12
"浦东新区","上海市浦东新区杨高南路5055弄",121.537526104102,31.1561531881371,2022-04-12
"浦东新区","上海市浦东新区杨高南路5135弄",121.538543614753,31.1545496264648,2022-04-12
"浦东新区","上海市浦东新区杨高中路10弄",121.606373585845,31.2634200112248,2022-04-12
"浦东新区","上海市浦东新区杨高中路266弄",121.602750360401,31.2583311414883,2022-04-12
"浦东新区","上海市浦东新区杨莲路160弄",121.536884264815,31.1897022555378,2022-04-12
"浦东新区","上海市浦东新区杨莲路310弄",121.536884264815,31.1897022555378,2022-04-12
"浦东新区","上海市浦东新区杨莲路鹏岳路交界口工地生活区",121.560464335299,31.178550046122,2022-04-12
"浦东新区","上海市浦东新区杨南路689弄",121.507104628684,31.1569177210953,2022-04-12
"浦东新区","上海市浦东新区杨南路797弄",121.509163634744,31.1581701943276,2022-04-12
"浦东新区","上海市浦东新区杨南路826弄",121.509042992314,31.156750615242,2022-04-12
"浦东新区","上海市浦东新区杨桥村蒋家队北季家宅",121.578761021926,31.1993098784582,2022-04-12
"浦东新区","上海市浦东新区杨桥村西计队西计家宅",121.72155521664,31.1013705942103,2022-04-12
"浦东新区","上海市浦东新区杨桥村郑家队郑家宅",121.573967484064,31.20317558562,2022-04-12
"浦东新区","上海市浦东新区杨思路1121弄",121.512446312569,31.1707936532361,2022-04-12
"浦东新区","上海市浦东新区杨思路502弄",121.501390507335,31.1651814797804,2022-04-12
"浦东新区","上海市浦东新区杨思路860弄",121.536884264815,31.1897022555378,2022-04-12
"浦东新区","上海市浦东新区杨思新村",121.600645630591,31.2244171774298,2022-04-12
"浦东新区","上海市浦东新区杨新路238弄",121.496121855689,31.1683318219811,2022-04-12
"浦东新区","上海市浦东新区杨新路282弄",121.494152859841,31.1673540236933,2022-04-12
"浦东新区","上海市浦东新区杨新路80弄",121.500333510246,31.1696131563215,2022-04-12
"浦东新区","上海市浦东新区杨园村卢家宅",121.591521541526,31.2903783011154,2022-04-12
"浦东新区","上海市浦东新区杨张村",121.701698173342,31.2771696010206,2022-04-12
"浦东新区","上海市浦东新区洋泾镇路61号工地生活区",121.556520055466,31.2476079011783,2022-04-12
"浦东新区","上海市浦东新区姚桥村",121.604918420749,31.1203519983522,2022-04-12
"浦东新区","上海市浦东新区窑墩村",121.65713790818,31.1175088926537,2022-04-12
"浦东新区","上海市浦东新区药师村曹家宅",121.688302012763,31.209451836559,2022-04-12
"浦东新区","上海市浦东新区药师村周家宅",121.688302012763,31.209451836559,2022-04-12
"浦东新区","上海市浦东新区耀华路331弄",121.493188888199,31.1809682021446,2022-04-12
"浦东新区","上海市浦东新区耀华路400弄",121.491561158615,31.1795851153661,2022-04-12
"浦东新区","上海市浦东新区耀华路414弄",121.492226982658,31.1790527910542,2022-04-12
"浦东新区","上海市浦东新区耀华路421弄",121.489669776363,31.1813858197461,2022-04-12
"浦东新区","上海市浦东新区耀华路550弄",121.487451231245,31.1759876966065,2022-04-12
"浦东新区","上海市浦东新区耀华路560号",121.488000006081,31.1774534827976,2022-04-12
"浦东新区","上海市浦东新区耀华路85弄",121.496197493013,31.1829068990877,2022-04-12
"浦东新区","上海市浦东新区耀华路87弄",121.496691830535,31.1842585026529,2022-04-12
"浦东新区","上海市浦东新区耀元路245弄",121.482811123964,31.178665904004,2022-04-12
"浦东新区","上海市浦东新区一六村船舫队",121.59622237426,31.1750988058813,2022-04-12
"浦东新区","上海市浦东新区一六村金桥队油车村",121.57284523099,31.2415049459392,2022-04-12
"浦东新区","上海市浦东新区一六村赵家队北赵家宅",121.595116111024,31.1779888285149,2022-04-12
"浦东新区","上海市浦东新区一六村赵家队南赵家宅",121.602726734966,31.1731882956816,2022-04-12
"浦东新区","上海市浦东新区一心村顾家宅",121.688848811327,31.2500387840308,2022-04-12
"浦东新区","上海市浦东新区一心村西宋家宅",121.709470851597,31.2084923036178,2022-04-12
"浦东新区","上海市浦东新区一心村徐家宅",121.696688503174,31.2581345820698,2022-04-12
"浦东新区","上海市浦东新区一心村袁家宅",121.730381607258,31.0751923675708,2022-04-12
"浦东新区","上海市浦东新区一心村朱家宅",121.688848811327,31.2500387840308,2022-04-12
"浦东新区","上海市浦东新区怡园村",121.624073977274,31.123859659825,2022-04-12
"浦东新区","上海市浦东新区亦园路75弄",121.720312410967,31.0752706964044,2022-04-12
"浦东新区","上海市浦东新区益丰路55弄",121.628839488005,31.2071079243307,2022-04-12
"浦东新区","上海市浦东新区益江路126弄",121.641426005827,31.2061100682836,2022-04-12
"浦东新区","上海市浦东新区益江路299弄",121.637229571638,31.2035027591617,2022-04-12
"浦东新区","上海市浦东新区益江路396弄",121.633194383287,31.2048023302945,2022-04-12
"浦东新区","上海市浦东新区益江路511弄",121.63543170299,31.202213517362,2022-04-12
"浦东新区","上海市浦东新区益江路516弄",121.633548944472,31.2014272688332,2022-04-12
"浦东新区","上海市浦东新区益民村老周家宅",121.712265030886,31.2238739908515,2022-04-12
"浦东新区","上海市浦东新区溢泽华庭",121.588741285973,31.1252419451244,2022-04-12
"浦东新区","上海市浦东新区懿德村钱家队钱家宅",121.523370965198,31.1281353580724,2022-04-12
"浦东新区","上海市浦东新区懿德村小陈家队小陈家宅",121.524726687873,31.1243504097577,2022-04-12
"浦东新区","上海市浦东新区懿行路971弄",121.51939497518,31.1311335477655,2022-04-12
"浦东新区","上海市浦东新区银冬路568号",121.643025528618,31.2116879803861,2022-04-12
"浦东新区","上海市浦东新区银峰路549弄",121.695687880666,31.2724371167393,2022-04-12
"浦东新区","上海市浦东新区银峰路676弄",121.652778790863,31.290487771739,2022-04-12
"浦东新区","上海市浦东新区银峰路龚华路交界口工地生活区",121.692142807801,31.2689557706504,2022-04-12
"浦东新区","上海市浦东新区银山路181号",121.58653495781,31.2500969003129,2022-04-12
"浦东新区","上海市浦东新区银山路200弄",121.586551217139,31.2497236588597,2022-04-12
"浦东新区","上海市浦东新区银山路342弄",121.589446545629,31.2504821802502,2022-04-12
"浦东新区","上海市浦东新区银山路370弄",121.590757442859,31.2520815535262,2022-04-12
"浦东新区","上海市浦东新区银山路72弄",121.584909024837,31.2482473492788,2022-04-12
"浦东新区","上海市浦东新区银霄路100弄",121.563430360432,31.216556645408,2022-04-12
"浦东新区","上海市浦东新区银霄路39弄",121.565726159824,31.218253492246,2022-04-12
"浦东新区","上海市浦东新区银樽路58弄",121.636263803384,31.1944164540822,2022-04-12
"浦东新区","上海市浦东新区樱花路89弄",121.551946231283,31.2119883489066,2022-04-12
"浦东新区","上海市浦东新区迎春路1355弄",121.569082498701,31.235478938542,2022-04-12
"浦东新区","上海市浦东新区迎薰路1018弄",121.772032440534,31.0409748408647,2022-04-12
"浦东新区","上海市浦东新区营房村",121.572398952813,31.142485338114,2022-04-12
"浦东新区","上海市浦东新区营洪路1258弄",121.550454606832,31.2273482924363,2022-04-12
"浦东新区","上海市浦东新区营前村西王家宅",121.793150255615,31.1433441716895,2022-04-12
"浦东新区","上海市浦东新区永安村",121.74874422951,31.0748763452478,2022-04-12
"浦东新区","上海市浦东新区永安新村",121.557080148951,31.2549395653573,2022-04-12
"浦东新区","上海市浦东新区永丰村陈家宅",121.683246259522,31.2574924233498,2022-04-12
"浦东新区","上海市浦东新区永丰村大徐家宅",121.702955890886,31.2614800488169,2022-04-12
"浦东新区","上海市浦东新区永丰村孙家宅",121.707798027077,31.2650331304104,2022-04-12
"浦东新区","上海市浦东新区永和村新西家宅",121.565962773495,31.0393493571596,2022-04-12
"浦东新区","上海市浦东新区永和村摇桥头",121.702053992154,31.2700965571685,2022-04-12
"浦东新区","上海市浦东新区永红村丁家宅",121.716091812359,31.2408407518082,2022-04-12
"浦东新区","上海市浦东新区永红村胡家宅",121.716091812359,31.2408407518082,2022-04-12
"浦东新区","上海市浦东新区永红村秦家宅",121.716091812359,31.2408407518082,2022-04-12
"浦东新区","上海市浦东新区永红村薛家宅",121.716091812359,31.2408407518082,2022-04-12
"浦东新区","上海市浦东新区永建路152弄",121.622724632568,31.2702838318709,2022-04-12
"浦东新区","上海市浦东新区永乐村东邵家弄",121.653814087963,31.2800443597353,2022-04-12
"浦东新区","上海市浦东新区永乐村钱家宅",121.762237676576,31.0810016694205,2022-04-12
"浦东新区","上海市浦东新区永乐村西邵家弄",121.653814087963,31.2800443597353,2022-04-12
"浦东新区","上海市浦东新区永利村冯家宅",121.702059022665,31.2701954030718,2022-04-12
"浦东新区","上海市浦东新区永利村马家宅",121.702059022665,31.2701954030718,2022-04-12
"浦东新区","上海市浦东新区永利村盛家宅",121.702059022665,31.2701954030718,2022-04-12
"浦东新区","上海市浦东新区永利村徐家宅",121.702955890886,31.2614800488169,2022-04-12
"浦东新区","上海市浦东新区永利村朱家宅",121.702059022665,31.2701954030718,2022-04-12
"浦东新区","上海市浦东新区永宁路136弄",121.616396968556,31.2715431229627,2022-04-12
"浦东新区","上海市浦东新区永宁路33弄",121.6209919809,31.2789818535449,2022-04-12
"浦东新区","上海市浦东新区永泰路133弄",121.509215736463,31.1415938891426,2022-04-12
"浦东新区","上海市浦东新区永泰路136弄",121.511141254324,31.1406678921009,2022-04-12
"浦东新区","上海市浦东新区永泰路1650弄",121.543420425536,31.1503996769566,2022-04-12
"浦东新区","上海市浦东新区永泰路1960弄",121.525530311983,31.1391594184198,2022-04-12
"浦东新区","上海市浦东新区永泰路2070弄",121.529696185109,31.2072012517119,2022-04-12
"浦东新区","上海市浦东新区永泰路2080弄",121.551161483438,31.1517002161179,2022-04-12
"浦东新区","上海市浦东新区永泰路258弄",121.515385298706,31.1421411070665,2022-04-12
"浦东新区","上海市浦东新区永泰路468弄",121.518683696877,31.1422970350015,2022-04-12
"浦东新区","上海市浦东新区永泰路59弄",121.507846629035,31.1402600610679,2022-04-12
"浦东新区","上海市浦东新区永泰路630弄",121.52411305538,31.1453658573196,2022-04-12
"浦东新区","上海市浦东新区永泰路775弄",121.52441470637,31.1479803464903,2022-04-12
"浦东新区","上海市浦东新区永旺路258弄",121.759157566643,30.9800231697708,2022-04-12
"浦东新区","上海市浦东新区永新村海家宅",121.668851183216,31.312274575565,2022-04-12
"浦东新区","上海市浦东新区永新村金王家宅",121.667620055515,31.3180004789526,2022-04-12
"浦东新区","上海市浦东新区永新村杨家宅",121.796911999769,31.0758994124495,2022-04-12
"浦东新区","上海市浦东新区永业路218弄",121.622881566541,31.2722620378447,2022-04-12
"浦东新区","上海市浦东新区永业路42弄",121.621089177556,31.2706643216737,2022-04-12
"浦东新区","上海市浦东新区永业路94弄",121.621249794582,31.2700010291782,2022-04-12
"浦东新区","上海市浦东新区友爱村",121.770994179026,31.0242948583684,2022-04-12
"浦东新区","上海市浦东新区友谊村东钱家宅",121.751834430791,31.2301868682127,2022-04-12
"浦东新区","上海市浦东新区羽山路1445弄",121.567132277439,31.2467778856191,2022-04-12
"浦东新区","上海市浦东新区羽山路1446弄",121.568582951007,31.2459944040648,2022-04-12
