"district","address","lng","lat","date"
"浦东新区","上海市浦东新区白萱路99弄",121.597709608862,31.3366934242069,2022-04-24
"浦东新区","上海市浦东新区白杨路1155弄",121.565798024265,31.1977391794061,2022-04-24
"浦东新区","上海市浦东新区白杨路199弄",121.563091160271,31.2138568985409,2022-04-24
"浦东新区","上海市浦东新区白杨路360弄",121.56134817809,31.2120202201198,2022-04-24
"浦东新区","上海市浦东新区板泉路1000弄",121.536884264815,31.1897022555378,2022-04-24
"浦东新区","上海市浦东新区板泉路1555弄",121.536884264815,31.1897022555378,2022-04-24
"浦东新区","上海市浦东新区板泉路2000弄",121.536884264815,31.1897022555378,2022-04-24
"浦东新区","上海市浦东新区板泉路2101弄",121.539604693221,31.1688158507634,2022-04-24
"浦东新区","上海市浦东新区板泉路50号",121.501198269956,31.1634647451668,2022-04-24
"浦东新区","上海市浦东新区北艾路1200弄",121.538886767458,31.1884818678728,2022-04-24
"浦东新区","上海市浦东新区北艾路155弄",121.5498820269,31.1925399313686,2022-04-24
"浦东新区","上海市浦东新区北艾路1643弄",121.532060004904,31.1848338936848,2022-04-24
"浦东新区","上海市浦东新区北艾路1660弄",121.530288187116,31.1870408137803,2022-04-24
"浦东新区","上海市浦东新区北艾路1765弄",121.528398601476,31.1842654537065,2022-04-24
"浦东新区","上海市浦东新区北蔡大街31弄",121.560543565845,31.1936780975778,2022-04-24
"浦东新区","上海市浦东新区北蔡镇北蔡村丁家宅",121.569857916017,31.1921842226328,2022-04-24
"浦东新区","上海市浦东新区北蔡镇联勤村冯桥队冯家宅",121.557447915227,31.1712123975815,2022-04-24
"浦东新区","上海市浦东新区北蔡镇联勤村冯桥队张家宅",121.557447915227,31.1712123975815,2022-04-24
"浦东新区","上海市浦东新区北蔡镇联勤村李家队李家宅",121.55718596934,31.1732310110799,2022-04-24
"浦东新区","上海市浦东新区北蔡镇联勤村麦家宅",121.553913442368,31.1692634940545,2022-04-24
"浦东新区","上海市浦东新区北蔡镇联勤村张家队张家宅",121.55718596934,31.1732310110799,2022-04-24
"浦东新区","上海市浦东新区北蔡镇南新村东钟家宅",121.548654941573,31.1732516349633,2022-04-24
"浦东新区","上海市浦东新区北蔡镇南新村吴家宅",121.549849598071,31.1721417237226,2022-04-24
"浦东新区","上海市浦东新区北蔡镇南新村西钟家宅",121.548654941573,31.1732516349633,2022-04-24
"浦东新区","上海市浦东新区北蔡镇南新村徐家宅",121.549849598071,31.1721417237226,2022-04-24
"浦东新区","上海市浦东新区北蔡镇南新村杨家湾",121.515624876785,31.2297190254723,2022-04-24
"浦东新区","上海市浦东新区北蔡镇南新村赵家厍",121.543435157746,31.1767913831306,2022-04-24
"浦东新区","上海市浦东新区北蔡镇潘姚村西刘队刘家宅",121.583074056171,31.1881655314053,2022-04-24
"浦东新区","上海市浦东新区北蔡镇卫行村顾家队张家宅",121.584959240115,31.1722250698694,2022-04-24
"浦东新区","上海市浦东新区北蔡镇卫行村沈家队沈家宅",121.587201410668,31.1666652020159,2022-04-24
"浦东新区","上海市浦东新区北蔡镇卫行村张浜队南顾家宅",121.588143822978,31.17172159313,2022-04-24
"浦东新区","上海市浦东新区北蔡镇卫行村张浜队王家宅",121.59502735844,31.1638725526298,2022-04-24
"浦东新区","上海市浦东新区北蔡镇卫行村张浜队杨家宅",121.587201410668,31.1666652020159,2022-04-24
"浦东新区","上海市浦东新区北蔡镇五星村陈家队陈家宅",121.578579474383,31.194413133383,2022-04-24
"浦东新区","上海市浦东新区北蔡镇五星村家务队顾家宅",121.57836549801,31.1799884502015,2022-04-24
"浦东新区","上海市浦东新区北蔡镇五星村吴家队吴家宅",121.57836549801,31.1799884502015,2022-04-24
"浦东新区","上海市浦东新区北蔡镇杨桥村蒋家队北季家宅",121.578761021926,31.1993098784582,2022-04-24
"浦东新区","上海市浦东新区北蔡镇杨桥村西计队西计家宅",121.570644651983,31.1909809347657,2022-04-24
"浦东新区","上海市浦东新区北蔡镇一六村金桥队南赵家宅",121.602726734966,31.1731882956816,2022-04-24
"浦东新区","上海市浦东新区北蔡镇御桥村姚家队姚家宅",121.564117833639,31.1623293022053,2022-04-24
"浦东新区","上海市浦东新区北蔡镇中界村陈家队陈家宅",121.578579474383,31.194413133383,2022-04-24
"浦东新区","上海市浦东新区北蔡镇中界村复兴队陈家宅",121.578579474383,31.194413133383,2022-04-24
"浦东新区","上海市浦东新区北蔡镇中界村复兴队顾家宅",121.578066721598,31.1937157839413,2022-04-24
"浦东新区","上海市浦东新区北蔡镇中界村复兴队苏家宅",121.577029627886,31.1916104985113,2022-04-24
"浦东新区","上海市浦东新区北蔡镇中界村黄家队黄家宅",121.574173735009,31.1954461740634,2022-04-24
"浦东新区","上海市浦东新区北蔡镇中界村黄家队孔家圈",121.580535175309,31.1898025765355,2022-04-24
"浦东新区","上海市浦东新区北蔡镇中界村林家队苏家宅",121.577029627886,31.1916104985113,2022-04-24
"浦东新区","上海市浦东新区北蔡镇中界村林家队中界庙",121.578541026907,31.19086787233,2022-04-24
"浦东新区","上海市浦东新区北蔡镇中界村陆家队陆家宅",121.507419754257,31.1905632054564,2022-04-24
"浦东新区","上海市浦东新区北蔡镇中界村沈家队沈家宅",121.574173735009,31.1954461740634,2022-04-24
"浦东新区","上海市浦东新区北蔡镇中界村沈家队姚家宅",121.574173735009,31.1954461740634,2022-04-24
"浦东新区","上海市浦东新区北蔡镇中界村苏家队苏家宅",121.577029627886,31.1916104985113,2022-04-24
"浦东新区","上海市浦东新区北蔡镇中界村庄家队蔡家宅",121.578579474383,31.194413133383,2022-04-24
"浦东新区","上海市浦东新区北城壕路111弄",121.707645764293,31.2040418941874,2022-04-24
"浦东新区","上海市浦东新区北新园路350弄",121.633354461329,31.3270160144631,2022-04-24
"浦东新区","上海市浦东新区北园路258弄",121.53086597722,31.2096526677908,2022-04-24
"浦东新区","上海市浦东新区北张家浜路58号",121.527623453651,31.2221730769557,2022-04-24
"浦东新区","上海市浦东新区北中路278弄",121.562802804203,31.1890241785414,2022-04-24
"浦东新区","上海市浦东新区北中路280弄",121.563938531859,31.1899177254468,2022-04-24
"浦东新区","上海市浦东新区北中路354弄",121.566413902522,31.1901497991136,2022-04-24
"浦东新区","上海市浦东新区北中路383弄",121.565356237615,31.1904763230866,2022-04-24
"浦东新区","上海市浦东新区滨江大道福山路交界口工地生活区",121.493825876636,31.2624945232233,2022-04-24
"浦东新区","上海市浦东新区博华路1018弄",121.557501993219,31.1768508579768,2022-04-24
"浦东新区","上海市浦东新区博华路930弄",121.556749213201,31.1803200299912,2022-04-24
"浦东新区","上海市浦东新区博华路999弄",121.557113925239,31.1768062904657,2022-04-24
"浦东新区","上海市浦东新区博山东路112弄",121.569426819203,31.2554456818061,2022-04-24
"浦东新区","上海市浦东新区博山东路173弄",121.572413325701,31.257892721582,2022-04-24
"浦东新区","上海市浦东新区博山东路20弄",121.566038859972,31.2533910234004,2022-04-24
"浦东新区","上海市浦东新区博山东路553弄",121.577927484244,31.2615326789026,2022-04-24
"浦东新区","上海市浦东新区博山东路81弄",121.566572812767,31.2559642978313,2022-04-24
"浦东新区","上海市浦东新区博山路11弄",121.564218982839,31.2518921585341,2022-04-24
"浦东新区","上海市浦东新区博山路12弄",121.563217821348,31.2532525679138,2022-04-24
"浦东新区","上海市浦东新区博山路200弄",121.558865980305,31.2503079863726,2022-04-24
"浦东新区","上海市浦东新区博山路50弄",121.562882933054,31.2522236381075,2022-04-24
"浦东新区","上海市浦东新区博山路51弄",121.563650984265,31.2507948331348,2022-04-24
"浦东新区","上海市浦东新区博兴路1676弄",121.608179449411,31.2814973295333,2022-04-24
"浦东新区","上海市浦东新区博兴路250弄",121.586387276384,31.274900995229,2022-04-24
"浦东新区","上海市浦东新区博兴路462弄",121.589409086289,31.2720183620453,2022-04-24
"浦东新区","上海市浦东新区博兴路465弄",121.58987225261,31.2720666651517,2022-04-24
"浦东新区","上海市浦东新区博兴路616弄",121.590505647825,31.2688501329907,2022-04-24
"浦东新区","上海市浦东新区博兴路799弄",121.59697731021,31.27188533547,2022-04-24
"浦东新区","上海市浦东新区博兴路916弄",121.597995000523,31.2704201787296,2022-04-24
"浦东新区","上海市浦东新区博兴路986弄",121.597262971363,31.270671034824,2022-04-24
"浦东新区","上海市浦东新区彩云路568弄",121.814337689374,30.905357779155,2022-04-24
"浦东新区","上海市浦东新区彩云路843弄",121.807457477642,30.9049540420799,2022-04-24
"浦东新区","上海市浦东新区曹路镇安基村朱家宅",121.653180333425,31.290984052385,2022-04-24
"浦东新区","上海市浦东新区曹路镇东海村胡家宅",121.677869901045,31.3070549287637,2022-04-24
"浦东新区","上海市浦东新区曹路镇东海村张家宅",121.677869901045,31.3070549287637,2022-04-24
"浦东新区","上海市浦东新区曹路镇顾东村苍龙桥",121.668037318424,31.3056298935306,2022-04-24
"浦东新区","上海市浦东新区曹路镇顾东村船板桥",121.670280566944,31.3031164562783,2022-04-24
"浦东新区","上海市浦东新区曹路镇顾东村花厅",121.66819802528,31.3012480534309,2022-04-24
"浦东新区","上海市浦东新区曹路镇顾东村水洞港",121.669643039524,31.2997669268929,2022-04-24
"浦东新区","上海市浦东新区曹路镇顾东村太平",121.663575434956,31.3069277370585,2022-04-24
"浦东新区","上海市浦东新区曹路镇顾东村田度宅",121.665810958049,31.3038423016407,2022-04-24
"浦东新区","上海市浦东新区曹路镇顾东村新屋宅",121.66573451225,31.3018178654977,2022-04-24
"浦东新区","上海市浦东新区曹路镇顾三村外金家宅",121.693419569423,31.3010506586735,2022-04-24
"浦东新区","上海市浦东新区曹路镇光明村沙桥宅",121.658185512066,31.292967682843,2022-04-24
"浦东新区","上海市浦东新区曹路镇黎明村盛朱村",121.704742530715,31.2749675063931,2022-04-24
"浦东新区","上海市浦东新区曹路镇联合村路北宅",121.691927573801,31.2750515326103,2022-04-24
"浦东新区","上海市浦东新区曹路镇联合村南浜宅",121.682533094778,31.3038748527031,2022-04-24
"浦东新区","上海市浦东新区曹路镇联合村西浜宅",121.681654911311,31.3037331552227,2022-04-24
"浦东新区","上海市浦东新区曹路镇联合村西柴场",121.67746314831,31.3033290423911,2022-04-24
"浦东新区","上海市浦东新区曹路镇民建村北邵家宅",121.654516473041,31.2803786713243,2022-04-24
"浦东新区","上海市浦东新区曹路镇民建村金家宅",121.667798908142,31.2822498065456,2022-04-24
"浦东新区","上海市浦东新区曹路镇民建村南邵家宅",121.654516473041,31.2803786713243,2022-04-24
"浦东新区","上海市浦东新区曹路镇民建村徐家宅",121.653580977683,31.2733973056005,2022-04-24
"浦东新区","上海市浦东新区曹路镇启明村龙王庙",121.702859951858,31.2814263481015,2022-04-24
"浦东新区","上海市浦东新区曹路镇前锋村夹路村宅",121.697049262666,31.2767541853208,2022-04-24
"浦东新区","上海市浦东新区曹路镇前锋村陆家宅",121.704838559574,31.2766295756821,2022-04-24
"浦东新区","上海市浦东新区曹路镇前锋村杨张村宅",121.701698173342,31.2771696010206,2022-04-24
"浦东新区","上海市浦东新区曹路镇日新村北万家宅",121.67504212513,31.269511195913,2022-04-24
"浦东新区","上海市浦东新区曹路镇日新村南房宅",121.675610213535,31.2719155828286,2022-04-24
"浦东新区","上海市浦东新区曹路镇日新村南万家宅",121.678942208332,31.2664553129459,2022-04-24
"浦东新区","上海市浦东新区曹路镇日新村杨薛家宅",121.674955438648,31.2654722113219,2022-04-24
"浦东新区","上海市浦东新区曹路镇五四村沈孙家宅",121.658040076404,31.2603987332248,2022-04-24
"浦东新区","上海市浦东新区曹路镇五四村唐朱家宅",121.668338969415,31.2583088385362,2022-04-24
"浦东新区","上海市浦东新区曹路镇新华村强顾家宅",121.667109279002,31.2712149527223,2022-04-24
"浦东新区","上海市浦东新区曹路镇新星村胡家宅",121.708279428999,31.2618387353821,2022-04-24
"浦东新区","上海市浦东新区曹路镇星火村陆家村宅",121.71170161367,31.2591670739033,2022-04-24
"浦东新区","上海市浦东新区曹路镇迅建村蔡家宅",121.697148794917,31.2892028145954,2022-04-24
"浦东新区","上海市浦东新区曹路镇迅建村撑圩村",121.699485287548,31.2867503457957,2022-04-24
"浦东新区","上海市浦东新区曹路镇迅建村黄家宅",121.699225138273,31.2840908923215,2022-04-24
"浦东新区","上海市浦东新区曹路镇迅建村季家宅",121.697148794917,31.2892028145954,2022-04-24
"浦东新区","上海市浦东新区曹路镇永丰村大徐家宅",121.702955890886,31.2614800488169,2022-04-24
"浦东新区","上海市浦东新区曹路镇永丰村孙家宅",121.707798027077,31.2650331304104,2022-04-24
"浦东新区","上海市浦东新区曹路镇永和村陆万村",121.703053896017,31.2697973181134,2022-04-24
"浦东新区","上海市浦东新区曹路镇永乐村曹家油车",121.647488310392,31.2834265378934,2022-04-24
"浦东新区","上海市浦东新区曹路镇永乐村东邵家弄",121.653814087963,31.2800443597353,2022-04-24
"浦东新区","上海市浦东新区曹路镇永乐村钱家宅",121.647814934275,31.2776772173624,2022-04-24
"浦东新区","上海市浦东新区曹路镇永利村冯家宅",121.702059022665,31.2701954030718,2022-04-24
"浦东新区","上海市浦东新区曹路镇永利村马家宅",121.702059022665,31.2701954030718,2022-04-24
"浦东新区","上海市浦东新区曹路镇永利村徐家宅",121.702955890886,31.2614800488169,2022-04-24
"浦东新区","上海市浦东新区曹路镇赵桥村大陆家宅",121.653830886276,31.2972341236684,2022-04-24
"浦东新区","上海市浦东新区曹路镇众三村顾家宅",121.673574204096,31.2875780004637,2022-04-24
"浦东新区","上海市浦东新区草高支路168弄",121.589932708571,31.3581616893912,2022-04-24
"浦东新区","上海市浦东新区草高支路170弄",121.588426070569,31.3579888528039,2022-04-24
"浦东新区","上海市浦东新区长岛路1066弄",121.597067769575,31.2660140759925,2022-04-24
"浦东新区","上海市浦东新区长岛路1201弄",121.596729737212,31.2693476089323,2022-04-24
"浦东新区","上海市浦东新区长岛路1338弄",121.603227719949,31.268323872015,2022-04-24
"浦东新区","上海市浦东新区长岛路1477弄",121.604779812209,31.270184754572,2022-04-24
"浦东新区","上海市浦东新区长岛路1560弄",121.608314285069,31.2706988133719,2022-04-24
"浦东新区","上海市浦东新区长岛路800弄",121.593834768045,31.2653075369301,2022-04-24
"浦东新区","上海市浦东新区长岛路823弄",121.593831983298,31.2684288929538,2022-04-24
"浦东新区","上海市浦东新区长岛路99号",121.583231618958,31.2736681381861,2022-04-24
"浦东新区","上海市浦东新区长清路643弄",121.498775809487,31.1641831772803,2022-04-24
"浦东新区","上海市浦东新区长清路693弄",121.536884264815,31.1897022555378,2022-04-24
"浦东新区","上海市浦东新区长清路75弄",121.536884264815,31.1897022555378,2022-04-24
"浦东新区","上海市浦东新区长清路773弄",121.498012070143,31.1619738650998,2022-04-24
"浦东新区","上海市浦东新区长清路807弄",121.49922298597,31.1620532804187,2022-04-24
"浦东新区","上海市浦东新区长清路937弄",121.536884264815,31.1897022555378,2022-04-24
"浦东新区","上海市浦东新区昌里东路395弄",121.518966483452,31.1833023416904,2022-04-24
"浦东新区","上海市浦东新区昌里东路411弄",121.519301551407,31.1855112286687,2022-04-24
"浦东新区","上海市浦东新区昌里东路500弄",121.520657363913,31.1835177490782,2022-04-24
"浦东新区","上海市浦东新区昌里东路550弄",121.521399004942,31.1835358991941,2022-04-24
"浦东新区","上海市浦东新区昌里东路650弄",121.521399004942,31.1835358991941,2022-04-24
"浦东新区","上海市浦东新区昌里东路71弄",121.51070692361,31.1826643807287,2022-04-24
"浦东新区","上海市浦东新区昌里东路80弄",121.512747873728,31.1803744049484,2022-04-24
"浦东新区","上海市浦东新区昌里路167弄",121.504545446117,31.1810916262197,2022-04-24
"浦东新区","上海市浦东新区昌里路311弄",121.536884264815,31.1897022555378,2022-04-24
"浦东新区","上海市浦东新区昌里路340弄",121.500968393576,31.1782390828587,2022-04-24
"浦东新区","上海市浦东新区昌里路93弄",121.510208364052,31.1817431914226,2022-04-24
"浦东新区","上海市浦东新区昌邑路1500号",121.544147154694,31.251028916923,2022-04-24
"浦东新区","上海市浦东新区昌邑路55弄",121.519121980136,31.2460588518643,2022-04-24
"浦东新区","上海市浦东新区潮乐路21弄",121.858638973057,30.8772675362331,2022-04-24
"浦东新区","上海市浦东新区陈春路221弄",121.559510334847,31.1795941521863,2022-04-24
"浦东新区","上海市浦东新区陈春路620弄",121.552907609688,31.1780781941088,2022-04-24
"浦东新区","上海市浦东新区陈邵路103号工地生活区",121.639191186511,31.2932930058445,2022-04-24
"浦东新区","上海市浦东新区成山路1488弄",121.533431537757,31.1819798422434,2022-04-24
"浦东新区","上海市浦东新区成山路1728弄",121.535534201464,31.1818249843163,2022-04-24
"浦东新区","上海市浦东新区成山路2008弄",121.543485283194,31.1832765452903,2022-04-24
"浦东新区","上海市浦东新区成山路2222弄",121.54850115167,31.1845807992996,2022-04-24
"浦东新区","上海市浦东新区成山路226弄",121.503720083014,31.1763904289944,2022-04-24
"浦东新区","上海市浦东新区成山路2399弄",121.550359476278,31.1874138418592,2022-04-24
"浦东新区","上海市浦东新区成山路24弄",121.492308997952,31.1741468770644,2022-04-24
"浦东新区","上海市浦东新区成山路544弄",121.514758730613,31.174425412251,2022-04-24
"浦东新区","上海市浦东新区成山路608弄",121.515115986714,31.1776118237191,2022-04-24
"浦东新区","上海市浦东新区成山路648弄",121.515115986714,31.1776118237191,2022-04-24
"浦东新区","上海市浦东新区成山路668弄",121.519473037929,31.1758708312841,2022-04-24
"浦东新区","上海市浦东新区成山路963弄",121.522241615511,31.1792667406839,2022-04-24
"浦东新区","上海市浦东新区诚礼路298弄",121.674967296281,31.2320230023754,2022-04-24
"浦东新区","上海市浦东新区城丰路212弄",121.693195891351,31.1965687829905,2022-04-24
"浦东新区","上海市浦东新区城丰路245弄",121.693384625338,31.1955081854874,2022-04-24
"浦东新区","上海市浦东新区城南路550弄",121.703256014757,31.1971108924117,2022-04-24
"浦东新区","上海市浦东新区城南路918弄",121.698360901897,31.1952668766422,2022-04-24
"浦东新区","上海市浦东新区崇溪路111弄",121.718653959334,31.1148188920109,2022-04-24
"浦东新区","上海市浦东新区川北公路3046号",121.619600775157,31.2110282845181,2022-04-24
"浦东新区","上海市浦东新区川沙路1258号",121.684650311034,31.2676190480528,2022-04-24
"浦东新区","上海市浦东新区川沙路1666弄",121.67243200864,31.2858133621136,2022-04-24
"浦东新区","上海市浦东新区川沙路2016号生活区",121.690356617125,31.2518676158786,2022-04-24
"浦东新区","上海市浦东新区川沙路389弄",121.675454896512,31.2852923658015,2022-04-24
"浦东新区","上海市浦东新区川沙路4197号",121.700633142329,31.2126556648974,2022-04-24
"浦东新区","上海市浦东新区川沙路4625弄",121.652778790863,31.290487771739,2022-04-24
"浦东新区","上海市浦东新区川沙路5122弄",121.702663851765,31.1965324105794,2022-04-24
"浦东新区","上海市浦东新区川沙路5245弄",121.705793428388,31.194881273585,2022-04-24
"浦东新区","上海市浦东新区川沙新镇八灶村郭家宅",121.724141797525,31.1621241979325,2022-04-24
"浦东新区","上海市浦东新区川沙新镇八灶村康家宅",121.722792273157,31.1660676062956,2022-04-24
"浦东新区","上海市浦东新区川沙新镇柴场村",121.732663662576,31.1867538977984,2022-04-24
"浦东新区","上海市浦东新区川沙新镇陈桥村",121.707774401642,31.202328573802,2022-04-24
"浦东新区","上海市浦东新区川沙新镇城南村朱家宅",121.705982641471,31.1940629147939,2022-04-24
"浦东新区","上海市浦东新区川沙新镇杜坊村",121.702920138327,31.1782491239142,2022-04-24
"浦东新区","上海市浦东新区川沙新镇果园村",121.707774401642,31.202328573802,2022-04-24
"浦东新区","上海市浦东新区川沙新镇和平村朱家宅",121.736251135461,31.2055576639467,2022-04-24
"浦东新区","上海市浦东新区川沙新镇黄楼村张家宅",121.657988244176,31.1753357824389,2022-04-24
"浦东新区","上海市浦东新区川沙新镇会龙村新兴",121.707774401642,31.202328573802,2022-04-24
"浦东新区","上海市浦东新区川沙新镇界龙村大顾家宅",121.690718993568,31.1810167067442,2022-04-24
"浦东新区","上海市浦东新区川沙新镇界龙村戴家宅",121.698263322563,31.1152111434803,2022-04-24
"浦东新区","上海市浦东新区川沙新镇界龙村华家宅",121.684098032807,31.179025834911,2022-04-24
"浦东新区","上海市浦东新区川沙新镇栏杆村周家宅",121.672901912253,31.1797774372486,2022-04-24
"浦东新区","上海市浦东新区川沙新镇鹿溪村",121.707774401642,31.202328573802,2022-04-24
"浦东新区","上海市浦东新区川沙新镇民义村",121.707774401642,31.202328573802,2022-04-24
"浦东新区","上海市浦东新区川沙新镇其成村",121.692090616251,31.1200929335103,2022-04-24
"浦东新区","上海市浦东新区川沙新镇湾镇村王家宅",121.707774401642,31.202328573802,2022-04-24
"浦东新区","上海市浦东新区川沙新镇新浜村陆家宅",121.756419621279,31.1219765473977,2022-04-24
"浦东新区","上海市浦东新区川沙新镇新春村赵孟家宅",121.698522753194,31.1667166494529,2022-04-24
"浦东新区","上海市浦东新区川沙新镇药师村周家宅",121.688302012763,31.209451836559,2022-04-24
"浦东新区","上海市浦东新区川沙新镇长桥村龚家宅",121.742139617909,31.1531045742054,2022-04-24
"浦东新区","上海市浦东新区川周公路2828弄",121.624521962232,31.1491248483126,2022-04-24
"浦东新区","上海市浦东新区川周公路2880号",121.622258412008,31.1488188868617,2022-04-24
"浦东新区","上海市浦东新区川周公路4058弄",121.591378261797,31.1321645808084,2022-04-24
"浦东新区","上海市浦东新区川周公路4318弄",121.587429400606,31.1268947718151,2022-04-24
"浦东新区","上海市浦东新区川周公路凌空路交界口工地生活区",121.590814215768,31.1298587666359,2022-04-24
"浦东新区","上海市浦东新区川周路8682弄",121.71448124041,31.1891260448634,2022-04-24
"浦东新区","上海市浦东新区创新西路199弄",121.660810450597,31.2075822554859,2022-04-24
"浦东新区","上海市浦东新区创新西路75弄",121.663731470623,31.2097267922427,2022-04-24
"浦东新区","上海市浦东新区创新中路199弄",121.668695686533,31.2141451212896,2022-04-24
"浦东新区","上海市浦东新区创新中路380弄",121.672441890001,31.2138392947654,2022-04-24
"浦东新区","上海市浦东新区创新中路399弄",121.673244705635,31.2153254895784,2022-04-24
"浦东新区","上海市浦东新区创业路78弄",121.584859707864,31.1200779398788,2022-04-24
"浦东新区","上海市浦东新区创业路798号",121.703206428293,31.2213490891708,2022-04-24
"浦东新区","上海市浦东新区春晖路25弄",121.595720760463,31.3480606177334,2022-04-24
"浦东新区","上海市浦东新区春晖路289弄",121.59067273265,31.3445423085239,2022-04-24
"浦东新区","上海市浦东新区春晖路368弄",121.590196181577,31.3445205658804,2022-04-24
"浦东新区","上海市浦东新区春晖路446弄",121.586944944444,31.3446391480376,2022-04-24
"浦东新区","上海市浦东新区达秀路151号",121.660133757056,31.2432925734162,2022-04-24
"浦东新区","上海市浦东新区大同路1010弄",121.578601123546,31.3414126263765,2022-04-24
"浦东新区","上海市浦东新区大同路868弄",121.580160042928,31.3430273275785,2022-04-24
"浦东新区","上海市浦东新区大团镇扶栏村下塘",121.756619584086,30.9987475772315,2022-04-24
"浦东新区","上海市浦东新区大团镇果园村银杏",121.737440132634,30.9836647732627,2022-04-24
"浦东新区","上海市浦东新区大团镇海潮村沙庙",121.770598565279,30.9710424403385,2022-04-24
"浦东新区","上海市浦东新区大团镇团新村严楼",121.754048813377,31.0228818454831,2022-04-24
"浦东新区","上海市浦东新区大团镇园艺村农艺",121.763258331296,30.9856535903493,2022-04-24
"浦东新区","上海市浦东新区德恒路济阳路交界口工地生活区",121.496724618686,31.1454282881951,2022-04-24
"浦东新区","上海市浦东新区德平路100弄",121.568682662918,31.2539399811791,2022-04-24
"浦东新区","上海市浦东新区德平路1065弄",121.57423419097,31.2492630478328,2022-04-24
"浦东新区","上海市浦东新区德平路1066弄",121.573972784066,31.2468356951989,2022-04-24
"浦东新区","上海市浦东新区德平路1134弄",121.576286010585,31.2456409051647,2022-04-24
"浦东新区","上海市浦东新区德平路1189弄",121.576813136258,31.2458715286161,2022-04-24
"浦东新区","上海市浦东新区德平路143弄",121.567548462381,31.2570902712305,2022-04-24
"浦东新区","上海市浦东新区德平路155弄",121.567954047319,31.2566018365944,2022-04-24
"浦东新区","上海市浦东新区德平路25弄",121.564731825455,31.2600917459727,2022-04-24
"浦东新区","上海市浦东新区德州路150弄",121.492570315024,31.1720443190957,2022-04-24
"浦东新区","上海市浦东新区德州路220弄",121.536884264815,31.1897022555378,2022-04-24
"浦东新区","上海市浦东新区德州路223弄",121.536884264815,31.1897022555378,2022-04-24
"浦东新区","上海市浦东新区德州路246号",121.49969738111,31.1738311101618,2022-04-24
"浦东新区","上海市浦东新区德州路255弄",121.497632266573,31.1762287646668,2022-04-24
"浦东新区","上海市浦东新区德州路380弄",121.493341150983,31.1714543276073,2022-04-24
"浦东新区","上海市浦东新区德州路420弄",121.490352488551,31.1723887494362,2022-04-24
"浦东新区","上海市浦东新区德州路421弄",121.489477988137,31.1738128809246,2022-04-24
"浦东新区","上海市浦东新区丁香路1399弄",121.570496790896,31.236774283463,2022-04-24
"浦东新区","上海市浦东新区丁香路1599弄",121.572306876498,31.2338622988355,2022-04-24
"浦东新区","上海市浦东新区东波路195弄",121.58624157123,31.290794581957,2022-04-24
"浦东新区","上海市浦东新区东波路49弄",121.583378042756,31.2907238390316,2022-04-24
"浦东新区","上海市浦东新区东波路585弄",121.592860016736,31.2899795307181,2022-04-24
"浦东新区","上海市浦东新区东昌路490弄",121.519723575336,31.2375223348617,2022-04-24
"浦东新区","上海市浦东新区东昌新村",121.518093689818,31.2389819866023,2022-04-24
"浦东新区","上海市浦东新区东川公路7858号",121.734461531224,31.2191372641099,2022-04-24
"浦东新区","上海市浦东新区东方路1800弄",121.528473609986,31.2090892428252,2022-04-24
"浦东新区","上海市浦东新区东方路1881弄",121.532356805045,31.2009488138369,2022-04-24
"浦东新区","上海市浦东新区东方路268号",121.527735921501,31.2426420538659,2022-04-24
"浦东新区","上海市浦东新区东方路3344弄",121.520630235087,31.1975387859662,2022-04-24
"浦东新区","上海市浦东新区东高路1111弄",121.5896261169,31.2815848989426,2022-04-24
"浦东新区","上海市浦东新区东高路18号",121.580781221188,31.2943271855661,2022-04-24
"浦东新区","上海市浦东新区东环龙路181弄",121.535363613248,31.2093387964144,2022-04-24
"浦东新区","上海市浦东新区东建路228弄",121.538810411489,31.206686097292,2022-04-24
"浦东新区","上海市浦东新区东建新村",121.526861421087,31.2227134169234,2022-04-24
"浦东新区","上海市浦东新区东靖路2250弄",121.620068792328,31.2983728676679,2022-04-24
"浦东新区","上海市浦东新区东靖路247弄",121.584071175287,31.2986857459865,2022-04-24
"浦东新区","上海市浦东新区东靖路51弄",121.5896261169,31.2815848989426,2022-04-24
"浦东新区","上海市浦东新区东靖路626弄",121.592519379287,31.2975466201028,2022-04-24
"浦东新区","上海市浦东新区东林街135弄",121.510653743924,31.1443586128523,2022-04-24
"浦东新区","上海市浦东新区东陆路1018弄",121.599020955246,31.2779119282265,2022-04-24
"浦东新区","上海市浦东新区东陆路1182弄",121.602356004282,31.2753682698756,2022-04-24
"浦东新区","上海市浦东新区东陆路1268弄",121.601560554753,31.2728788634835,2022-04-24
"浦东新区","上海市浦东新区东陆路1350弄",121.5896261169,31.2815848989426,2022-04-24
"浦东新区","上海市浦东新区东陆路1456弄",121.5896261169,31.2815848989426,2022-04-24
"浦东新区","上海市浦东新区东陆路898弄",121.598981609464,31.2808977661992,2022-04-24
"浦东新区","上海市浦东新区东三街102弄",121.517106182571,31.207639780426,2022-04-24
"浦东新区","上海市浦东新区东三街15弄",121.513798352192,31.2069744193285,2022-04-24
"浦东新区","上海市浦东新区东三里桥路160弄",121.516139875334,31.2060282193702,2022-04-24
"浦东新区","上海市浦东新区东三里桥路170弄",121.517567192959,31.2063591665174,2022-04-24
"浦东新区","上海市浦东新区东三里桥路211弄",121.53022853963,31.1980479157436,2022-04-24
"浦东新区","上海市浦东新区东三里桥路245弄",121.520676318159,31.2052174479688,2022-04-24
"浦东新区","上海市浦东新区东三里桥路79弄",121.515301666463,31.2060957833369,2022-04-24
"浦东新区","上海市浦东新区东书房路390弄",121.541617795869,31.1696664870587,2022-04-24
"浦东新区","上海市浦东新区东书房路560弄",121.543073679609,31.1677333099084,2022-04-24
"浦东新区","上海市浦东新区东绣路1086弄",121.54294171853,31.2052691831155,2022-04-24
"浦东新区","上海市浦东新区东绣路1389弄",121.538790289446,31.204676312065,2022-04-24
"浦东新区","上海市浦东新区东园四村",121.519432883673,31.2360922245748,2022-04-24
"浦东新区","上海市浦东新区渡桥路78弄",121.584859707864,31.1200779398788,2022-04-24
"浦东新区","上海市浦东新区峨山路180弄",121.534409702627,31.2202734086393,2022-04-24
"浦东新区","上海市浦东新区峨山路187弄",121.534061519411,31.220750375235,2022-04-24
"浦东新区","上海市浦东新区峨山路280弄",121.534409702627,31.2202734086393,2022-04-24
"浦东新区","上海市浦东新区峨山路605弄",121.528446660821,31.2208930478396,2022-04-24
"浦东新区","上海市浦东新区峨山路679弄",121.527011348277,31.2202007594188,2022-04-24
"浦东新区","上海市浦东新区繁荣东路150弄",121.59321448809,31.1120169709024,2022-04-24
"浦东新区","上海市浦东新区繁荣东路159弄",121.591870173895,31.1128143261855,2022-04-24
"浦东新区","上海市浦东新区方竹路222弄",121.913596495682,30.898714102519,2022-04-24
"浦东新区","上海市浦东新区方竹路333弄",121.915375320253,30.9001773889881,2022-04-24
"浦东新区","上海市浦东新区方竹路423弄",121.874119741402,30.9331532478893,2022-04-24
"浦东新区","上海市浦东新区芳草路253弄",121.562086764881,31.2023366045818,2022-04-24
"浦东新区","上海市浦东新区芳草路258号",121.563049029743,31.1995335117371,2022-04-24
"浦东新区","上海市浦东新区芳草路352弄",121.561626023985,31.1992148959303,2022-04-24
"浦东新区","上海市浦东新区芳草路363弄",121.536884264815,31.1897022555378,2022-04-24
"浦东新区","上海市浦东新区芳甸路333弄",121.529696185109,31.2072012517119,2022-04-24
"浦东新区","上海市浦东新区芳华路310弄",121.564018211558,31.2013345278281,2022-04-24
"浦东新区","上海市浦东新区芳华路329弄",121.56365017579,31.202246644365,2022-04-24
"浦东新区","上海市浦东新区芳华路411弄",121.565570303818,31.2023994608537,2022-04-24
"浦东新区","上海市浦东新区芳华路455弄",121.566150609177,31.2026175270033,2022-04-24
"浦东新区","上海市浦东新区芳华路478弄",121.536884264815,31.1897022555378,2022-04-24
"浦东新区","上海市浦东新区芳华路573弄",121.569065790218,31.2028810744024,2022-04-24
"浦东新区","上海市浦东新区芳华路580弄",121.56905797496,31.2025178374774,2022-04-24
"浦东新区","上海市浦东新区芳华路630弄",121.556559041925,31.2002051033578,2022-04-24
"浦东新区","上海市浦东新区芳华路63号工地生活区",121.558171590146,31.200731052684,2022-04-24
"浦东新区","上海市浦东新区芳华路673弄",121.569504971782,31.2036790478537,2022-04-24
"浦东新区","上海市浦东新区芳华路713弄",121.536884264815,31.1897022555378,2022-04-24
"浦东新区","上海市浦东新区芳华路739弄",121.536884264815,31.1897022555378,2022-04-24
"浦东新区","上海市浦东新区芳华路916弄",121.574598004701,31.2028538934567,2022-04-24
"浦东新区","上海市浦东新区芳华路933弄",121.536884264815,31.1897022555378,2022-04-24
"浦东新区","上海市浦东新区芳芯路210弄",121.562195280186,31.1977535428501,2022-04-24
"浦东新区","上海市浦东新区芳芯路251弄",121.563004024637,31.1984666927966,2022-04-24
"浦东新区","上海市浦东新区芳芯路312弄",121.564077499721,31.1971826328678,2022-04-24
"浦东新区","上海市浦东新区芳芯路363弄",121.536884264815,31.1897022555378,2022-04-24
"浦东新区","上海市浦东新区福山路102弄",121.53400762108,31.2373708107451,2022-04-24
"浦东新区","上海市浦东新区高宝路229弄",121.627287216084,31.2976695818787,2022-04-24
"浦东新区","上海市浦东新区高宝路379弄",121.5896261169,31.2815848989426,2022-04-24
"浦东新区","上海市浦东新区高宝路528弄",121.5896261169,31.2815848989426,2022-04-24
"浦东新区","上海市浦东新区高东二路118弄",121.632030269176,31.3299086703681,2022-04-24
"浦东新区","上海市浦东新区高东新路500弄",121.627889080775,31.3423616965753,2022-04-24
"浦东新区","上海市浦东新区高东镇灯塔村王家宅",121.667620055515,31.3180004789526,2022-04-24
"浦东新区","上海市浦东新区高东镇竞赛村龙稍宅",121.65845033253,31.3075214254193,2022-04-24
"浦东新区","上海市浦东新区高东镇竞赛村沈家宅",121.652243490609,31.3048216825485,2022-04-24
"浦东新区","上海市浦东新区高东镇踊跃村东孙家沟",121.664114328432,31.3120800578898,2022-04-24
"浦东新区","上海市浦东新区高荷路428号",121.583017013771,31.3429406639711,2022-04-24
"浦东新区","上海市浦东新区高科西路1655弄",121.536884264815,31.1897022555378,2022-04-24
"浦东新区","上海市浦东新区高科西路2111弄",121.5423303318,31.1941812247261,2022-04-24
"浦东新区","上海市浦东新区高科西路2757弄",121.560650913354,31.1958814887592,2022-04-24
"浦东新区","上海市浦东新区高科西路2763弄",121.559901007914,31.1968318840657,2022-04-24
"浦东新区","上海市浦东新区高科西路3000弄",121.570701963874,31.1958678972719,2022-04-24
"浦东新区","上海市浦东新区高科西路3030弄",121.569848753301,31.1958928407386,2022-04-24
"浦东新区","上海市浦东新区高科西路3050弄",121.569930409272,31.1959973252188,2022-04-24
"浦东新区","上海市浦东新区高科西路3060弄",121.570701963874,31.1958678972719,2022-04-24
"浦东新区","上海市浦东新区高桥镇仓房村仓房港",121.522547758028,31.3692983342485,2022-04-24
"浦东新区","上海市浦东新区高桥镇仓房村南沟头",121.520844031798,31.3689191717153,2022-04-24
"浦东新区","上海市浦东新区高桥镇仓房村平房基",121.51817543562,31.3668885176996,2022-04-24
"浦东新区","上海市浦东新区高桥镇高桥村陈家宅",121.586619578189,31.3450339838982,2022-04-24
"浦东新区","上海市浦东新区高桥镇凌桥村仓房浜",121.539055648894,31.3702961432909,2022-04-24
"浦东新区","上海市浦东新区高桥镇龙叶村叶家角",121.529631885111,31.3748765237523,2022-04-24
"浦东新区","上海市浦东新区高桥镇陆凌村西凌家宅",121.5817386352,31.3535668406377,2022-04-24
"浦东新区","上海市浦东新区高桥镇南塘村龚家宅",121.5746809183,31.345394276907,2022-04-24
"浦东新区","上海市浦东新区高桥镇南塘村顾家宅",121.5746809183,31.345394276907,2022-04-24
"浦东新区","上海市浦东新区高桥镇南塘村姚家宅",121.5746809183,31.345394276907,2022-04-24
"浦东新区","上海市浦东新区高桥镇三岔港村三岔港",121.514471272849,31.3715312688423,2022-04-24
"浦东新区","上海市浦东新区高桥镇西新村草镇",121.536259223841,31.3635495279183,2022-04-24
"浦东新区","上海市浦东新区高桥镇新建村钟家弄",121.584086087159,31.3661013421475,2022-04-24
"浦东新区","上海市浦东新区高桥镇新农村北凌家宅",121.564454608374,31.3630873201532,2022-04-24
"浦东新区","上海市浦东新区高桥镇新农村北项湾",121.560166996175,31.367679309467,2022-04-24
"浦东新区","上海市浦东新区高桥镇新农村南项湾",121.559824831607,31.3670772168427,2022-04-24
"浦东新区","上海市浦东新区高青路2861弄",121.53503303682,31.1680806914771,2022-04-24
"浦东新区","上海市浦东新区高青路4567弄",121.536884264815,31.1897022555378,2022-04-24
"浦东新区","上海市浦东新区龚华路35弄",121.652778790863,31.290487771739,2022-04-24
"浦东新区","上海市浦东新区龚华路479弄",121.693823986563,31.2655189744749,2022-04-24
"浦东新区","上海市浦东新区龚华路50弄",121.691832533078,31.2705828378796,2022-04-24
"浦东新区","上海市浦东新区龚新路549弄",121.691114786976,31.2646183552466,2022-04-24
"浦东新区","上海市浦东新区拱川路561弄",121.774859587635,31.0609104552718,2022-04-24
"浦东新区","上海市浦东新区拱海路79弄",121.746781611632,31.0755312765563,2022-04-24
"浦东新区","上海市浦东新区拱乐路2400弄",121.749606962122,31.067545829755,2022-04-24
"浦东新区","上海市浦东新区拱鸣路60弄",121.751365035836,31.0657498248022,2022-04-24
"浦东新区","上海市浦东新区古桐南路117弄",121.622987925913,31.2059399614524,2022-04-24
"浦东新区","上海市浦东新区崮山路157号",121.558485997074,31.2530718191383,2022-04-24
"浦东新区","上海市浦东新区崮山路322弄",121.559286117792,31.251792753022,2022-04-24
"浦东新区","上海市浦东新区崮山路717号",121.566756426413,31.2457458744099,2022-04-24
"浦东新区","上海市浦东新区崮山路95号",121.55737820672,31.2536873822811,2022-04-24
"浦东新区","上海市浦东新区崮山路968号",121.568139277915,31.2414287626101,2022-04-24
"浦东新区","上海市浦东新区关岳路229弄",121.594448041217,31.1273752275532,2022-04-24
"浦东新区","上海市浦东新区光明路222弄",121.622302967962,31.3377020692766,2022-04-24
"浦东新区","上海市浦东新区光泽路428弄",121.623076229345,31.3364001046861,2022-04-24
"浦东新区","上海市浦东新区广衍路18弄",121.757909011815,31.0454277986197,2022-04-24
"浦东新区","上海市浦东新区广益路15弄",121.771265197798,31.11523556736,2022-04-24
"浦东新区","上海市浦东新区归昌路351弄",121.5896261169,31.2815848989426,2022-04-24
"浦东新区","上海市浦东新区国展路767号工地生活区",121.492116566728,31.1869127920874,2022-04-24
"浦东新区","上海市浦东新区海基三路海洋四路交界口工地生活区",121.894828827476,30.9001927274634,2022-04-24
"浦东新区","上海市浦东新区海鸣路98弄",121.677548217842,31.2886278337477,2022-04-24
"浦东新区","上海市浦东新区海纳路129弄",121.67672465135,31.2983650765524,2022-04-24
"浦东新区","上海市浦东新区海鹏路301弄",121.680730914264,31.2953639830489,2022-04-24
"浦东新区","上海市浦东新区海容路99弄",121.680835027872,31.2869618891018,2022-04-24
"浦东新区","上海市浦东新区海顺路359弄",121.68936776242,31.2816070420314,2022-04-24
"浦东新区","上海市浦东新区海松路398弄",121.687490753057,31.2839344288311,2022-04-24
"浦东新区","上海市浦东新区海阳路1065弄",121.512534975323,31.1647564512598,2022-04-24
"浦东新区","上海市浦东新区海阳路1080弄",121.513439479141,31.1641353592278,2022-04-24
"浦东新区","上海市浦东新区海阳路860弄",121.509555295946,31.1632176186981,2022-04-24
"浦东新区","上海市浦东新区海阳路905弄",121.509962048681,31.1641832545308,2022-04-24
"浦东新区","上海市浦东新区航昌路199弄",121.615016362817,31.0849217326394,2022-04-24
"浦东新区","上海市浦东新区航昌路376弄",121.615217673082,31.0849722970713,2022-04-24
"浦东新区","上海市浦东新区航昌路489弄",121.616375094816,31.0804408738662,2022-04-24
"浦东新区","上海市浦东新区航城五路401弄",121.759354834533,31.152245366364,2022-04-24
"浦东新区","上海市浦东新区航鹤路1858弄",121.590976180251,31.0561511926496,2022-04-24
"浦东新区","上海市浦东新区航鹤路78弄",121.593565096731,31.0317988522941,2022-04-24
"浦东新区","上海市浦东新区航梅路525弄",121.580651056719,31.0306667698032,2022-04-24
"浦东新区","上海市浦东新区航梅路526弄",121.58752462099,31.028592642453,2022-04-24
"浦东新区","上海市浦东新区航瑞路388弄",121.598209066726,31.0806847387713,2022-04-24
"浦东新区","上海市浦东新区航三路航吉路交界口工地生活区",121.614290352304,31.045793267667,2022-04-24
"浦东新区","上海市浦东新区航头镇丰桥村檀香",121.60726299813,31.0110244377993,2022-04-24
"浦东新区","上海市浦东新区航头镇果园村",121.642441899529,31.025361102765,2022-04-24
"浦东新区","上海市浦东新区航头镇航东村航头",121.599367880834,31.036557643002,2022-04-24
"浦东新区","上海市浦东新区航头镇鹤东村沙东",121.602978260509,31.061148957304,2022-04-24
"浦东新区","上海市浦东新区航头镇鹤东村沿江",121.608037966294,31.0602733641974,2022-04-24
"浦东新区","上海市浦东新区航头镇梅园村沙北",121.591231748169,31.06555502677,2022-04-24
"浦东新区","上海市浦东新区航头镇牌楼村谈弄",121.56382300977,31.0616364770888,2022-04-24
"浦东新区","上海市浦东新区航头镇沈庄村大桥",121.574932717826,31.0810149863606,2022-04-24
"浦东新区","上海市浦东新区航头镇王楼村储楼",121.621475898079,31.0740691574058,2022-04-24
"浦东新区","上海市浦东新区合庆镇蔡路村包家宅",121.764207480898,31.2058888444051,2022-04-24
"浦东新区","上海市浦东新区合庆镇蔡路村东蔡家宅",121.751834430791,31.2301868682127,2022-04-24
"浦东新区","上海市浦东新区合庆镇蔡路村杨家宅",121.744404964744,31.2099848375333,2022-04-24
"浦东新区","上海市浦东新区合庆镇东风村潘家宅",121.702325999063,31.2335158558652,2022-04-24
"浦东新区","上海市浦东新区合庆镇前哨村包家宅",121.764207480898,31.2058888444051,2022-04-24
"浦东新区","上海市浦东新区合庆镇勤奋村九队新村",121.730730868441,31.2682454727655,2022-04-24
"浦东新区","上海市浦东新区合庆镇勤奋村徐家宅",121.740394030642,31.2551728670129,2022-04-24
"浦东新区","上海市浦东新区合庆镇勤奋村张家宅",121.732101682649,31.2614765761563,2022-04-24
"浦东新区","上海市浦东新区合庆镇勤益村徐家宅",121.716810366936,31.2151954706716,2022-04-24
"浦东新区","上海市浦东新区合庆镇青四村龚家宅",121.743695932205,31.2340538145526,2022-04-24
"浦东新区","上海市浦东新区合庆镇庆丰村东新宅",121.723719504105,31.2470521913717,2022-04-24
"浦东新区","上海市浦东新区合庆镇庆星村凤家码头",121.725707094876,31.2404364439951,2022-04-24
"浦东新区","上海市浦东新区合庆镇庆星村顾家宅",121.725707094876,31.2404364439951,2022-04-24
"浦东新区","上海市浦东新区合庆镇庆星村张家宅",121.740482334074,31.2418269684034,2022-04-24
"浦东新区","上海市浦东新区合庆镇奚家村",121.717943669167,31.2536196211407,2022-04-24
"浦东新区","上海市浦东新区合庆镇向东村顾家宅",121.750008504685,31.2419070879143,2022-04-24
"浦东新区","上海市浦东新区合庆镇营房村高路二宅",121.742081317882,31.2162274328676,2022-04-24
"浦东新区","上海市浦东新区合庆镇营房村青晏二宅",121.740505510356,31.2144043125402,2022-04-24
"浦东新区","上海市浦东新区合庆镇营房村云镇宅",121.742081317882,31.2162274328676,2022-04-24
"浦东新区","上海市浦东新区合庆镇永红村丁家宅",121.716091812359,31.2408407518082,2022-04-24
"浦东新区","上海市浦东新区合庆镇永红村薛家宅",121.716091812359,31.2408407518082,2022-04-24
"浦东新区","上海市浦东新区合庆镇跃丰村",121.715041333895,31.2305627016793,2022-04-24
"浦东新区","上海市浦东新区合庆镇跃进村凤家宅",121.716804617781,31.2152725246536,2022-04-24
"浦东新区","上海市浦东新区合庆镇跃进村新宅",121.709297568464,31.2141929138321,2022-04-24
"浦东新区","上海市浦东新区和佳路105弄",121.520302084084,31.1332973749386,2022-04-24
"浦东新区","上海市浦东新区和炯路501弄",121.514792417069,31.1304419100536,2022-04-24
"浦东新区","上海市浦东新区和炯路601弄",121.51595491423,31.1306111492492,2022-04-24
"浦东新区","上海市浦东新区和炯路77弄",121.525530311983,31.1391594184198,2022-04-24
"浦东新区","上海市浦东新区和龙路55弄",121.579757871748,31.3449552012399,2022-04-24
"浦东新区","上海市浦东新区和龙路619弄",121.573083461612,31.3565938909936,2022-04-24
"浦东新区","上海市浦东新区和融路55弄",121.506367658844,31.1307994757948,2022-04-24
"浦东新区","上海市浦东新区菏泽路25弄",121.59678004232,31.2796925327225,2022-04-24
"浦东新区","上海市浦东新区菏泽路58弄",121.596685001597,31.2787130424234,2022-04-24
"浦东新区","上海市浦东新区鹤波路航昌路交界口工地生活区",121.61540487995,31.0825477251752,2022-04-24
"浦东新区","上海市浦东新区鹤驰路88弄",121.600970727355,31.0863948938048,2022-04-24
"浦东新区","上海市浦东新区鹤洁路625弄",121.613228734853,31.0753186370206,2022-04-24
"浦东新区","上海市浦东新区鹤沙路588弄",121.601468029285,31.0880218851386,2022-04-24
"浦东新区","上海市浦东新区鹤永路599弄",121.609669828083,31.0803451524658,2022-04-24
"浦东新区","上海市浦东新区恒庆路曹卫家路交界口工地生活区",121.719515524149,31.2512910931572,2022-04-24
"浦东新区","上海市浦东新区横桥路69弄",121.586170425434,31.1142408301623,2022-04-24
"浦东新区","上海市浦东新区虹盛路250弄",121.687377836054,31.2476231831513,2022-04-24
"浦东新区","上海市浦东新区洪山路121弄",121.505002773452,31.1847097022013,2022-04-24
"浦东新区","上海市浦东新区洪山路1889弄",121.51638699918,31.1575965710788,2022-04-24
"浦东新区","上海市浦东新区洪山路237弄",121.506882477732,31.1789855165391,2022-04-24
"浦东新区","上海市浦东新区洪山路851弄",121.511211771306,31.1666243375901,2022-04-24
"浦东新区","上海市浦东新区沪南公路5192号",121.595382997591,31.0583018192039,2022-04-24
"浦东新区","上海市浦东新区沪南路1168弄",121.536884264815,31.1897022555378,2022-04-24
"浦东新区","上海市浦东新区沪南路2727弄",121.582921973049,31.1481048184037,2022-04-24
"浦东新区","上海市浦东新区沪南路3150弄",121.572258906984,31.1285035199315,2022-04-24
"浦东新区","上海市浦东新区沪南路3219弄",121.574558389428,31.1299938497428,2022-04-24
"浦东新区","上海市浦东新区花木街道龙王庙村南杨家堂",121.558963805775,31.202723239483,2022-04-24
"浦东新区","上海市浦东新区花木路500弄",121.549098435004,31.2178118734071,2022-04-24
"浦东新区","上海市浦东新区花山路300弄",121.575701662851,31.3522273211378,2022-04-24
"浦东新区","上海市浦东新区华安路24弄",121.521983622168,31.2173589031085,2022-04-24
"浦东新区","上海市浦东新区华春路100弄",121.526840041416,31.2131798456849,2022-04-24
"浦东新区","上海市浦东新区华春路成山路交界口工地生活区",121.515782529402,31.1782385421865,2022-04-24
"浦东新区","上海市浦东新区华东路齐友路交界口工地生活区",121.67796045024,31.2111874952526,2022-04-24
"浦东新区","上海市浦东新区华丰路50弄",121.514504959306,31.1974954638598,2022-04-24
"浦东新区","上海市浦东新区华夏东路1801弄",121.691875651743,31.2059368728098,2022-04-24
"浦东新区","上海市浦东新区华夏东路2110弄",121.699235019633,31.2053828459045,2022-04-24
"浦东新区","上海市浦东新区华夏东路2170弄",121.699897250455,31.2057116332773,2022-04-24
"浦东新区","上海市浦东新区华夏东路860弄",121.672341549276,31.2003301237338,2022-04-24
"浦东新区","上海市浦东新区华夏二路1255弄",121.69800191566,31.1828119771678,2022-04-24
"浦东新区","上海市浦东新区华夏二路1278弄",121.696026452013,31.1815117148297,2022-04-24
"浦东新区","上海市浦东新区华夏二路200弄",121.690606435888,31.2000575343113,2022-04-24
"浦东新区","上海市浦东新区华绣路255弄",121.535849327037,31.1908371353874,2022-04-24
"浦东新区","上海市浦东新区环林东路270弄",121.532781344229,31.1548928849131,2022-04-24
"浦东新区","上海市浦东新区环林东路271弄",121.533164112206,31.1552989527053,2022-04-24
"浦东新区","上海市浦东新区环林东路799弄",121.538872933553,31.1493744070405,2022-04-24
"浦东新区","上海市浦东新区环林东路875弄",121.537591500743,31.1471015438154,2022-04-24
"浦东新区","上海市浦东新区环林东路879弄",121.536437537485,31.1442781008229,2022-04-24
"浦东新区","上海市浦东新区环林东路906弄",121.535471409909,31.1479283479325,2022-04-24
"浦东新区","上海市浦东新区环林西路608弄",121.526498146339,31.1465056005873,2022-04-24
"浦东新区","上海市浦东新区环林西路848弄",121.533353025855,31.1454492272542,2022-04-24
"浦东新区","上海市浦东新区环桥路1136弄",121.584859707864,31.1200779398788,2022-04-24
"浦东新区","上海市浦东新区环桥路1481弄",121.584859707864,31.1200779398788,2022-04-24
"浦东新区","上海市浦东新区环桥路1488弄",121.584859707864,31.1200779398788,2022-04-24
"浦东新区","上海市浦东新区环庆南路336弄",121.734689790654,31.2324718104119,2022-04-24
"浦东新区","上海市浦东新区环庆中路168弄",121.728014212918,31.2391094252368,2022-04-24
"浦东新区","上海市浦东新区惠南镇城北村",121.753554835177,31.0617110277979,2022-04-24
"浦东新区","上海市浦东新区惠南镇城南村",121.747588200149,31.0293261852272,2022-04-24
"浦东新区","上海市浦东新区惠南镇红光村",121.779501491527,31.0693177512982,2022-04-24
"浦东新区","上海市浦东新区惠南镇黄路村富强",121.772434252589,31.035656061793,2022-04-24
"浦东新区","上海市浦东新区惠南镇惠东村",121.783071627116,31.0463207008159,2022-04-24
"浦东新区","上海市浦东新区惠南镇陆楼村长路",121.780804034517,31.0810009735505,2022-04-24
"浦东新区","上海市浦东新区惠南镇勤丰村",121.774606624804,31.0533759858684,2022-04-24
"浦东新区","上海市浦东新区惠南镇团结村",121.783774012194,31.0272369426051,2022-04-24
"浦东新区","上海市浦东新区惠南镇西门村",121.748019117303,31.0603939308044,2022-04-24
"浦东新区","上海市浦东新区惠南镇徐庙村",121.721202721558,31.0362185164271,2022-04-24
"浦东新区","上海市浦东新区季景北路180弄",121.590926503956,31.3478491358925,2022-04-24
"浦东新区","上海市浦东新区济阳路333弄",121.489684239082,31.1668087294799,2022-04-24
"浦东新区","上海市浦东新区济阳路65弄",121.488308933346,31.1730161980026,2022-04-24
"浦东新区","上海市浦东新区建中路171弄",121.525530311983,31.1391594184198,2022-04-24
"浦东新区","上海市浦东新区江东路238号",121.554374003603,31.3659368145242,2022-04-24
"浦东新区","上海市浦东新区江东路25号",121.555930138237,31.3688276760728,2022-04-24
"浦东新区","上海市浦东新区交通新村",121.769394207082,31.0422929828331,2022-04-24
"浦东新区","上海市浦东新区界浜路55弄",121.649959998003,31.1337394692756,2022-04-24
"浦东新区","上海市浦东新区金高路2131弄",121.61704653327,31.2674719711318,2022-04-24
"浦东新区","上海市浦东新区金高路988弄",121.61620527016,31.292764484741,2022-04-24
"浦东新区","上海市浦东新区金沪路1218弄",121.610691291278,31.246915347325,2022-04-24
"浦东新区","上海市浦东新区金槐路金粤路交界口工地生活区",121.635730838725,31.2448571053481,2022-04-24
"浦东新区","上海市浦东新区金吉路33弄",121.652778790863,31.290487771739,2022-04-24
"浦东新区","上海市浦东新区金口路155弄",121.584244997404,31.2559342768333,2022-04-24
"浦东新区","上海市浦东新区金口路411弄",121.586485461176,31.2531180482564,2022-04-24
"浦东新区","上海市浦东新区金口路44弄",121.582548637279,31.2553582422434,2022-04-24
"浦东新区","上海市浦东新区金葵路1115弄",121.602138614349,31.2442502059109,2022-04-24
"浦东新区","上海市浦东新区金葵路1315弄",121.602138614349,31.2442502059109,2022-04-24
"浦东新区","上海市浦东新区金葵路560弄",121.62562535089,31.2441960224044,2022-04-24
"浦东新区","上海市浦东新区金睦路353弄",121.681557714655,31.293510699442,2022-04-24
"浦东新区","上海市浦东新区金桥路1498弄",121.595704770625,31.2565196459679,2022-04-24
"浦东新区","上海市浦东新区金桥路1502弄",121.594345454727,31.2547025586795,2022-04-24
"浦东新区","上海市浦东新区金桥路1504弄",121.596805105044,31.2559887622364,2022-04-24
"浦东新区","上海市浦东新区金桥路1506弄",121.596460784542,31.2555643772158,2022-04-24
"浦东新区","上海市浦东新区金桥路226弄",121.621784825343,31.2606638156741,2022-04-24
"浦东新区","上海市浦东新区金桥路2552弄",121.609184383785,31.2399130333655,2022-04-24
"浦东新区","上海市浦东新区金桥路2618号",121.610079994379,31.2389558967816,2022-04-24
"浦东新区","上海市浦东新区金桥路301弄",121.578617113384,31.2728790178052,2022-04-24
"浦东新区","上海市浦东新区金桥路825号",121.585023289297,31.2672150103731,2022-04-24
"浦东新区","上海市浦东新区金桥路899弄",121.621784825343,31.2606638156741,2022-04-24
"浦东新区","上海市浦东新区金桥路989弄",121.621784825343,31.2606638156741,2022-04-24
"浦东新区","上海市浦东新区金台路181弄",121.5896261169,31.2815848989426,2022-04-24
"浦东新区","上海市浦东新区金皖路55号工地生活区",121.620628975644,31.2648998623864,2022-04-24
"浦东新区","上海市浦东新区金湘路201弄",121.619764626082,31.261871069581,2022-04-24
"浦东新区","上海市浦东新区金湘路225弄",121.619869907488,31.2617793916801,2022-04-24
"浦东新区","上海市浦东新区金晓路289弄",121.684608090675,31.2812295286536,2022-04-24
"浦东新区","上海市浦东新区金杨路220弄",121.581187165448,31.2530563837015,2022-04-24
"浦东新区","上海市浦东新区金杨路308弄",121.583875524347,31.253610128403,2022-04-24
"浦东新区","上海市浦东新区金杨路660弄",121.588399929879,31.2575016841727,2022-04-24
"浦东新区","上海市浦东新区金杨路685弄",121.58834306714,31.2582554349061,2022-04-24
"浦东新区","上海市浦东新区金杨路757弄",121.588991553888,31.259965802193,2022-04-24
"浦东新区","上海市浦东新区金杨路785弄",121.589437562574,31.2596987884712,2022-04-24
"浦东新区","上海市浦东新区金钻路398弄",121.677268934659,31.2931799063564,2022-04-24
"浦东新区","上海市浦东新区金钻路669弄",121.681134073777,31.2897694600404,2022-04-24
"浦东新区","上海市浦东新区锦安东路280弄",121.550337467793,31.2080117999238,2022-04-24
"浦东新区","上海市浦东新区锦安东路567弄",121.546611420495,31.2050282334068,2022-04-24
"浦东新区","上海市浦东新区锦和路289弄",121.54364599005,31.2106408345678,2022-04-24
"浦东新区","上海市浦东新区锦和路99弄",121.538124016249,31.212289840715,2022-04-24
"浦东新区","上海市浦东新区锦康路389弄",121.543707254485,31.2158963661811,2022-04-24
"浦东新区","上海市浦东新区锦绣路1650弄",121.546004042013,31.2188614868018,2022-04-24
"浦东新区","上海市浦东新区锦绣路3088弄",121.546294823507,31.1857314194091,2022-04-24
"浦东新区","上海市浦东新区锦绣路3336弄",121.547059550988,31.1835749798571,2022-04-24
"浦东新区","上海市浦东新区锦绣路3338弄",121.545288092522,31.1854903757833,2022-04-24
"浦东新区","上海市浦东新区京浦路298弄",121.576664376866,31.1602387626586,2022-04-24
"浦东新区","上海市浦东新区京浦路82弄",121.573340197326,31.1596915729849,2022-04-24
"浦东新区","上海市浦东新区泾东一村",121.563932423381,31.2503981319377,2022-04-24
"浦东新区","上海市浦东新区靖海路239弄",121.774600336665,31.0542146741504,2022-04-24
"浦东新区","上海市浦东新区靖海南路666弄",121.772491384819,31.0395149699682,2022-04-24
"浦东新区","上海市浦东新区居家桥路151弄",121.56804217109,31.2667841172325,2022-04-24
"浦东新区","上海市浦东新区居家桥路520弄",121.570220560936,31.2609139812405,2022-04-24
"浦东新区","上海市浦东新区巨峰路176弄",121.603201669089,31.285412489154,2022-04-24
"浦东新区","上海市浦东新区巨峰路90弄",121.602480239934,31.2847557049287,2022-04-24
"浦东新区","上海市浦东新区巨峰路997弄",121.623727321178,31.2870005408357,2022-04-24
"浦东新区","上海市浦东新区康桥东路1244号",121.637737129222,31.1624473560558,2022-04-24
"浦东新区","上海市浦东新区康桥路90弄",121.584859707864,31.1200779398788,2022-04-24
"浦东新区","上海市浦东新区康桥镇百曲村",121.554663071129,31.1179027476089,2022-04-24
"浦东新区","上海市浦东新区康桥镇叠桥村",121.622828746177,31.1338499732159,2022-04-24
"浦东新区","上海市浦东新区康桥镇花墙村",121.55274169266,31.1563281752622,2022-04-24
"浦东新区","上海市浦东新区康桥镇火箭村",121.614989413652,31.1451293459159,2022-04-24
"浦东新区","上海市浦东新区康桥镇人南村",121.633575534315,31.1452932272884,2022-04-24
"浦东新区","上海市浦东新区康桥镇太平村",121.560021740174,31.1293839649748,2022-04-24
"浦东新区","上海市浦东新区康桥镇汤巷村",121.610593825131,31.1445646831543,2022-04-24
"浦东新区","上海市浦东新区康桥镇新苗村",121.643903173102,31.1277161896651,2022-04-24
"浦东新区","上海市浦东新区康桥镇秀龙村",121.569139900423,31.1326056758834,2022-04-24
"浦东新区","上海市浦东新区康桥镇沿北村",121.608678997106,31.1451966447131,2022-04-24
"浦东新区","上海市浦东新区康杉路118号",121.56435929816,31.1631548133993,2022-04-24
"浦东新区","上海市浦东新区康沈路1199弄",121.584859707864,31.1200779398788,2022-04-24
"浦东新区","上海市浦东新区康沈路2262弄",121.58731262089,31.1071241716612,2022-04-24
"浦东新区","上海市浦东新区康沈路250弄",121.584859707864,31.1200779398788,2022-04-24
"浦东新区","上海市浦东新区康沈路400弄",121.584859707864,31.1200779398788,2022-04-24
"浦东新区","上海市浦东新区康沈路465弄",121.584859707864,31.1200779398788,2022-04-24
"浦东新区","上海市浦东新区康新公路秀浦路交界口工地生活区",121.626703137841,31.1226127570488,2022-04-24
"浦东新区","上海市浦东新区康意路御桥路交界口工地生活区",121.542390069116,31.1558117884755,2022-04-24
"浦东新区","上海市浦东新区莱阳路201弄",121.586405332325,31.2794549715842,2022-04-24
"浦东新区","上海市浦东新区莱阳路218号",121.5896261169,31.2815848989426,2022-04-24
"浦东新区","上海市浦东新区莱阳路301弄",121.585947196514,31.2803576852639,2022-04-24
"浦东新区","上海市浦东新区莱阳路350弄",121.588321507808,31.2804560573812,2022-04-24
"浦东新区","上海市浦东新区莱阳路451弄",121.58929185742,31.2821589973274,2022-04-24
"浦东新区","上海市浦东新区兰城路115弄",121.585504152237,31.272452471814,2022-04-24
"浦东新区","上海市浦东新区兰嵩路360弄",121.599493553774,31.3291411548124,2022-04-24
"浦东新区","上海市浦东新区蓝村路30弄",121.538649794464,31.2167494318577,2022-04-24
"浦东新区","上海市浦东新区蓝村路31弄",121.539160391316,31.2186428408334,2022-04-24
"浦东新区","上海市浦东新区蓝村路471弄",121.53360158699,31.2179022047027,2022-04-24
"浦东新区","上海市浦东新区蓝村路501弄",121.531969234115,31.218845395827,2022-04-24
"浦东新区","上海市浦东新区蓝村路60弄",121.536988198762,31.2147912836648,2022-04-24
"浦东新区","上海市浦东新区崂山路551弄",121.528755677916,31.2325728575384,2022-04-24
"浦东新区","上海市浦东新区崂山路571弄",121.529543491848,31.2323093937171,2022-04-24
"浦东新区","上海市浦东新区崂山路644弄",121.531738321701,31.2287727465936,2022-04-24
"浦东新区","上海市浦东新区崂山路645弄",121.531348816432,31.2278054602837,2022-04-24
"浦东新区","上海市浦东新区崂山路80弄",121.523114678636,31.2441511781966,2022-04-24
"浦东新区","上海市浦东新区崂山三村",121.526396817478,31.2389325085635,2022-04-24
"浦东新区","上海市浦东新区崂山四村",121.524541996261,31.2411728108698,2022-04-24
"浦东新区","上海市浦东新区老港镇建港村港北",121.853855586047,31.0334883638219,2022-04-24
"浦东新区","上海市浦东新区历城路100弄",121.4979155023,31.1798977733905,2022-04-24
"浦东新区","上海市浦东新区历城路22弄",121.536884264815,31.1897022555378,2022-04-24
"浦东新区","上海市浦东新区历城路81弄",121.499296647022,31.1810995815832,2022-04-24
"浦东新区","上海市浦东新区丽雅路122号",121.688946906289,31.2417564199527,2022-04-24
"浦东新区","上海市浦东新区利川路421弄",121.688665736664,31.2141557761719,2022-04-24
"浦东新区","上海市浦东新区利川路王桥路交界口工地生活区",121.698632705789,31.2151713816381,2022-04-24
"浦东新区","上海市浦东新区利津路185弄",121.587348373449,31.284879686517,2022-04-24
"浦东新区","上海市浦东新区利津路385弄",121.590995673481,31.2827648790811,2022-04-24
"浦东新区","上海市浦东新区利津路53弄",121.584910282464,31.2856925449248,2022-04-24
"浦东新区","上海市浦东新区利津路729弄",121.596582954092,31.2806785708705,2022-04-24
"浦东新区","上海市浦东新区连波路228弄",121.558844420973,31.1979581830761,2022-04-24
"浦东新区","上海市浦东新区连波路26弄",121.558484380125,31.2008978485061,2022-04-24
"浦东新区","上海市浦东新区莲溪路1099弄",121.569863395681,31.1817477483468,2022-04-24
"浦东新区","上海市浦东新区莲溪路126弄",121.56566040386,31.1934831785214,2022-04-24
"浦东新区","上海市浦东新区莲溪路430弄",121.566663990776,31.188726533627,2022-04-24
"浦东新区","上海市浦东新区莲溪路780弄",121.56871715785,31.1834782049839,2022-04-24
"浦东新区","上海市浦东新区莲园路180弄",121.557978544292,31.1911440409899,2022-04-24
"浦东新区","上海市浦东新区莲园路498弄",121.536884264815,31.1897022555378,2022-04-24
"浦东新区","上海市浦东新区莲园路77弄",121.551796944756,31.1914602129475,2022-04-24
"浦东新区","上海市浦东新区莲中路255弄",121.565445529182,31.1882809912505,2022-04-24
"浦东新区","上海市浦东新区林德路718弄",121.517756825252,31.1348698488989,2022-04-24
"浦东新区","上海市浦东新区林鸣路326弄",121.532165645632,31.1385712292048,2022-04-24
"浦东新区","上海市浦东新区林浦路1240弄",121.525530311983,31.1391594184198,2022-04-24
"浦东新区","上海市浦东新区林展路267弄",121.513993014996,31.133678885242,2022-04-24
"浦东新区","上海市浦东新区林展路278弄",121.512901034818,31.1328058217041,2022-04-24
"浦东新区","上海市浦东新区林展路411弄",121.515681739524,31.128169902288,2022-04-24
"浦东新区","上海市浦东新区临沂北路100弄",121.526189847888,31.212369290622,2022-04-24
"浦东新区","上海市浦东新区临沂北路150弄",121.523465287276,31.2115689976617,2022-04-24
"浦东新区","上海市浦东新区临沂路151弄",121.518576978183,31.2000085762403,2022-04-24
"浦东新区","上海市浦东新区临沂路181弄",121.520668143579,31.1975792508032,2022-04-24
"浦东新区","上海市浦东新区临沂路280弄",121.516029653248,31.198943924921,2022-04-24
"浦东新区","上海市浦东新区临沂路301弄",121.516514468732,31.1967603750118,2022-04-24
"浦东新区","上海市浦东新区临沂路81弄",121.525886040965,31.2013416320549,2022-04-24
"浦东新区","上海市浦东新区临沂路8弄",121.550454606832,31.2273482924363,2022-04-24
"浦东新区","上海市浦东新区灵山路1415弄",121.570780206284,31.2449987378052,2022-04-24
"浦东新区","上海市浦东新区灵山路1671弄",121.572311008704,31.2457713448707,2022-04-24
"浦东新区","上海市浦东新区灵山路1724弄",121.574529733483,31.2463031356353,2022-04-24
"浦东新区","上海市浦东新区灵山路1726弄",121.574996852348,31.2465115288693,2022-04-24
"浦东新区","上海市浦东新区灵山路730弄",121.557006757391,31.2375628596093,2022-04-24
"浦东新区","上海市浦东新区灵岩路56弄",121.500072962644,31.1725382931417,2022-04-24
"浦东新区","上海市浦东新区灵岩南路1180弄",121.50701093542,31.1460322738654,2022-04-24
"浦东新区","上海市浦东新区灵岩南路144号",121.500507922172,31.1658272846062,2022-04-24
"浦东新区","上海市浦东新区灵岩南路156弄",121.500710759556,31.1648391859701,2022-04-24
"浦东新区","上海市浦东新区灵岩南路380弄",121.503294286203,31.1590254851873,2022-04-24
"浦东新区","上海市浦东新区灵岩南路499弄",121.504091801834,31.156965620083,2022-04-24
"浦东新区","上海市浦东新区灵岩南路769弄",121.504644708876,31.155998287562,2022-04-24
"浦东新区","上海市浦东新区凌河路188弄",121.602161970292,31.2819038514981,2022-04-24
"浦东新区","上海市浦东新区凌河路354弄",121.606028636529,31.2799354941061,2022-04-24
"浦东新区","上海市浦东新区凌河路38弄",121.600753606913,31.2825696826637,2022-04-24
"浦东新区","上海市浦东新区凌河路420弄",121.605932248348,31.2799170540613,2022-04-24
"浦东新区","上海市浦东新区凌河路618弄",121.608152859568,31.276965751274,2022-04-24
"浦东新区","上海市浦东新区凌兆路127弄",121.500027777877,31.1477960721254,2022-04-24
"浦东新区","上海市浦东新区凌兆路256弄",121.50210214496,31.147628872766,2022-04-24
"浦东新区","上海市浦东新区凌兆路285弄",121.525530311983,31.1391594184198,2022-04-24
"浦东新区","上海市浦东新区凌兆路334弄",121.505458214346,31.1486761817732,2022-04-24
"浦东新区","上海市浦东新区凌兆路379弄",121.525530311983,31.1391594184198,2022-04-24
"浦东新区","上海市浦东新区凌兆路396弄",121.525530311983,31.1391594184198,2022-04-24
"浦东新区","上海市浦东新区凌兆路500弄",121.50674692343,31.1491084685835,2022-04-24
"浦东新区","上海市浦东新区凌兆路530弄",121.509243899221,31.1473446768569,2022-04-24
"浦东新区","上海市浦东新区凌兆路586弄",121.525530311983,31.1391594184198,2022-04-24
"浦东新区","上海市浦东新区凌兆路711弄",121.513908035295,31.1479748607597,2022-04-24
"浦东新区","上海市浦东新区凌兆路88弄",121.497951075199,31.1466177120683,2022-04-24
"浦东新区","上海市浦东新区柳埠路135弄",121.588934241996,31.2688910299805,2022-04-24
"浦东新区","上海市浦东新区龙东大道5401弄",121.688327075487,31.240136029345,2022-04-24
"浦东新区","上海市浦东新区龙东大道6459号",121.711305011788,31.2448078619694,2022-04-24
"浦东新区","上海市浦东新区龙东大道云山路交界口工地生活区",121.657993454348,31.2334182062668,2022-04-24
"浦东新区","上海市浦东新区龙汇路168号工地生活区",121.557894373066,31.2051885689342,2022-04-24
"浦东新区","上海市浦东新区龙居路147号",121.569253176748,31.2587749614111,2022-04-24
"浦东新区","上海市浦东新区龙居路150弄",121.568293966124,31.2579189604655,2022-04-24
"浦东新区","上海市浦东新区龙居路180弄",121.568971737631,31.2585512381558,2022-04-24
"浦东新区","上海市浦东新区龙居路191弄",121.569897171968,31.2579176485215,2022-04-24
"浦东新区","上海市浦东新区龙居路30弄",121.5896261169,31.2815848989426,2022-04-24
"浦东新区","上海市浦东新区龙阳路1188号",121.537174956478,31.2042222743912,2022-04-24
"浦东新区","上海市浦东新区龙阳路158号工地生活区",121.518246401755,31.2084501447872,2022-04-24
"浦东新区","上海市浦东新区芦潮路333弄",121.862560974913,30.8687742507213,2022-04-24
"浦东新区","上海市浦东新区罗山路108弄",121.558879454888,31.2546415897529,2022-04-24
"浦东新区","上海市浦东新区罗山路1502弄",121.575171482939,31.2348882658017,2022-04-24
"浦东新区","上海市浦东新区绿林路320弄",121.554834744499,31.1761626467343,2022-04-24
"浦东新区","上海市浦东新区绿林路50弄",121.554947032687,31.1785308909384,2022-04-24
"浦东新区","上海市浦东新区绿林路51弄",121.555202959927,31.1808524243444,2022-04-24
"浦东新区","上海市浦东新区绿林路52弄",121.553615384599,31.1786337727658,2022-04-24
"浦东新区","上海市浦东新区茂兴路98号",121.520202731495,31.2148484953414,2022-04-24
"浦东新区","上海市浦东新区梅花路168弄",121.529696185109,31.2072012517119,2022-04-24
"浦东新区","上海市浦东新区苗圃路463弄",121.556692440293,31.242846750349,2022-04-24
"浦东新区","上海市浦东新区苗桥路455号生活区",121.635618370875,31.1329179495431,2022-04-24
"浦东新区","上海市浦东新区妙川路1000弄",121.710073524764,31.1843022942824,2022-04-24
"浦东新区","上海市浦东新区民春路501弄",121.652778790863,31.290487771739,2022-04-24
"浦东新区","上海市浦东新区民冬路169号生活区",121.660902796403,31.2925156166073,2022-04-24
"浦东新区","上海市浦东新区民民路8号",121.65751447785,31.2769468476981,2022-04-24
"浦东新区","上海市浦东新区民区路260弄",121.662034391854,31.2795043510196,2022-04-24
"浦东新区","上海市浦东新区民生路423号",121.549549653861,31.2461534009509,2022-04-24
"浦东新区","上海市浦东新区民唐路秦家港路交界口工地生活区",121.697451164552,31.2762273516085,2022-04-24
"浦东新区","上海市浦东新区民同路293弄",121.652778790863,31.290487771739,2022-04-24
"浦东新区","上海市浦东新区民雪路108弄",121.652778790863,31.290487771739,2022-04-24
"浦东新区","上海市浦东新区民雪路918弄",121.665106057715,31.2764061266504,2022-04-24
"浦东新区","上海市浦东新区民耀路268弄",121.659229253238,31.2782094438455,2022-04-24
"浦东新区","上海市浦东新区民耀路391弄",121.652778790863,31.290487771739,2022-04-24
"浦东新区","上海市浦东新区民耀路97弄",121.659507907607,31.2807116700925,2022-04-24
"浦东新区","上海市浦东新区牟平路56弄",121.603134745329,31.2714599423713,2022-04-24
"浦东新区","上海市浦东新区牡丹路165弄",121.552244480561,31.2137752108178,2022-04-24
"浦东新区","上海市浦东新区牡丹路186弄",121.552918838507,31.2123543117331,2022-04-24
"浦东新区","上海市浦东新区南曹路901弄",121.670398694119,31.2084526156349,2022-04-24
"浦东新区","上海市浦东新区南汇新城镇庙港村",121.869102794959,30.8797841632042,2022-04-24
"浦东新区","上海市浦东新区南林路584弄",121.529067569589,31.1438546774973,2022-04-24
"浦东新区","上海市浦东新区南六公路399弄",121.713108988913,31.0675268839181,2022-04-24
"浦东新区","上海市浦东新区南码头路1120弄",121.520170572157,31.1914465435909,2022-04-24
"浦东新区","上海市浦东新区南码头路1136弄",121.519727887202,31.1898749404218,2022-04-24
"浦东新区","上海市浦东新区南码头路1186弄",121.518999181772,31.1884760755886,2022-04-24
"浦东新区","上海市浦东新区南码头路1288弄",121.520851757226,31.1876919514754,2022-04-24
"浦东新区","上海市浦东新区南码头路1351弄",121.52195128317,31.1860580360085,2022-04-24
"浦东新区","上海市浦东新区南码头路144弄",121.514083474361,31.2046377807221,2022-04-24
"浦东新区","上海市浦东新区南码头路1621弄",121.523180793921,31.1816884310791,2022-04-24
"浦东新区","上海市浦东新区南码头路1675弄",121.520848882648,31.1809040184718,2022-04-24
"浦东新区","上海市浦东新区南码头路193弄",121.515512588596,31.2047431820535,2022-04-24
"浦东新区","上海市浦东新区南码头路450弄",121.516319536436,31.2003681163043,2022-04-24
"浦东新区","上海市浦东新区南码头路451弄",121.516514289071,31.2008203193739,2022-04-24
"浦东新区","上海市浦东新区南码头路56号",121.512973887395,31.2060730818495,2022-04-24
"浦东新区","上海市浦东新区南桥路237弄",121.71515946107,31.1975804091475,2022-04-24
"浦东新区","上海市浦东新区南桥路297弄",121.71286069727,31.1970505037396,2022-04-24
"浦东新区","上海市浦东新区南桥路707弄",121.702515811017,31.1948240497102,2022-04-24
"浦东新区","上海市浦东新区南泉北路101弄",121.522040215415,31.244123854865,2022-04-24
"浦东新区","上海市浦东新区南泉北路1040弄",121.526876422789,31.2317676424559,2022-04-24
"浦东新区","上海市浦东新区南泉北路301弄",121.523199299015,31.2399847410265,2022-04-24
"浦东新区","上海市浦东新区南泉路1200弄",121.528831405071,31.2192987772065,2022-04-24
"浦东新区","上海市浦东新区南泉路1211弄",121.529722254645,31.2192635716987,2022-04-24
"浦东新区","上海市浦东新区南泉路1317号",121.529207705249,31.2162712867625,2022-04-24
"浦东新区","上海市浦东新区南泉路1320弄",121.526560398911,31.2157341523422,2022-04-24
"浦东新区","上海市浦东新区南泉路50号",121.525885681642,31.2285010119443,2022-04-24
"浦东新区","上海市浦东新区南团公路858弄",121.768831328849,31.0299764821392,2022-04-24
"浦东新区","上海市浦东新区南祝路258弄",121.761885989968,31.1259748896737,2022-04-24
"浦东新区","上海市浦东新区泥城镇彭庙村学士",121.792459279017,30.9099538466279,2022-04-24
"浦东新区","上海市浦东新区泥城镇人民村高桥",121.830183708739,30.9135139531703,2022-04-24
"浦东新区","上海市浦东新区泥城镇新泐村彭六",121.810576304542,30.9065705292968,2022-04-24
"浦东新区","上海市浦东新区泥城镇中泐村北泐",121.794943632736,30.9317175751623,2022-04-24
"浦东新区","上海市浦东新区年家浜路339弄",121.583280127455,31.1206381899771,2022-04-24
"浦东新区","上海市浦东新区年家浜路425弄",121.578911038946,31.1200416923784,2022-04-24
"浦东新区","上海市浦东新区年家浜路470号",121.578498626887,31.1207432992937,2022-04-24
"浦东新区","上海市浦东新区年家浜路501弄",121.575348089802,31.1189097431462,2022-04-24
"浦东新区","上海市浦东新区宁桥路825号",121.626860520966,31.2591913831259,2022-04-24
"浦东新区","上海市浦东新区宁阳路14弄",121.522733437777,31.2174477679163,2022-04-24
"浦东新区","上海市浦东新区鹏飞路333弄",121.536884264815,31.1897022555378,2022-04-24
"浦东新区","上海市浦东新区鹏飞路426弄",121.561569161246,31.1777109990674,2022-04-24
"浦东新区","上海市浦东新区浦城路366弄",121.519347814141,31.2336685441239,2022-04-24
"浦东新区","上海市浦东新区浦城路377弄",121.529696185109,31.2072012517119,2022-04-24
"浦东新区","上海市浦东新区浦城路580弄",121.521080555639,31.230158967011,2022-04-24
"浦东新区","上海市浦东新区浦电路108弄",121.526721914242,31.2244347020154,2022-04-24
"浦东新区","上海市浦东新区浦电路149弄",121.527706996064,31.2244778572583,2022-04-24
"浦东新区","上海市浦东新区浦电路218号",121.530503780439,31.2254074271682,2022-04-24
"浦东新区","上海市浦东新区浦电路221号",121.530044566662,31.2249883073877,2022-04-24
"浦东新区","上海市浦东新区浦电路29弄",121.521798301741,31.2219827721666,2022-04-24
"浦东新区","上海市浦东新区浦电路305弄",121.531913940428,31.2253816423621,2022-04-24
"浦东新区","上海市浦东新区浦电路330弄",121.534528817937,31.2266271793415,2022-04-24
"浦东新区","上海市浦东新区浦电路331弄",121.535182335196,31.225922581402,2022-04-24
"浦东新区","上海市浦东新区浦电路48弄",121.523018290455,31.2247743849636,2022-04-24
"浦东新区","上海市浦东新区浦东大道1139弄",121.540268720654,31.2490393018117,2022-04-24
"浦东新区","上海市浦东新区浦东大道136弄",121.520173536566,31.2440242095398,2022-04-24
"浦东新区","上海市浦东新区浦东大道140弄",121.521669035579,31.2440488314387,2022-04-24
"浦东新区","上海市浦东新区浦东大道1460弄",121.543161354227,31.2484897749893,2022-04-24
"浦东新区","上海市浦东新区浦东大道1476号",121.5428716507,31.2486245328489,2022-04-24
"浦东新区","上海市浦东新区浦东大道1585弄",121.547254752775,31.2507606428061,2022-04-24
"浦东新区","上海市浦东新区浦东大道1615弄",121.547795712353,31.2519762055034,2022-04-24
"浦东新区","上海市浦东新区浦东大道1623弄",121.549043907859,31.2517675929144,2022-04-24
"浦东新区","上海市浦东新区浦东大道1695弄",121.550783925632,31.2536836006242,2022-04-24
"浦东新区","上海市浦东新区浦东大道1700弄",121.550423794953,31.2513819323816,2022-04-24
"浦东新区","上海市浦东新区浦东大道1851弄",121.552497443392,31.2531016867014,2022-04-24
"浦东新区","上海市浦东新区浦东大道2511弄",121.566406266925,31.265127505972,2022-04-24
"浦东新区","上海市浦东新区浦东大道2515号",121.567126438453,31.2650712510494,2022-04-24
"浦东新区","上海市浦东新区浦东大道2639弄",121.573829414507,31.2700964028423,2022-04-24
"浦东新区","上海市浦东新区浦东大道2641弄",121.575420313565,31.2714724426133,2022-04-24
"浦东新区","上海市浦东新区浦东大道2742弄",121.577979316472,31.2729270889842,2022-04-24
"浦东新区","上海市浦东新区浦东大道2746弄",121.579756524092,31.2744655851279,2022-04-24
"浦东新区","上海市浦东新区浦东大道2778弄",121.581374821469,31.2756511334779,2022-04-24
"浦东新区","上海市浦东新区浦东大道2894号",121.582823967917,31.2789444329845,2022-04-24
"浦东新区","上海市浦东新区浦东大道290弄",121.523437799128,31.2448877473747,2022-04-24
"浦东新区","上海市浦东新区浦东大道2970弄",121.585274365688,31.2829352319847,2022-04-24
"浦东新区","上海市浦东新区浦东大道3036弄",121.584040992222,31.2856868358072,2022-04-24
"浦东新区","上海市浦东新区浦东大道691弄",121.568688412073,31.2656972298435,2022-04-24
"浦东新区","上海市浦东新区浦东南路1288号",121.523559878847,31.2308961867454,2022-04-24
"浦东新区","上海市浦东新区浦东南路1341弄",121.52482891504,31.2301991089681,2022-04-24
"浦东新区","上海市浦东新区浦东南路1349号",121.524211868986,31.230899197369,2022-04-24
"浦东新区","上海市浦东新区浦东南路1475弄",121.525751744291,31.2285494147365,2022-04-24
"浦东新区","上海市浦东新区浦东南路1533号",121.527644653661,31.2273723011377,2022-04-24
"浦东新区","上海市浦东新区浦东南路1700弄",121.525060767693,31.2237849777418,2022-04-24
"浦东新区","上海市浦东新区浦东南路1862弄",121.524135153695,31.2217476120428,2022-04-24
"浦东新区","上海市浦东新区浦东南路2141弄",121.52295558873,31.2143046355609,2022-04-24
"浦东新区","上海市浦东新区浦东南路2192弄",121.519879611003,31.2122755567109,2022-04-24
"浦东新区","上海市浦东新区浦东南路2351弄",121.519461719279,31.2055986658343,2022-04-24
"浦东新区","上海市浦东新区浦东南路2362号",121.518109140673,31.2052909581985,2022-04-24
"浦东新区","上海市浦东新区浦东南路2366号",121.517813149008,31.2049444866844,2022-04-24
"浦东新区","上海市浦东新区浦东南路3405弄",121.515403264816,31.2003488111383,2022-04-24
"浦东新区","上海市浦东新区浦东南路4815号",121.505116409099,31.1854920749074,2022-04-24
"浦东新区","上海市浦东新区浦东南路575弄",121.518573025638,31.2425843960653,2022-04-24
"浦东新区","上海市浦东新区浦东南路595弄",121.519777832988,31.2411515844425,2022-04-24
"浦东新区","上海市浦东新区浦东南路978号",121.521134184478,31.236312064832,2022-04-24
"浦东新区","上海市浦东新区浦建路47号",121.525878674859,31.2161560158293,2022-04-24
"浦东新区","上海市浦东新区浦建路725弄",121.537772958456,31.215407793615,2022-04-24
"浦东新区","上海市浦东新区浦建路83弄",121.525390176323,31.2156239764809,2022-04-24
"浦东新区","上海市浦东新区浦明路258弄",121.515061908722,31.2323783282138,2022-04-24
"浦东新区","上海市浦东新区浦明路99弄",121.514754688238,31.2352959940381,2022-04-24
"浦东新区","上海市浦东新区浦三路12弄",121.517827791387,31.2027220039836,2022-04-24
"浦东新区","上海市浦东新区浦三路2801弄",121.536884264815,31.1897022555378,2022-04-24
"浦东新区","上海市浦东新区浦三路288弄",121.519581912557,31.1984411322372,2022-04-24
"浦东新区","上海市浦东新区浦三路5127弄",121.536884264815,31.1897022555378,2022-04-24
"浦东新区","上海市浦东新区浦三路603号",121.522910763285,31.1947278270295,2022-04-24
"浦东新区","上海市浦东新区浦三路775弄",121.526729010855,31.1896008532192,2022-04-24
"浦东新区","上海市浦东新区浦三路年家浜路交界口工地生活区",121.578721137162,31.1204141367105,2022-04-24
"浦东新区","上海市浦东新区浦三路秀浦路交界口工地生活区",121.616024890413,31.1357172383185,2022-04-24
"浦东新区","上海市浦东新区栖山路100弄",121.550437449197,31.2475527934367,2022-04-24
"浦东新区","上海市浦东新区栖山路1088弄",121.566094375252,31.2601400552451,2022-04-24
"浦东新区","上海市浦东新区栖山路1489弄",121.571031731827,31.2638235251368,2022-04-24
"浦东新区","上海市浦东新区栖山路1555弄",121.572285586658,31.2644229665686,2022-04-24
"浦东新区","上海市浦东新区栖山路1636弄",121.573774617871,31.2647932169634,2022-04-24
"浦东新区","上海市浦东新区栖山路400弄",121.557578978001,31.2520178816585,2022-04-24
"浦东新区","上海市浦东新区栖山路401弄",121.556033443371,31.2539878305727,2022-04-24
"浦东新区","上海市浦东新区栖山路470弄",121.557950157838,31.2538052309812,2022-04-24
"浦东新区","上海市浦东新区栖霞路190弄",121.526081152921,31.2441861427874,2022-04-24
"浦东新区","上海市浦东新区栖霞路286号",121.529156322174,31.2441497116903,2022-04-24
"浦东新区","上海市浦东新区齐河路10弄",121.508225444469,31.1834231367154,2022-04-24
"浦东新区","上海市浦东新区齐河路28弄",121.536884264815,31.1897022555378,2022-04-24
"浦东新区","上海市浦东新区齐恒路118弄",121.525095981269,31.1930859254333,2022-04-24
"浦东新区","上海市浦东新区齐恒路177弄",121.528697288058,31.1918723006393,2022-04-24
"浦东新区","上海市浦东新区齐恒路95弄",121.528158933566,31.1945923737466,2022-04-24
"浦东新区","上海市浦东新区千汇路1000弄",121.771261784237,31.1267973202228,2022-04-24
"浦东新区","上海市浦东新区千汇路1280弄",121.766842749942,31.1140887975279,2022-04-24
"浦东新区","上海市浦东新区千汇路198弄",121.774671033309,31.1118828667661,2022-04-24
"浦东新区","上海市浦东新区千汇路581弄",121.771476030101,31.1174959081212,2022-04-24
"浦东新区","上海市浦东新区千汇路750弄",121.77091009763,31.1228952321347,2022-04-24
"浦东新区","上海市浦东新区钱仓路313弄",121.527825482561,31.2452163188024,2022-04-24
"浦东新区","上海市浦东新区青桐路358弄",121.602138614349,31.2442502059109,2022-04-24
"浦东新区","上海市浦东新区青艺路181弄",121.686341999971,31.2025052507985,2022-04-24
"浦东新区","上海市浦东新区清溪路400弄",121.577475636572,31.3476508374997,2022-04-24
"浦东新区","上海市浦东新区人民东路580号",121.785801038577,31.0555308521255,2022-04-24
"浦东新区","上海市浦东新区乳山路130弄",121.529822056387,31.2407719007347,2022-04-24
"浦东新区","上海市浦东新区乳山路161弄",121.528018079262,31.2415971840306,2022-04-24
"浦东新区","上海市浦东新区瑞安路80弄",121.592960267631,31.0952153638675,2022-04-24
"浦东新区","上海市浦东新区瑞福路52弄",121.607602647444,31.1017584182868,2022-04-24
"浦东新区","上海市浦东新区瑞和路101弄",121.584859707864,31.1200779398788,2022-04-24
"浦东新区","上海市浦东新区瑞浦路611弄",121.592073640093,31.0973300787465,2022-04-24
"浦东新区","上海市浦东新区瑞浦路77弄",121.592640920022,31.1039600259099,2022-04-24
"浦东新区","上海市浦东新区瑞浦路8弄",121.550454606832,31.2273482924363,2022-04-24
"浦东新区","上海市浦东新区瑞意路399弄",121.59268628445,31.1027918607619,2022-04-24
"浦东新区","上海市浦东新区三彩路166弄",121.525530311983,31.1391594184198,2022-04-24
"浦东新区","上海市浦东新区三彩路52弄",121.525530311983,31.1391594184198,2022-04-24
"浦东新区","上海市浦东新区三彩路59弄",121.506355531719,31.132930313735,2022-04-24
"浦东新区","上海市浦东新区三林路1466弄",121.527799521531,31.1515703407127,2022-04-24
"浦东新区","上海市浦东新区三林路1662弄",121.53161588266,31.1527105494656,2022-04-24
"浦东新区","上海市浦东新区三林路184号",121.502530996011,31.1424148693693,2022-04-24
"浦东新区","上海市浦东新区三林路235号",121.502736528311,31.1436912572177,2022-04-24
"浦东新区","上海市浦东新区三林路429弄",121.50556484321,31.1465181947852,2022-04-24
"浦东新区","上海市浦东新区三林路519弄",121.508639832801,31.1463737863662,2022-04-24
"浦东新区","上海市浦东新区三林路675弄",121.511686166446,31.1470469950398,2022-04-24
"浦东新区","上海市浦东新区三林路706弄",121.512258027734,31.1465838700227,2022-04-24
"浦东新区","上海市浦东新区三林路88弄",121.536884264815,31.1897022555378,2022-04-24
"浦东新区","上海市浦东新区三林镇东明村池河队养鸭滩",121.526656697262,31.1700359537257,2022-04-24
"浦东新区","上海市浦东新区三林镇红旗村姜胡宅队江湖宅",121.500206271181,31.126931789483,2022-04-24
"浦东新区","上海市浦东新区三林镇胡巷村陈家宅",121.52500489309,31.1587157705195,2022-04-24
"浦东新区","上海市浦东新区三林镇胡巷村东朱家宅",121.522564466511,31.1662048002723,2022-04-24
"浦东新区","上海市浦东新区三林镇胡巷村金家宅",121.52500489309,31.1587157705195,2022-04-24
"浦东新区","上海市浦东新区三林镇胡巷村张家宅",121.529586520682,31.1678359718402,2022-04-24
"浦东新区","上海市浦东新区三林镇金光村陆家湾队陆家宅",121.526093190215,31.1361674349858,2022-04-24
"浦东新区","上海市浦东新区三林镇联丰村八字队东八字桥",121.517962716875,31.1579859399694,2022-04-24
"浦东新区","上海市浦东新区三林镇联丰村顾家队顾家宅",121.520244592531,31.1570592548077,2022-04-24
"浦东新区","上海市浦东新区三林镇临江村丁家队丁家宅",121.484386212845,31.1273406057646,2022-04-24
"浦东新区","上海市浦东新区三林镇临江村临江队王家渡",121.481034545157,31.1308233546774,2022-04-24
"浦东新区","上海市浦东新区三林镇临江村庞家队庞家宅",121.482806722267,31.124007039641,2022-04-24
"浦东新区","上海市浦东新区三林镇临江村唐家宅",121.485179506441,31.1293456345277,2022-04-24
"浦东新区","上海市浦东新区三林镇临江村王家宅队王家宅",121.484029855049,31.1268779245209,2022-04-24
"浦东新区","上海市浦东新区三林镇临江村西新队石河圈",121.485179506441,31.1293456345277,2022-04-24
"浦东新区","上海市浦东新区三林镇临江村益民队罗汉松",121.487328612543,31.1320833628314,2022-04-24
"浦东新区","上海市浦东新区三林镇临江村筠西队庞家宅",121.482806722267,31.124007039641,2022-04-24
"浦东新区","上海市浦东新区三林镇临江村张塘队塘湾宅",121.49501181957,31.1315686973293,2022-04-24
"浦东新区","上海市浦东新区三林镇临江村张塘队张家宅",121.485179506441,31.1293456345277,2022-04-24
"浦东新区","上海市浦东新区三林镇临江村周北队周家宅",121.478736410171,31.1240123722048,2022-04-24
"浦东新区","上海市浦东新区三林镇南阜村曹家队蚌壳滩",121.526167659742,31.1360516018922,2022-04-24
"浦东新区","上海市浦东新区三林镇南阜村东汤队东汤家宅",121.526167659742,31.1360516018922,2022-04-24
"浦东新区","上海市浦东新区三林镇南阜村东汤队周家宅",121.528008557224,31.1225956771327,2022-04-24
"浦东新区","上海市浦东新区三林镇南阜村高树队北孙家宅",121.526784975288,31.1394910652598,2022-04-24
"浦东新区","上海市浦东新区三林镇南阜村高树队西汤家宅",121.526881543131,31.1363513458081,2022-04-24
"浦东新区","上海市浦东新区三林镇南阜村九思队九思堂",121.522537697007,31.1341302508085,2022-04-24
"浦东新区","上海市浦东新区三林镇南阜村瞿弄队瞿家里",121.526167659742,31.1360516018922,2022-04-24
"浦东新区","上海市浦东新区三林镇三林村镇前队金家宅",121.593249522005,31.1310947543661,2022-04-24
"浦东新区","上海市浦东新区三林镇天花庵村北陈队大陈家宅",121.531939542135,31.1285359001772,2022-04-24
"浦东新区","上海市浦东新区三林镇天花庵村东瞿队大瞿家宅",121.532611205165,31.1270776188598,2022-04-24
"浦东新区","上海市浦东新区三林镇天花庵村闵西队闵家宅",121.539890174712,31.126238497919,2022-04-24
"浦东新区","上海市浦东新区三林镇天花庵村南陈队大陈家宅",121.531939542135,31.1285359001772,2022-04-24
"浦东新区","上海市浦东新区三林镇天花庵村南王家队南王家宅",121.55380142367,31.1628451123625,2022-04-24
"浦东新区","上海市浦东新区三林镇天花庵村南周家队大周家宅",121.531939542135,31.1285359001772,2022-04-24
"浦东新区","上海市浦东新区三林镇天花庵村西瞿队大瞿家宅",121.532611205165,31.1270776188598,2022-04-24
"浦东新区","上海市浦东新区三林镇同济村果园队果园",121.549547677589,31.1434005770385,2022-04-24
"浦东新区","上海市浦东新区三林镇西林村洪家队洪家新宅",121.504634198701,31.1395246780499,2022-04-24
"浦东新区","上海市浦东新区三林镇西林村圈门队西林街",121.505050473475,31.1424654028824,2022-04-24
"浦东新区","上海市浦东新区三林镇西林村圈门队叶家宅",121.505050473475,31.1424654028824,2022-04-24
"浦东新区","上海市浦东新区三林镇西林村万家队奚家宅",121.505050473475,31.1424654028824,2022-04-24
"浦东新区","上海市浦东新区三林镇西林村西林队奚家宅",121.505296429523,31.1423779350719,2022-04-24
"浦东新区","上海市浦东新区三林镇新春村陈桥队陈家桥",121.482444895587,31.1340229536591,2022-04-24
"浦东新区","上海市浦东新区三林镇新任村",121.502813063941,31.1618677203956,2022-04-24
"浦东新区","上海市浦东新区三林镇懿德村钱家队钱家宅",121.523370965198,31.1281353580724,2022-04-24
"浦东新区","上海市浦东新区三林镇懿德村小陈家队小陈家宅",121.524726687873,31.1243504097577,2022-04-24
"浦东新区","上海市浦东新区三林镇中林村三林桥队天打桥",121.505046161608,31.1424974692412,2022-04-24
"浦东新区","上海市浦东新区三三公路5020弄",121.879902942444,30.9812557067702,2022-04-24
"浦东新区","上海市浦东新区三舒路181弄",121.525530311983,31.1391594184198,2022-04-24
"浦东新区","上海市浦东新区三舒路192弄",121.510630657472,31.1278552944324,2022-04-24
"浦东新区","上海市浦东新区三舒路288弄",121.525530311983,31.1391594184198,2022-04-24
"浦东新区","上海市浦东新区三舒路33弄",121.511249500138,31.1314993022756,2022-04-24
"浦东新区","上海市浦东新区三舒路62弄",121.509892699496,31.1304092986302,2022-04-24
"浦东新区","上海市浦东新区三旋路506弄",121.525530311983,31.1391594184198,2022-04-24
"浦东新区","上海市浦东新区商城路1028弄",121.532816917127,31.2375437164926,2022-04-24
"浦东新区","上海市浦东新区商城路1177弄",121.533303080069,31.2409195599813,2022-04-24
"浦东新区","上海市浦东新区商城路1178弄",121.534434855181,31.2403688276266,2022-04-24
"浦东新区","上海市浦东新区上川路361号",121.645908729983,31.2796458538197,2022-04-24
"浦东新区","上海市浦东新区上川路538号",121.652824694274,31.2786376609798,2022-04-24
"浦东新区","上海市浦东新区上川路620号",121.654460957761,31.2797095840184,2022-04-24
"浦东新区","上海市浦东新区上南路1000弄",121.50066746123,31.1805938353858,2022-04-24
"浦东新区","上海市浦东新区上南路1251弄",121.502606274012,31.1785212361064,2022-04-24
"浦东新区","上海市浦东新区上南路1500弄",121.502331302696,31.1749569131774,2022-04-24
"浦东新区","上海市浦东新区上南路3058弄",121.503515898172,31.166831594976,2022-04-24
"浦东新区","上海市浦东新区上南路3500弄",121.525530311983,31.1391594184198,2022-04-24
"浦东新区","上海市浦东新区上南路3520弄",121.506977518455,31.1596914184766,2022-04-24
"浦东新区","上海市浦东新区上南路3651弄",121.513459421523,31.1605853221933,2022-04-24
"浦东新区","上海市浦东新区上南路3848弄",121.511836003805,31.1560752357101,2022-04-24
"浦东新区","上海市浦东新区上南路3880弄",121.512285965035,31.1550669472926,2022-04-24
"浦东新区","上海市浦东新区上南路3899弄",121.51526214102,31.1581154202187,2022-04-24
"浦东新区","上海市浦东新区上南路6611弄",121.584859707864,31.1200779398788,2022-04-24
"浦东新区","上海市浦东新区上南路929弄",121.507678825566,31.1860937173936,2022-04-24
"浦东新区","上海市浦东新区上浦路510弄",121.506222941826,31.1521017393601,2022-04-24
"浦东新区","上海市浦东新区尚博路569弄",121.526700265079,31.1550331855514,2022-04-24
"浦东新区","上海市浦东新区申江路5809号生活区",121.631997301364,31.2070738724656,2022-04-24
"浦东新区","上海市浦东新区申江路985弄",121.633735163204,31.2928244259128,2022-04-24
"浦东新区","上海市浦东新区申江南路5550号",121.651746727662,31.0715253762937,2022-04-24
"浦东新区","上海市浦东新区沈家弄路870弄",121.551964119411,31.2447826999823,2022-04-24
"浦东新区","上海市浦东新区沈家弄路877弄",121.552906531721,31.2444312032937,2022-04-24
"浦东新区","上海市浦东新区沈家弄路900弄",121.551370339469,31.2449460212264,2022-04-24
"浦东新区","上海市浦东新区沈家弄路901弄",121.552898267311,31.2449719550083,2022-04-24
"浦东新区","上海市浦东新区胜利路169弄",121.694494032643,31.2515858379485,2022-04-24
"浦东新区","上海市浦东新区胜利路30弄",121.692954606491,31.2482130808373,2022-04-24
"浦东新区","上海市浦东新区胜利路836弄",121.708557634216,31.2521881362769,2022-04-24
"浦东新区","上海市浦东新区盛夏路1107弄",121.640893669982,31.2039764136165,2022-04-24
"浦东新区","上海市浦东新区盛夏路738弄",121.63560947765,31.2087697329582,2022-04-24
"浦东新区","上海市浦东新区施湾二路766弄",121.753094902756,31.1521468594324,2022-04-24
"浦东新区","上海市浦东新区施镇路385弄",121.763791295955,31.1503483750958,2022-04-24
"浦东新区","上海市浦东新区石家街77号",121.587330227678,31.3505056922679,2022-04-24
"浦东新区","上海市浦东新区世博家园大道站路94弄",121.545610314708,31.1654593463491,2022-04-24
"浦东新区","上海市浦东新区世纪大道杨高南路交界口工地生活区",121.541837162075,31.2239095034302,2022-04-24
"浦东新区","上海市浦东新区寿光路161弄",121.590525320716,31.2803961854226,2022-04-24
"浦东新区","上海市浦东新区寿光路31弄",121.589460469364,31.2787974510506,2022-04-24
"浦东新区","上海市浦东新区寿光路75弄",121.589577991099,31.2796470691226,2022-04-24
"浦东新区","上海市浦东新区寿光路78弄",121.592102026547,31.2793908554345,2022-04-24
"浦东新区","上海市浦东新区书院镇塘北村石南",121.885240134801,30.9220522570893,2022-04-24
"浦东新区","上海市浦东新区书院镇洼港村",121.883607374706,30.9913838986033,2022-04-24
"浦东新区","上海市浦东新区双桥路1108弄",121.5896261169,31.2815848989426,2022-04-24
"浦东新区","上海市浦东新区双桥路1139弄",121.621825159261,31.2909734062555,2022-04-24
"浦东新区","上海市浦东新区水洞港路69弄",121.672470006963,31.3016768591264,2022-04-24
"浦东新区","上海市浦东新区硕川路125弄",121.693519281334,31.2068003760843,2022-04-24
"浦东新区","上海市浦东新区思浦路15弄",121.499982772771,31.1645087101922,2022-04-24
"浦东新区","上海市浦东新区思浦路17弄",121.499381626723,31.1638258159296,2022-04-24
"浦东新区","上海市浦东新区松林路333弄",121.540645649646,31.232864650767,2022-04-24
"浦东新区","上海市浦东新区孙环路177弄",121.644806267509,31.190250417896,2022-04-24
"浦东新区","上海市浦东新区孙环路600弄",121.646736518511,31.1830402839177,2022-04-24
"浦东新区","上海市浦东新区孙桥路238弄",121.636439152619,31.187480878632,2022-04-24
"浦东新区","上海市浦东新区孙桥路788号工地生活区",121.637555117554,31.1767278145194,2022-04-24
"浦东新区","上海市浦东新区台儿庄路363弄",121.600337960954,31.264978881782,2022-04-24
"浦东新区","上海市浦东新区唐陆路568弄",121.63464433821,31.2570386419039,2022-04-24
"浦东新区","上海市浦东新区唐镇大众村立新新村",121.646863808402,31.2303244752769,2022-04-24
"浦东新区","上海市浦东新区唐镇大众村王家宅",121.609519721232,31.2066820820887,2022-04-24
"浦东新区","上海市浦东新区唐镇大众村小包新村",121.641589856752,31.2311772550643,2022-04-24
"浦东新区","上海市浦东新区唐镇大众村中心新村",121.654636127335,31.2345319459938,2022-04-24
"浦东新区","上海市浦东新区唐镇虹二村",121.661875481609,31.2466185810648,2022-04-24
"浦东新区","上海市浦东新区唐镇虹三村顾家宅",121.679576681514,31.2599663423934,2022-04-24
"浦东新区","上海市浦东新区唐镇虹三村沈家宅",121.679576681514,31.2599663423934,2022-04-24
"浦东新区","上海市浦东新区唐镇虹三村唐家宅",121.679576681514,31.2599663423934,2022-04-24
"浦东新区","上海市浦东新区唐镇虹四村卫家宅",121.662704527764,31.2466238294749,2022-04-24
"浦东新区","上海市浦东新区唐镇虹四村吴张家宅",121.658368227407,31.2467905435275,2022-04-24
"浦东新区","上海市浦东新区唐镇虹一村奚家宅",121.678443738605,31.2379222554596,2022-04-24
"浦东新区","上海市浦东新区唐镇路366弄",121.66105398122,31.2154456256526,2022-04-24
"浦东新区","上海市浦东新区唐镇吕三村三林新村",121.648444197285,31.2220812829293,2022-04-24
"浦东新区","上海市浦东新区唐镇民丰村江北宅",121.648615953299,31.2142128338184,2022-04-24
"浦东新区","上海市浦东新区唐镇前进村东窑新村",121.648552173608,31.2141666626809,2022-04-24
"浦东新区","上海市浦东新区唐镇前进村顾家宅",121.648552173608,31.2141666626809,2022-04-24
"浦东新区","上海市浦东新区唐镇前进村南李家宅",121.603576442148,31.2406625262236,2022-04-24
"浦东新区","上海市浦东新区唐镇前进村沈家宅",121.648552173608,31.2141666626809,2022-04-24
"浦东新区","上海市浦东新区唐镇前进村唐家新村",121.646853789241,31.2060569952943,2022-04-24
"浦东新区","上海市浦东新区唐镇唐四村丁费南宅",121.667689494531,31.2210198162809,2022-04-24
"浦东新区","上海市浦东新区唐镇唐镇村赵家宅",121.657245255689,31.2051588405069,2022-04-24
"浦东新区","上海市浦东新区唐镇小湾村北街",121.697839941295,31.2397379836963,2022-04-24
"浦东新区","上海市浦东新区唐镇小湾村东张家宅",121.691947606014,31.2362337931142,2022-04-24
"浦东新区","上海市浦东新区唐镇小湾村唐家宅",121.696076936782,31.2397902271145,2022-04-24
"浦东新区","上海市浦东新区唐镇小湾村奚家宅",121.710332613302,31.2353445551168,2022-04-24
"浦东新区","上海市浦东新区唐镇小湾村新村宅",121.696664967569,31.239619872733,2022-04-24
"浦东新区","上海市浦东新区唐镇小湾村张家宅",121.691947606014,31.2362337931142,2022-04-24
"浦东新区","上海市浦东新区唐镇新虹村东包家宅",121.654887203725,31.2451490146246,2022-04-24
"浦东新区","上海市浦东新区唐镇新虹村刘家宅",121.655033627523,31.2487133679639,2022-04-24
"浦东新区","上海市浦东新区唐镇新虹村缪家宅",121.655033627523,31.2487133679639,2022-04-24
"浦东新区","上海市浦东新区唐镇一心村顾家宅",121.688848811327,31.2500387840308,2022-04-24
"浦东新区","上海市浦东新区唐镇一心村宋家宅",121.688848811327,31.2500387840308,2022-04-24
"浦东新区","上海市浦东新区唐镇一心村袁家宅",121.688848811327,31.2500387840308,2022-04-24
"浦东新区","上海市浦东新区唐镇一心村朱家宅",121.688848811327,31.2500387840308,2022-04-24
"浦东新区","上海市浦东新区塘南路159弄",121.516400833085,31.2080020709147,2022-04-24
"浦东新区","上海市浦东新区塘桥路551号",121.527653007903,31.2169058534111,2022-04-24
"浦东新区","上海市浦东新区桃林路299弄",121.543789000287,31.2452268929635,2022-04-24
"浦东新区","上海市浦东新区桃林路815弄",121.546474215117,31.2393110419102,2022-04-24
"浦东新区","上海市浦东新区听悦路1205弄",121.744821509009,31.0698826341759,2022-04-24
"浦东新区","上海市浦东新区庭安路191号",121.587940716102,31.3308377312796,2022-04-24
"浦东新区","上海市浦东新区通济路136弄",121.752585383871,31.0524986963244,2022-04-24
"浦东新区","上海市浦东新区万德路51弄",121.564954156068,31.2564019550388,2022-04-24
"浦东新区","上海市浦东新区万德路67弄",121.567109550309,31.2545921971755,2022-04-24
"浦东新区","上海市浦东新区万祥镇万宏村万六",121.825190477562,30.974499234353,2022-04-24
"浦东新区","上海市浦东新区万祥镇万兴村万二",121.818293108195,30.9639093116684,2022-04-24
"浦东新区","上海市浦东新区王家街22号",121.586861491863,31.3543064013346,2022-04-24
"浦东新区","上海市浦东新区王桥街41弄",121.70667209095,31.2088406151349,2022-04-24
"浦东新区","上海市浦东新区潍坊路126弄",121.53066547543,31.2296456116188,2022-04-24
"浦东新区","上海市浦东新区潍坊路140弄",121.531550935172,31.2311124110338,2022-04-24
"浦东新区","上海市浦东新区潍坊路154弄",121.532304344003,31.2313464668942,2022-04-24
"浦东新区","上海市浦东新区潍坊路268号",121.54011960194,31.2340224742404,2022-04-24
"浦东新区","上海市浦东新区潍坊路270弄",121.540247969797,31.2338138987918,2022-04-24
"浦东新区","上海市浦东新区潍坊路333弄",121.526092202079,31.2293004653799,2022-04-24
"浦东新区","上海市浦东新区潍坊路335弄",121.538270619708,31.2337883478814,2022-04-24
"浦东新区","上海市浦东新区潍坊路355弄",121.538217979006,31.2351453926189,2022-04-24
"浦东新区","上海市浦东新区潍坊路375弄",121.541472090715,31.2347481618797,2022-04-24
"浦东新区","上海市浦东新区潍坊路606号",121.528018797906,31.2292048956976,2022-04-24
"浦东新区","上海市浦东新区潍坊路716号",121.528397793001,31.229747279369,2022-04-24
"浦东新区","上海市浦东新区潍坊路89弄",121.526387025948,31.2297083723614,2022-04-24
"浦东新区","上海市浦东新区潍坊西路1弄",121.550454606832,31.2273482924363,2022-04-24
"浦东新区","上海市浦东新区潍坊西路2弄",121.550454606832,31.2273482924363,2022-04-24
"浦东新区","上海市浦东新区五莲路100弄",121.585797359155,31.2816781004793,2022-04-24
"浦东新区","上海市浦东新区五莲路1047弄",121.601390415689,31.2777458097831,2022-04-24
"浦东新区","上海市浦东新区五莲路108弄",121.588773624971,31.2771578731139,2022-04-24
"浦东新区","上海市浦东新区五莲路1168号",121.602929392689,31.2784563440545,2022-04-24
"浦东新区","上海市浦东新区五莲路1728弄",121.605773877086,31.2879444559569,2022-04-24
"浦东新区","上海市浦东新区五莲路1769弄",121.60380012022,31.290088693223,2022-04-24
"浦东新区","上海市浦东新区五莲路201弄",121.587086158071,31.2826666637015,2022-04-24
"浦东新区","上海市浦东新区五莲路30弄",121.584500744982,31.2815552719446,2022-04-24
"浦东新区","上海市浦东新区五莲路400弄",121.587997039858,31.2780022786352,2022-04-24
"浦东新区","上海市浦东新区五莲路719弄",121.595942821585,31.2758427950718,2022-04-24
"浦东新区","上海市浦东新区五莲路759弄",121.597702871571,31.2763872229612,2022-04-24
"浦东新区","上海市浦东新区五莲路780弄",121.5971369391,31.2743054790071,2022-04-24
"浦东新区","上海市浦东新区五莲路959弄",121.598657680497,31.2773239154459,2022-04-24
"浦东新区","上海市浦东新区五星路151弄",121.536884264815,31.1897022555378,2022-04-24
"浦东新区","上海市浦东新区五星路231弄",121.536884264815,31.1897022555378,2022-04-24
"浦东新区","上海市浦东新区五星路239弄",121.569954483859,31.1817814232373,2022-04-24
"浦东新区","上海市浦东新区五星路410弄",121.536884264815,31.1897022555378,2022-04-24
"浦东新区","上海市浦东新区西门路113弄",121.753914247212,31.0502395782092,2022-04-24
"浦东新区","上海市浦东新区西门路7号",121.750323181105,31.0529883491083,2022-04-24
"浦东新区","上海市浦东新区西三里桥路8弄",121.513220382427,31.2049394675868,2022-04-24
"浦东新区","上海市浦东新区西泰林路158弄",121.539297472737,31.1598032824448,2022-04-24
"浦东新区","上海市浦东新区西泰林路850弄",121.546822039011,31.1487391512895,2022-04-24
"浦东新区","上海市浦东新区西泰林路901弄",121.54507097208,31.1494599367676,2022-04-24
"浦东新区","上海市浦东新区西营路106号",121.490493073363,31.1743117119087,2022-04-24
"浦东新区","上海市浦东新区西营路33弄",121.490422736042,31.1765666914554,2022-04-24
"浦东新区","上海市浦东新区西营路62号",121.490103388433,31.1757292487122,2022-04-24
"浦东新区","上海市浦东新区西营南路11弄",121.492535011618,31.1670638802906,2022-04-24
"浦东新区","上海市浦东新区西营南路67弄",121.492891099922,31.1650315380958,2022-04-24
"浦东新区","上海市浦东新区西营南路68弄",121.525530311983,31.1391594184198,2022-04-24
"浦东新区","上海市浦东新区西营南路6弄",121.495843021658,31.1589028818728,2022-04-24
"浦东新区","上海市浦东新区溪兰路169弄",121.584402111037,31.3396707501466,2022-04-24
"浦东新区","上海市浦东新区霞玉路436弄",121.696086997804,31.2622910273004,2022-04-24
"浦东新区","上海市浦东新区下南路115弄",121.550203620272,31.1724023443283,2022-04-24
"浦东新区","上海市浦东新区下南路161弄",121.549904215046,31.1727314791562,2022-04-24
"浦东新区","上海市浦东新区下南路225弄",121.552785889291,31.1753995837175,2022-04-24
"浦东新区","上海市浦东新区下南路309弄",121.529696185109,31.2072012517119,2022-04-24
"浦东新区","上海市浦东新区下南路320弄",121.547891741212,31.1755488136572,2022-04-24
"浦东新区","上海市浦东新区下南路339弄",121.550641274717,31.1767910741702,2022-04-24
"浦东新区","上海市浦东新区下南路474号",121.546493708347,31.1779882106021,2022-04-24
"浦东新区","上海市浦东新区下南路500弄",121.543720818899,31.1779675877605,2022-04-24
"浦东新区","上海市浦东新区下南路501弄",121.536884264815,31.1897022555378,2022-04-24
"浦东新区","上海市浦东新区下南路526弄",121.544402003967,31.1780418917603,2022-04-24
"浦东新区","上海市浦东新区下南路551弄",121.54679904239,31.1790168752743,2022-04-24
"浦东新区","上海市浦东新区下沙街北桥弄",121.599245739132,31.0554320015955,2022-04-24
"浦东新区","上海市浦东新区夏碧路380弄",121.593186999942,31.3434458407328,2022-04-24
"浦东新区","上海市浦东新区香楠路276弄",121.620040136382,31.2210608886015,2022-04-24
"浦东新区","上海市浦东新区新场镇果园村",121.642441899529,31.025361102765,2022-04-24
"浦东新区","上海市浦东新区新场镇金建村长桥",121.680729201195,31.0440834087275,2022-04-24
"浦东新区","上海市浦东新区新场镇仁义村范桥",121.647293378096,31.0643146974948,2022-04-24
"浦东新区","上海市浦东新区新场镇坦南村",121.65884962933,31.0724938878595,2022-04-24
"浦东新区","上海市浦东新区新场镇坦西村坦北",121.651215559614,31.0897996061926,2022-04-24
"浦东新区","上海市浦东新区新场镇王桥村杨辉",121.669132083349,31.0246782033191,2022-04-24
"浦东新区","上海市浦东新区新场镇新卫村",121.64761515113,31.044082628274,2022-04-24
"浦东新区","上海市浦东新区新场镇祝桥村",121.680871229584,31.0743287356668,2022-04-24
"浦东新区","上海市浦东新区新川路856弄",121.696061485928,31.1964838367855,2022-04-24
"浦东新区","上海市浦东新区新德西路207弄",121.680140008899,31.1975838841804,2022-04-24
"浦东新区","上海市浦东新区新德西路508弄",121.676387607123,31.198096102614,2022-04-24
"浦东新区","上海市浦东新区新环西路35弄",121.64674622021,31.0213097431981,2022-04-24
"浦东新区","上海市浦东新区新环西路800弄",121.646196547069,31.0308548322817,2022-04-24
"浦东新区","上海市浦东新区新金桥路1568号",121.625398079596,31.2627900815484,2022-04-24
"浦东新区","上海市浦东新区新龙路203弄",121.63662186796,31.3203509429906,2022-04-24
"浦东新区","上海市浦东新区新龙路489弄",121.652778790863,31.290487771739,2022-04-24
"浦东新区","上海市浦东新区新浦路199弄",121.545245782332,31.1712264561122,2022-04-24
"浦东新区","上海市浦东新区新浦路251弄",121.541342016078,31.1742258958661,2022-04-24
"浦东新区","上海市浦东新区新浦路346弄",121.541876328195,31.1775466336355,2022-04-24
"浦东新区","上海市浦东新区新浦路543弄",121.536926664835,31.1758010055361,2022-04-24
"浦东新区","上海市浦东新区新浦路587弄",121.532965137536,31.1927229594364,2022-04-24
"浦东新区","上海市浦东新区新浦路629弄",121.542012690971,31.1775770659788,2022-04-24
"浦东新区","上海市浦东新区新浦路673弄",121.536884264815,31.1897022555378,2022-04-24
"浦东新区","上海市浦东新区新浦路91弄",121.54575575037,31.1700380393581,2022-04-24
"浦东新区","上海市浦东新区新元南路172号工地生活区",121.82762102278,30.8658128207342,2022-04-24
"浦东新区","上海市浦东新区新元南路正茂路交界口工地生活区",121.82788341782,30.8836711316312,2022-04-24
"浦东新区","上海市浦东新区新园路251弄",121.652778790863,31.290487771739,2022-04-24
"浦东新区","上海市浦东新区新园路436弄",121.652778790863,31.290487771739,2022-04-24
"浦东新区","上海市浦东新区秀康路958弄",121.584859707864,31.1200779398788,2022-04-24
"浦东新区","上海市浦东新区秀浦路800弄",121.584859707864,31.1200779398788,2022-04-24
"浦东新区","上海市浦东新区秀沿路1168弄",121.584859707864,31.1200779398788,2022-04-24
"浦东新区","上海市浦东新区秀沿路2501弄",121.607210087936,31.1446754834221,2022-04-24
"浦东新区","上海市浦东新区秀沿路2585弄",121.584859707864,31.1200779398788,2022-04-24
"浦东新区","上海市浦东新区秀沿路2875弄",121.616066481959,31.1449302308223,2022-04-24
"浦东新区","上海市浦东新区秀沿路3668号",121.623371502366,31.1432968066237,2022-04-24
"浦东新区","上海市浦东新区秀沿路苗桥路交界口工地生活区",121.636439601772,31.1311225743354,2022-04-24
"浦东新区","上海市浦东新区秀沿西路258弄",121.538346257032,31.1354788480318,2022-04-24
"浦东新区","上海市浦东新区秀沿西路68弄",121.543756032475,31.1375878662796,2022-04-24
"浦东新区","上海市浦东新区宣桥镇光明村",121.728425816502,31.0770068270558,2022-04-24
"浦东新区","上海市浦东新区宣桥镇季桥村",121.697999669896,31.0643721555931,2022-04-24
"浦东新区","上海市浦东新区宣桥镇三灶村",121.712526347959,31.0750539581203,2022-04-24
"浦东新区","上海市浦东新区宣桥镇宣桥村",121.706113704245,31.0247363045066,2022-04-24
"浦东新区","上海市浦东新区宣桥镇腰路村丰乐",121.693163821844,31.0795875736828,2022-04-24
"浦东新区","上海市浦东新区宣桥镇张家桥村胡桥",121.693527412796,31.0508223108026,2022-04-24
"浦东新区","上海市浦东新区宣镇东路788弄",121.7075508134,31.0291915764554,2022-04-24
"浦东新区","上海市浦东新区学前二村",121.590492532564,31.3525874321299,2022-04-24
"浦东新区","上海市浦东新区雪野二路296号工地生活区",121.481863055784,31.1831820039776,2022-04-24
"浦东新区","上海市浦东新区严民路40弄",121.535360828501,31.1982091563279,2022-04-24
"浦东新区","上海市浦东新区严木桥路198弄",121.81422459271,30.9633108150302,2022-04-24
"浦东新区","上海市浦东新区严桥路108弄",121.533823019298,31.1958828787975,2022-04-24
"浦东新区","上海市浦东新区严桥路150弄",121.53448201622,31.1955148268081,2022-04-24
"浦东新区","上海市浦东新区严桥路58弄",121.532464961028,31.1967998362783,2022-04-24
"浦东新区","上海市浦东新区严杨路166弄",121.536194994997,31.2003668807737,2022-04-24
"浦东新区","上海市浦东新区严杨路30弄",121.532512930542,31.1982761081556,2022-04-24
"浦东新区","上海市浦东新区严杨路60弄",121.536194994997,31.2003668807737,2022-04-24
"浦东新区","上海市浦东新区严镇路75弄",121.534643980704,31.1975138429377,2022-04-24
"浦东新区","上海市浦东新区严中路269弄",121.539412006689,31.19614320173,2022-04-24
"浦东新区","上海市浦东新区严中路373弄",121.539982161197,31.1948547081198,2022-04-24
"浦东新区","上海市浦东新区严中路388弄",121.539515401654,31.1948428926634,2022-04-24
"浦东新区","上海市浦东新区盐朝公路67号",121.770019517547,31.0943397010565,2022-04-24
"浦东新区","上海市浦东新区杨高北路3839弄",121.614513311732,31.2915598673188,2022-04-24
"浦东新区","上海市浦东新区杨高南路1258号生活区",121.536348515409,31.2105396093365,2022-04-24
"浦东新区","上海市浦东新区杨高南路3288弄",121.525582413702,31.1746251599369,2022-04-24
"浦东新区","上海市浦东新区杨高南路5055弄",121.537526104102,31.1561531881371,2022-04-24
"浦东新区","上海市浦东新区杨高南路5777弄",121.550326957619,31.134223831037,2022-04-24
"浦东新区","上海市浦东新区杨高中路10弄",121.606373585845,31.2634200112248,2022-04-24
"浦东新区","上海市浦东新区杨莲路160弄",121.536884264815,31.1897022555378,2022-04-24
"浦东新区","上海市浦东新区杨莲路鹏岳路交界口工地生活区",121.560464335299,31.178550046122,2022-04-24
"浦东新区","上海市浦东新区杨南路1015弄",121.513807514908,31.1584340984722,2022-04-24
"浦东新区","上海市浦东新区杨南路1705弄",121.521428559194,31.1615594829099,2022-04-24
"浦东新区","上海市浦东新区杨南路694弄",121.507554859406,31.1553909666812,2022-04-24
"浦东新区","上海市浦东新区杨南路797弄",121.509163634744,31.1581701943276,2022-04-24
"浦东新区","上海市浦东新区杨南路826弄",121.509042992314,31.156750615242,2022-04-24
"浦东新区","上海市浦东新区杨思路1121弄",121.512446312569,31.1707936532361,2022-04-24
"浦东新区","上海市浦东新区杨思路502弄",121.501390507335,31.1651814797804,2022-04-24
"浦东新区","上海市浦东新区杨思路855弄",121.506597265732,31.1689656319057,2022-04-24
"浦东新区","上海市浦东新区杨思路860弄",121.536884264815,31.1897022555378,2022-04-24
"浦东新区","上海市浦东新区杨思新村",121.600645630591,31.2244171774298,2022-04-24
"浦东新区","上海市浦东新区杨新路197弄",121.498520151739,31.1688455907204,2022-04-24
"浦东新区","上海市浦东新区杨新路20弄",121.502908553817,31.1704943282868,2022-04-24
"浦东新区","上海市浦东新区杨新路281弄",121.49519282813,31.1673534829583,2022-04-24
"浦东新区","上海市浦东新区杨新路77弄",121.500168003367,31.1692430237866,2022-04-24
"浦东新区","上海市浦东新区杨新路80弄",121.500333510246,31.1696131563215,2022-04-24
"浦东新区","上海市浦东新区洋泾镇路89弄",121.555696938127,31.2473205533115,2022-04-24
"浦东新区","上海市浦东新区耀华路220弄",121.497392239341,31.1792613340205,2022-04-24
"浦东新区","上海市浦东新区耀华路30弄",121.536884264815,31.1897022555378,2022-04-24
"浦东新区","上海市浦东新区耀华路331弄",121.493188888199,31.1809682021446,2022-04-24
"浦东新区","上海市浦东新区耀华路414弄",121.492226982658,31.1790527910542,2022-04-24
"浦东新区","上海市浦东新区耀华路421弄",121.489669776363,31.1813858197461,2022-04-24
"浦东新区","上海市浦东新区耀华路500弄",121.488759343729,31.1767943182538,2022-04-24
"浦东新区","上海市浦东新区耀华路528号",121.488226558731,31.1776669726407,2022-04-24
"浦东新区","上海市浦东新区耀华路550弄",121.487451231245,31.1759876966065,2022-04-24
"浦东新区","上海市浦东新区耀华路560号",121.488000006081,31.1774534827976,2022-04-24
"浦东新区","上海市浦东新区耀华路579弄",121.48605966618,31.17881049444,2022-04-24
"浦东新区","上海市浦东新区耀华路87弄",121.496691830535,31.1842585026529,2022-04-24
"浦东新区","上海市浦东新区耀华路8号",121.500771664669,31.1838975105567,2022-04-24
"浦东新区","上海市浦东新区耀元路228弄",121.480329835216,31.1769398309366,2022-04-24
"浦东新区","上海市浦东新区益丰路55弄",121.628839488005,31.2071079243307,2022-04-24
"浦东新区","上海市浦东新区益江路286弄",121.636616118805,31.2048109785981,2022-04-24
"浦东新区","上海市浦东新区益江路299弄",121.637229571638,31.2035027591617,2022-04-24
"浦东新区","上海市浦东新区益江路396弄",121.633194383287,31.2048023302945,2022-04-24
"浦东新区","上海市浦东新区益江路511弄",121.63543170299,31.202213517362,2022-04-24
"浦东新区","上海市浦东新区懿行路971弄",121.51939497518,31.1311335477655,2022-04-24
"浦东新区","上海市浦东新区殷北路351弄",121.633779629326,31.1844662617014,2022-04-24
"浦东新区","上海市浦东新区银峰路549弄",121.695687880666,31.2724371167393,2022-04-24
"浦东新区","上海市浦东新区银峰路676弄",121.652778790863,31.290487771739,2022-04-24
"浦东新区","上海市浦东新区银融路88弄",121.540303035925,31.2150868383467,2022-04-24
"浦东新区","上海市浦东新区银山路115弄",121.58494540621,31.2513391754424,2022-04-24
"浦东新区","上海市浦东新区银山路181号",121.58653495781,31.2500969003129,2022-04-24
"浦东新区","上海市浦东新区银山路342弄",121.589446545629,31.2504821802502,2022-04-24
"浦东新区","上海市浦东新区银山路370弄",121.590757442859,31.2520815535262,2022-04-24
"浦东新区","上海市浦东新区银山路72弄",121.584909024837,31.2482473492788,2022-04-24
"浦东新区","上海市浦东新区银霄路39弄",121.565726159824,31.218253492246,2022-04-24
"浦东新区","上海市浦东新区银樽路58弄",121.636263803384,31.1944164540822,2022-04-24
"浦东新区","上海市浦东新区樱花路801弄",121.567035979088,31.214397826977,2022-04-24
"浦东新区","上海市浦东新区樱花路802弄",121.567473903024,31.2138070211684,2022-04-24
"浦东新区","上海市浦东新区迎春路1355弄",121.569082498701,31.235478938542,2022-04-24
"浦东新区","上海市浦东新区永安新村",121.557080148951,31.2549395653573,2022-04-24
"浦东新区","上海市浦东新区永宁路33弄",121.6209919809,31.2789818535449,2022-04-24
"浦东新区","上海市浦东新区永泰路1129弄",121.529723871595,31.1487997256063,2022-04-24
"浦东新区","上海市浦东新区永泰路1299弄",121.533145517282,31.1492555769921,2022-04-24
"浦东新区","上海市浦东新区永泰路136弄",121.511141254324,31.1406678921009,2022-04-24
"浦东新区","上海市浦东新区永泰路1960弄",121.525530311983,31.1391594184198,2022-04-24
"浦东新区","上海市浦东新区永泰路2079弄",121.525530311983,31.1391594184198,2022-04-24
"浦东新区","上海市浦东新区永泰路468弄",121.518683696877,31.1422970350015,2022-04-24
"浦东新区","上海市浦东新区永泰路595弄",121.521072740381,31.1462686284638,2022-04-24
"浦东新区","上海市浦东新区永泰路630弄",121.52411305538,31.1453658573196,2022-04-24
"浦东新区","上海市浦东新区永泰路775弄",121.52441470637,31.1479803464903,2022-04-24
"浦东新区","上海市浦东新区羽山路1000弄",121.564290308297,31.2445147938644,2022-04-24
"浦东新区","上海市浦东新区羽山路600弄",121.554654454583,31.2403090843563,2022-04-24
"浦东新区","上海市浦东新区玉盘北路288弄",121.678846628626,31.2319556115091,2022-04-24
"浦东新区","上海市浦东新区玉泉街77弄",121.501992641519,31.1689911232573,2022-04-24
"浦东新区","上海市浦东新区御衡路68弄",121.588337407815,31.159592610344,2022-04-24
"浦东新区","上海市浦东新区御桥路1679弄",121.578016236828,31.1656276726803,2022-04-24
"浦东新区","上海市浦东新区御桥路1978弄",121.536884264815,31.1897022555378,2022-04-24
"浦东新区","上海市浦东新区御桥路2066弄",121.581739802997,31.1649484945558,2022-04-24
"浦东新区","上海市浦东新区御桥路288弄",121.542864464256,31.155924815928,2022-04-24
"浦东新区","上海市浦东新区御青路56弄",121.578469072636,31.1650319243446,2022-04-24
"浦东新区","上海市浦东新区御青路999弄",121.579524761271,31.1602976299725,2022-04-24
"浦东新区","上海市浦东新区御山路360弄",121.574682445419,31.1620356669102,2022-04-24
"浦东新区","上海市浦东新区御水路150弄",121.578864955874,31.1674418544666,2022-04-24
"浦东新区","上海市浦东新区御水路199弄",121.580638210951,31.1665548139514,2022-04-24
"浦东新区","上海市浦东新区园二路299弄",121.641001825966,31.3230769196488,2022-04-24
"浦东新区","上海市浦东新区园林路85弄",121.703418967377,31.1243648617247,2022-04-24
"浦东新区","上海市浦东新区园洲路189弄",121.641902287409,31.321913567362,2022-04-24
"浦东新区","上海市浦东新区源深路600弄",121.540367174938,31.2377605429358,2022-04-24
"浦东新区","上海市浦东新区云端路1388弄",121.823486122518,30.8954241238132,2022-04-24
"浦东新区","上海市浦东新区云汉路1096弄",121.811142237014,30.9176762778764,2022-04-24
"浦东新区","上海市浦东新区云汉路977弄",121.813443156747,30.917010259349,2022-04-24
"浦东新区","上海市浦东新区云莲路101弄",121.536884264815,31.1897022555378,2022-04-24
"浦东新区","上海市浦东新区云山路1050弄",121.578006175806,31.2549915817213,2022-04-24
"浦东新区","上海市浦东新区云山路1395弄",121.584226761802,31.251544007244,2022-04-24
"浦东新区","上海市浦东新区云山路999弄",121.578509226892,31.2581962432747,2022-04-24
"浦东新区","上海市浦东新区云台路183弄",121.510618530348,31.1833989622759,2022-04-24
"浦东新区","上海市浦东新区云台路501弄",121.536884264815,31.1897022555378,2022-04-24
"浦东新区","上海市浦东新区云台路529弄",121.513630638553,31.1744192328881,2022-04-24
"浦东新区","上海市浦东新区云雅路395弄",121.684257751526,31.2495794094373,2022-04-24
"浦东新区","上海市浦东新区运通路728弄",121.708932407275,31.2091959517742,2022-04-24
"浦东新区","上海市浦东新区韵涛路36弄",121.584859707864,31.1200779398788,2022-04-24
"浦东新区","上海市浦东新区枣庄路552弄",121.585578981086,31.2573668619355,2022-04-24
"浦东新区","上海市浦东新区枣庄路658弄",121.585248584319,31.2574340029709,2022-04-24
"浦东新区","上海市浦东新区枣庄路810弄",121.588587316408,31.2550907523054,2022-04-24
"浦东新区","上海市浦东新区枣庄路998弄",121.59064021399,31.253395808369,2022-04-24
"浦东新区","上海市浦东新区张江路775弄",121.625176198135,31.2084657420124,2022-04-24
"浦东新区","上海市浦东新区张江镇韩荡村西丁家宅",121.669724605664,31.2288207632593,2022-04-24
"浦东新区","上海市浦东新区张江镇环东中心村桥弄金家宅",121.593249522005,31.1310947543661,2022-04-24
"浦东新区","上海市浦东新区张江镇环东中心村四灶姚家宅",121.658264293459,31.1968055508244,2022-04-24
"浦东新区","上海市浦东新区张江镇劳动村郑家宅",121.638816787643,31.1756930999362,2022-04-24
"浦东新区","上海市浦东新区张江镇沔北村曹家宅",121.637550266705,31.1732648435155,2022-04-24
"浦东新区","上海市浦东新区张江镇沔北村南诸家宅",121.628810113415,31.1677259713913,2022-04-24
"浦东新区","上海市浦东新区张江镇钱堂村立达宅",121.599518706329,31.1638817454656,2022-04-24
"浦东新区","上海市浦东新区张江镇新丰村龚家宅",121.651728671721,31.166540677472,2022-04-24
"浦东新区","上海市浦东新区张江镇长元村曹家宅",121.657988244176,31.1753357824389,2022-04-24
"浦东新区","上海市浦东新区张江镇中心村安乐宅",121.664786799937,31.1927150050595,2022-04-24
"浦东新区","上海市浦东新区张江镇中心村小桥宅",121.664786799937,31.1927150050595,2022-04-24
"浦东新区","上海市浦东新区张杨北路310弄",121.593811215011,31.2761815081966,2022-04-24
"浦东新区","上海市浦东新区张杨北路5428弄",121.583649690342,31.3484989225353,2022-04-24
"浦东新区","上海市浦东新区张杨北路5848弄",121.579901600432,31.3546347418898,2022-04-24
"浦东新区","上海市浦东新区张杨北路5911弄",121.579024944085,31.3549662420976,2022-04-24
"浦东新区","上海市浦东新区张杨路1050弄",121.537039761499,31.2368178189678,2022-04-24
"浦东新区","上海市浦东新区张杨路1673弄",121.549771894644,31.2433326325524,2022-04-24
"浦东新区","上海市浦东新区张杨路2100弄",121.5896261169,31.2815848989426,2022-04-24
"浦东新区","上海市浦东新区张杨路2855弄",121.570108273763,31.2519241874615,2022-04-24
"浦东新区","上海市浦东新区张杨路2999弄",121.573700687328,31.253982428223,2022-04-24
"浦东新区","上海市浦东新区张杨路310弄",121.519739385513,31.2308058679906,2022-04-24
"浦东新区","上海市浦东新区张杨路370弄",121.521538421957,31.2321643454895,2022-04-24
"浦东新区","上海市浦东新区张杨路3738号",121.583939753191,31.2593138552082,2022-04-24
"浦东新区","上海市浦东新区张杨路628弄",121.52760369093,31.2338303409147,2022-04-24
"浦东新区","上海市浦东新区张杨路951弄",121.53298364263,31.2369143843504,2022-04-24
"浦东新区","上海市浦东新区招远路19弄",121.521229943845,31.2416451169276,2022-04-24
"浦东新区","上海市浦东新区赵高公路587号",121.633098983242,31.3221740793311,2022-04-24
"浦东新区","上海市浦东新区赵高公路950968号",121.639170540353,31.3138972629159,2022-04-24
"浦东新区","上海市浦东新区赵高公路958号",121.637129320743,31.3168728490792,2022-04-24
"浦东新区","上海市浦东新区赵高路610号",121.633474115623,31.3217408948772,2022-04-24
"浦东新区","上海市浦东新区振兴东路12弄",121.50271020796,31.1683855859142,2022-04-24
"浦东新区","上海市浦东新区中科路2635弄",121.644202488498,31.1969291857144,2022-04-24
"浦东新区","上海市浦东新区周邓公路6600弄",121.609428902545,31.1210675917091,2022-04-24
"浦东新区","上海市浦东新区周东路243弄",121.592340077507,31.122621335648,2022-04-24
"浦东新区","上海市浦东新区周东南路388弄",121.595945421387,31.1037488647553,2022-04-24
"浦东新区","上海市浦东新区周汇路158弄",121.584859707864,31.1200779398788,2022-04-24
"浦东新区","上海市浦东新区周康路868弄",121.580275026033,31.1075858680056,2022-04-24
"浦东新区","上海市浦东新区周康路869弄",121.581217079021,31.1074874688241,2022-04-24
"浦东新区","上海市浦东新区周浦镇北庄村窑港",121.672602866348,31.1082715675334,2022-04-24
"浦东新区","上海市浦东新区周浦镇红桥村民治",121.635952720186,31.1170477860701,2022-04-24
"浦东新区","上海市浦东新区周浦镇里仁村",121.575105367653,31.1138505842326,2022-04-24
"浦东新区","上海市浦东新区周浦镇沈西村梅林",121.56865355782,31.0925725798678,2022-04-24
"浦东新区","上海市浦东新区周浦镇周南村",121.589970886555,31.111919735761,2022-04-24
"浦东新区","上海市浦东新区周市路1321号",121.589701664393,31.1193185943326,2022-04-24
"浦东新区","上海市浦东新区周市路380弄",121.587868043186,31.1226080426831,2022-04-24
"浦东新区","上海市浦东新区周市路39弄",121.588218292505,31.1162047110595,2022-04-24
"浦东新区","上海市浦东新区周泰路32弄",121.607434035499,31.107255809072,2022-04-24
"浦东新区","上海市浦东新区周星路500弄",121.585699803177,31.1080593111742,2022-04-24
"浦东新区","上海市浦东新区周秀路26弄",121.613149208927,31.1049366387275,2022-04-24
"浦东新区","上海市浦东新区周园路666弄",121.599781101368,31.1235407096362,2022-04-24
"浦东新区","上海市浦东新区周祝公路1218号",121.645873606238,31.1122038661462,2022-04-24
"浦东新区","上海市浦东新区周祝公路周泰北路交界口工地生活区",121.608663636081,31.109520206494,2022-04-24
"浦东新区","上海市浦东新区洲德路博艺路交界口工地生活区",121.919845557962,30.954732334048,2022-04-24
"浦东新区","上海市浦东新区竹柏路500弄",121.910085019444,30.90890287624,2022-04-24
"浦东新区","上海市浦东新区祝桥镇邓三村张家宅",121.767019895788,31.1406933138706,2022-04-24
"浦东新区","上海市浦东新区祝桥镇高永村高宅",121.801417001902,31.0783308052297,2022-04-24
"浦东新区","上海市浦东新区祝桥镇共和村高家宅",121.740163974601,31.1765980509996,2022-04-24
"浦东新区","上海市浦东新区祝桥镇红星村红一",121.771290979166,31.0958843007522,2022-04-24
"浦东新区","上海市浦东新区祝桥镇金星村",121.779087462518,31.1192198982828,2022-04-24
"浦东新区","上海市浦东新区祝桥镇立新村金家宅",121.763918136693,31.1774717113271,2022-04-24
"浦东新区","上海市浦东新区祝桥镇立新村叶桥",121.757182911471,31.0925090315368,2022-04-24
"浦东新区","上海市浦东新区祝桥镇亭中村",121.778744130152,31.1030364407433,2022-04-24
"浦东新区","上海市浦东新区祝桥镇新东村东海",121.805680809005,31.1017985379275,2022-04-24
"浦东新区","上海市浦东新区祝桥镇新生村",121.749243867035,31.1801132658388,2022-04-24
"浦东新区","上海市浦东新区祝桥镇星光村前进",121.755200800363,31.1255442738515,2022-04-24
"浦东新区","上海市浦东新区祝桥镇星火村",121.708317606984,31.2618230698832,2022-04-24
"浦东新区","上海市浦东新区祝桥镇义泓村",121.843812620276,31.0819638207255,2022-04-24
"浦东新区","上海市浦东新区祝桥镇中圩村陈家宅",121.759719187248,31.161101373698,2022-04-24
"浦东新区","上海市浦东新区砖桥街1号",121.591293192265,31.3502527378902,2022-04-24
"浦东新区","上海市浦东新区梓康路188弄",121.575652795031,31.1286408460994,2022-04-24
"浦东新区","上海市浦东新区梓康路51弄",121.579353544241,31.1287212942564,2022-04-24
"浦东新区","上海市浦东新区紫叶路101弄",121.558130268093,31.1894569744936,2022-04-24
"浦东新区","上海市浦东新区紫叶路65弄",121.536884264815,31.1897022555378,2022-04-24
"浦东新区","上海市浦东新区紫叶路81弄",121.557722167899,31.1897187054085,2022-04-24
"浦东新区","上海市浦东新区邹平路191号工地生活区",121.521600584699,31.1763068548283,2022-04-24
"黄浦区","上海市黄浦区安澜路55号",121.492729225269,31.2214398030694,2022-04-24
"黄浦区","上海市黄浦区半淞园路387号",121.501863016033,31.2078770607787,2022-04-24
"黄浦区","上海市黄浦区半淞园路650号",121.501021393601,31.2042314632707,2022-04-24
"黄浦区","上海市黄浦区半淞园路698弄",121.500650662917,31.2032802164143,2022-04-24
"黄浦区","上海市黄浦区保屯路211弄",121.498305816045,31.209535149529,2022-04-24
"黄浦区","上海市黄浦区保屯路44号",121.49649698807,31.2118896561447,2022-04-24
"黄浦区","上海市黄浦区保屯路50弄",121.496314991373,31.2118891156666,2022-04-24
"黄浦区","上海市黄浦区保屯路99弄",121.496778786508,31.2130922893987,2022-04-24
"黄浦区","上海市黄浦区北海路267弄",121.484519341722,31.2360802599392,2022-04-24
"黄浦区","上海市黄浦区北京东路200弄",121.49295919148,31.2465085187481,2022-04-24
"黄浦区","上海市黄浦区北京东路288弄",121.490646324283,31.2464802699138,2022-04-24
"黄浦区","上海市黄浦区北京东路316弄",121.477099248379,31.2054004512698,2022-04-24
"黄浦区","上海市黄浦区北京东路360弄",121.489311532126,31.2465650935736,2022-04-24
"黄浦区","上海市黄浦区北京东路431弄",121.488688467424,31.2454462486496,2022-04-24
"黄浦区","上海市黄浦区北京东路432号",121.488092980702,31.2459944040648,2022-04-24
"黄浦区","上海市黄浦区北京东路460号",121.487887178909,31.2457626231683,2022-04-24
"黄浦区","上海市黄浦区北京东路498号",121.487097119213,31.2455900413484,2022-04-24
"黄浦区","上海市黄浦区北京西路206号",121.476306942919,31.242105997039,2022-04-24
"黄浦区","上海市黄浦区北京西路218弄",121.476082007219,31.242234743581,2022-04-24
"黄浦区","上海市黄浦区北京西路239弄",121.475743795195,31.241462338857,2022-04-24
"黄浦区","上海市黄浦区北京西路253号",121.475616145982,31.241547784562,2022-04-24
"黄浦区","上海市黄浦区北京西路256号",121.475433161149,31.2417952447631,2022-04-24
"黄浦区","上海市黄浦区北京西路256弄",121.475433161149,31.2417952447631,2022-04-24
"黄浦区","上海市黄浦区北京西路257号",121.475502151013,31.2416025099093,2022-04-24
"黄浦区","上海市黄浦区曹家街62号",121.492939967742,31.2243608980118,2022-04-24
"黄浦区","上海市黄浦区车站支路99弄",121.499215979187,31.2139173535869,2022-04-24
"黄浦区","上海市黄浦区成都北路262弄",121.474451223396,31.2349910085444,2022-04-24
"黄浦区","上海市黄浦区成都北路274弄",121.474027313026,31.2345860579065,2022-04-24
"黄浦区","上海市黄浦区成都北路600号",121.473469734796,31.240024184076,2022-04-24
"黄浦区","上海市黄浦区成都南路108弄",121.473771655278,31.2277003165085,2022-04-24
"黄浦区","上海市黄浦区成都南路132弄",121.474190714799,31.2275981061468,2022-04-24
"黄浦区","上海市黄浦区长乐路161号",121.469742395744,31.2266194594411,2022-04-24
"黄浦区","上海市黄浦区长乐路169弄",121.468800612247,31.2272269364624,2022-04-24
"黄浦区","上海市黄浦区长乐路175号",121.467918566067,31.2269951862582,2022-04-24
"黄浦区","上海市黄浦区长乐路306号",121.470492480845,31.2275627493642,2022-04-24
"黄浦区","上海市黄浦区长乐路83弄",121.474743981162,31.2279390127794,2022-04-24
"黄浦区","上海市黄浦区重庆北路106号",121.476989116123,31.2315367526421,2022-04-24
"黄浦区","上海市黄浦区重庆北路128号",121.476909795747,31.2318232998617,2022-04-24
"黄浦区","上海市黄浦区重庆北路177弄",121.476319968349,31.2325548713123,2022-04-24
"黄浦区","上海市黄浦区重庆北路178号",121.476826522826,31.2323574857621,2022-04-24
"黄浦区","上海市黄浦区重庆北路205号",121.4764000972,31.2326118405489,2022-04-24
"黄浦区","上海市黄浦区重庆北路212号",121.476441509084,31.2331334393856,2022-04-24
"黄浦区","上海市黄浦区重庆北路216弄",121.476485975207,31.233229391023,2022-04-24
"黄浦区","上海市黄浦区重庆北路235号",121.475467027267,31.233620838719,2022-04-24
"黄浦区","上海市黄浦区重庆北路318弄",121.47528332379,31.2349013112801,2022-04-24
"黄浦区","上海市黄浦区重庆北路94弄",121.477107692451,31.2312745210258,2022-04-24
"黄浦区","上海市黄浦区重庆南路169弄",121.478156104811,31.2231556302522,2022-04-24
"黄浦区","上海市黄浦区重庆南路181号",121.477707221548,31.2219111279105,2022-04-24
"黄浦区","上海市黄浦区重庆南路205弄",121.477585501151,31.2205009292658,2022-04-24
"黄浦区","上海市黄浦区重庆南路26弄",121.491585592524,31.2372471520636,2022-04-24
"黄浦区","上海市黄浦区重庆南路30弄",121.477818162278,31.2253379471355,2022-04-24
"黄浦区","上海市黄浦区打浦路29号",121.47751192993,31.2094519137722,2022-04-24
"黄浦区","上海市黄浦区打浦路316弄",121.477142906027,31.2052986798579,2022-04-24
"黄浦区","上海市黄浦区打浦路339弄",121.478552257541,31.2052967494431,2022-04-24
"黄浦区","上海市黄浦区打浦路500弄",121.479751585228,31.2021083448416,2022-04-24
"黄浦区","上海市黄浦区打浦路80弄",121.476874312679,31.209469750012,2022-04-24
"黄浦区","上海市黄浦区打浦路90弄",121.477225280642,31.2085608695874,2022-04-24
"黄浦区","上海市黄浦区打浦路92号",121.477142456874,31.2087272653975,2022-04-24
"黄浦区","上海市黄浦区大夫坊27号",121.491585592524,31.2372471520636,2022-04-24
"黄浦区","上海市黄浦区大夫坊29号",121.491585592524,31.2372471520636,2022-04-24
"黄浦区","上海市黄浦区大沽路139弄",121.478150894639,31.2320037809305,2022-04-24
"黄浦区","上海市黄浦区大沽路155号",121.477789596163,31.232309856883,2022-04-24
"黄浦区","上海市黄浦区大沽路159号",121.477727882575,31.2321308430994,2022-04-24
"黄浦区","上海市黄浦区大沽路171号",121.477528907904,31.2320995793376,2022-04-24
"黄浦区","上海市黄浦区大沽路177号",121.47743045362,31.2320684699542,2022-04-24
"黄浦区","上海市黄浦区大沽路183弄",121.477665540172,31.2319429515929,2022-04-24
"黄浦区","上海市黄浦区大沽路185号",121.477276573886,31.2320723296798,2022-04-24
"黄浦区","上海市黄浦区大沽路197号",121.477107782281,31.2319145439699,2022-04-24
"黄浦区","上海市黄浦区大沽路201号",121.476954082208,31.2319064385325,2022-04-24
"黄浦区","上海市黄浦区大沽路252号",121.476074820775,31.2320001527858,2022-04-24
"黄浦区","上海市黄浦区大沽路254号",121.475885817296,31.2319917385775,2022-04-24
"黄浦区","上海市黄浦区大吉路26弄",121.449603104854,31.2296828975263,2022-04-24
"黄浦区","上海市黄浦区大吉路44弄",121.492894333822,31.2207215781948,2022-04-24
"黄浦区","上海市黄浦区大境路50号",121.493632381629,31.231105849433,2022-04-24
"黄浦区","上海市黄浦区大林路110号",121.493218981433,31.2186038520036,2022-04-24
"黄浦区","上海市黄浦区大林路31弄",121.494257961586,31.2193829306693,2022-04-24
"黄浦区","上海市黄浦区大林路43弄",121.49331950182,31.219241105019,2022-04-24
"黄浦区","上海市黄浦区大林路78号",121.493589532456,31.218933751035,2022-04-24
"黄浦区","上海市黄浦区大兴街18号",121.495053950098,31.2192516049112,2022-04-24
"黄浦区","上海市黄浦区大兴街6号",121.49493842801,31.2193314349355,2022-04-24
"黄浦区","上海市黄浦区淡水路190号",121.479658790268,31.223670410874,2022-04-24
"黄浦区","上海市黄浦区淡水路205号",121.479829558146,31.2235619427871,2022-04-24
"黄浦区","上海市黄浦区淡水路210号",121.479653041113,31.2234698413164,2022-04-24
"黄浦区","上海市黄浦区淡水路213号",121.479936905654,31.2233381352837,2022-04-24
"黄浦区","上海市黄浦区淡水路214弄",121.479010483182,31.2233875443681,2022-04-24
"黄浦区","上海市黄浦区淡水路217号",121.479843571712,31.2232029549837,2022-04-24
"黄浦区","上海市黄浦区淡水路223弄",121.479911483608,31.2228435797927,2022-04-24
"黄浦区","上海市黄浦区淡水路225弄",121.479878246304,31.2227551833205,2022-04-24
"黄浦区","上海市黄浦区淡水路227弄",121.479884264951,31.2227210599438,2022-04-24
"黄浦区","上海市黄浦区淡水路246号",121.479635973308,31.2227508599974,2022-04-24
"黄浦区","上海市黄浦区淡水路250号",121.479694363167,31.222688557802,2022-04-24
"黄浦区","上海市黄浦区淡水路266弄",121.47956931904,31.222047854132,2022-04-24
"黄浦区","上海市黄浦区淡水路276号",121.479711969955,31.2220641439169,2022-04-24
"黄浦区","上海市黄浦区淡水路460弄",121.480455677086,31.217062274703,2022-04-24
"黄浦区","上海市黄浦区滇池路116号",121.494156542894,31.2453423596379,2022-04-24
"黄浦区","上海市黄浦区东江阴街184号",121.503853571213,31.2196228062258,2022-04-24
"黄浦区","上海市黄浦区东江阴街226号",121.503143191216,31.2197342898606,2022-04-24
"黄浦区","上海市黄浦区东街167弄",121.50389713903,31.228933857077,2022-04-24
"黄浦区","上海市黄浦区东台路279号",121.48934800333,31.2238348497981,2022-04-24
"黄浦区","上海市黄浦区多稼路2号",121.512277880286,31.2153107427875,2022-04-24
"黄浦区","上海市黄浦区方浜西路63弄",121.488941789578,31.2268514421722,2022-04-24
"黄浦区","上海市黄浦区方斜路409号",121.489935584964,31.2202575817683,2022-04-24
"黄浦区","上海市黄浦区方斜路524弄",121.489101238806,31.2186375908533,2022-04-24
"黄浦区","上海市黄浦区方斜路556弄",121.48243060175,31.208481416449,2022-04-24
"黄浦区","上海市黄浦区凤阳路200弄",121.478292467588,31.2405030568764,2022-04-24
"黄浦区","上海市黄浦区凤阳路228弄",121.478205960767,31.2405736834601,2022-04-24
"黄浦区","上海市黄浦区凤阳路358弄",121.475650191761,31.240041088235,2022-04-24
"黄浦区","上海市黄浦区福建中路150号",121.488634389432,31.2391196141449,2022-04-24
"黄浦区","上海市黄浦区福建中路410号",121.486495703674,31.2430097662322,2022-04-24
"黄浦区","上海市黄浦区福州路384弄",121.489639054315,31.2400334466292,2022-04-24
"黄浦区","上海市黄浦区福州路531弄",121.487320078641,31.238870294331,2022-04-24
"黄浦区","上海市黄浦区福州路614弄",121.485855032185,31.2389698679587,2022-04-24
"黄浦区","上海市黄浦区福州路623号",121.485542691359,31.2383066592867,2022-04-24
"黄浦区","上海市黄浦区复兴东路248号",121.506520819933,31.2263697975165,2022-04-24
"黄浦区","上海市黄浦区复兴东路330号",121.504685491946,31.2265609425748,2022-04-24
"黄浦区","上海市黄浦区复兴东路354号",121.504317815501,31.2266762006947,2022-04-24
"黄浦区","上海市黄浦区复兴东路404弄",121.503635193144,31.2268925119336,2022-04-24
"黄浦区","上海市黄浦区复兴东路451弄",121.518304791613,31.2003641008301,2022-04-24
