"district","address","lng","lat","date"
"浦东新区","上海市浦东新区北艾路1077弄",121.540540368241,31.1863061063091,2022-05-17
"浦东新区","上海市浦东新区北张家浜路58号",121.527623453651,31.2221730769557,2022-05-17
"浦东新区","上海市浦东新区博山路51弄",121.563650984265,31.2507948331348,2022-05-17
"浦东新区","上海市浦东新区晨阳西路150弄",121.741127497091,31.1769436232136,2022-05-17
"浦东新区","上海市浦东新区丁香路910弄",121.560392021706,31.2312404779508,2022-05-17
"浦东新区","上海市浦东新区东陆路1268弄",121.601560554753,31.2728788634835,2022-05-17
"浦东新区","上海市浦东新区高桥镇南塘村顾家宅",121.5746809183,31.345394276907,2022-05-17
"浦东新区","上海市浦东新区航定路568弄",121.596691649058,31.0329904097472,2022-05-17
"浦东新区","上海市浦东新区航头路1137弄",121.600001276049,31.038725347761,2022-05-17
"浦东新区","上海市浦东新区航头路988弄",121.606904664062,31.0406249008946,2022-05-17
"浦东新区","上海市浦东新区航绣路50弄",121.60439363067,31.0765771467867,2022-05-17
"浦东新区","上海市浦东新区鹤永路751弄",121.610426021661,31.0775687255746,2022-05-17
"浦东新区","上海市浦东新区鸿音路正茂路交界口工地生活区",121.836238198046,30.8856842871463,2022-05-17
"浦东新区","上海市浦东新区金港路121号生活区",121.615555166462,31.2641713991858,2022-05-17
"浦东新区","上海市浦东新区康梧路189号工地生活区",121.557148959153,31.1422771769984,2022-05-17
"浦东新区","上海市浦东新区崂山路645弄",121.531348816432,31.2278054602837,2022-05-17
"浦东新区","上海市浦东新区临沂路101弄",121.521040491213,31.2013230220684,2022-05-17
"浦东新区","上海市浦东新区灵岩南路380弄",121.503294286203,31.1590254851873,2022-05-17
"浦东新区","上海市浦东新区浦明路688弄",121.518068267772,31.2284627991959,2022-05-17
"浦东新区","上海市浦东新区三林路788弄",121.514306433788,31.1473404454447,2022-05-17
"浦东新区","上海市浦东新区三林镇天花庵村北陈队大陈家宅",121.531939542135,31.1285359001772,2022-05-17
"浦东新区","上海市浦东新区三林镇天花庵村南陈队大陈家宅",121.531939542135,31.1285359001772,2022-05-17
"浦东新区","上海市浦东新区三林镇西林村西林队金家宅",121.506713326804,31.1407565978205,2022-05-17
"浦东新区","上海市浦东新区世博家园大道站路94弄",121.545610314708,31.1654593463491,2022-05-17
"浦东新区","上海市浦东新区下南路309弄",121.529696185109,31.2072012517119,2022-05-17
"浦东新区","上海市浦东新区耀华路220弄",121.497392239341,31.1792613340205,2022-05-17
"浦东新区","上海市浦东新区耀华路222号",121.495489987593,31.1814978895497,2022-05-17
"浦东新区","上海市浦东新区耀华路421弄",121.489669776363,31.1813858197461,2022-05-17
"浦东新区","上海市浦东新区耀华路560号",121.488000006081,31.1774534827976,2022-05-17
"浦东新区","上海市浦东新区御青路1051弄",121.584859707864,31.1200779398788,2022-05-17
"浦东新区","上海市浦东新区韵涛路36弄",121.584859707864,31.1200779398788,2022-05-17
"浦东新区","上海市浦东新区张杨路310弄",121.519739385513,31.2308058679906,2022-05-17
"浦东新区","上海市浦东新区招远路19弄",121.521229943845,31.2416451169276,2022-05-17
"浦东新区","上海市浦东新区竹柏路333弄",121.917056768507,30.9044334108221,2022-05-17
"浦东新区","上海市浦东新区紫萍路889号工地生活区",121.630427788394,31.0960394053885,2022-05-17
"浦东新区","上海市浦东新区紫叶路65弄",121.536884264815,31.1897022555378,2022-05-17
"黄浦区","上海市黄浦区保屯路211弄",121.498305816045,31.209535149529,2022-05-17
"黄浦区","上海市黄浦区北京东路316弄",121.477099248379,31.2054004512698,2022-05-17
"黄浦区","上海市黄浦区重庆南路169弄",121.478156104811,31.2231556302522,2022-05-17
"黄浦区","上海市黄浦区重庆南路26弄",121.491585592524,31.2372471520636,2022-05-17
"黄浦区","上海市黄浦区重庆南路30弄",121.477818162278,31.2253379471355,2022-05-17
"黄浦区","上海市黄浦区打浦路316弄",121.477142906027,31.2052986798579,2022-05-17
"黄浦区","上海市黄浦区打浦路339弄",121.478552257541,31.2052967494431,2022-05-17
"黄浦区","上海市黄浦区打浦路403号",121.478919664495,31.2044377881261,2022-05-17
"黄浦区","上海市黄浦区大吉路135弄",121.491322658502,31.2202550340278,2022-05-17
"黄浦区","上海市黄浦区大林路86号",121.493454606968,31.2187793402125,2022-05-17
"黄浦区","上海市黄浦区淡水路214弄",121.479010483182,31.2233875443681,2022-05-17
"黄浦区","上海市黄浦区牯岭路145弄",121.477555497747,31.2417679207431,2022-05-17
"黄浦区","上海市黄浦区广东路138号",121.494688699078,31.2390723746523,2022-05-17
"黄浦区","上海市黄浦区汉口路445号",121.488498565639,31.2405296093907,2022-05-17
"黄浦区","上海市黄浦区淮海中路526弄",121.475825002013,31.2273074544703,2022-05-17
"黄浦区","上海市黄浦区黄家路88弄",121.50359063719,31.2212345193213,2022-05-17
"黄浦区","上海市黄浦区局门后路1号",121.487196471803,31.2154017713709,2022-05-17
"黄浦区","上海市黄浦区局门后路85号",121.487218659949,31.2142250328777,2022-05-17
"黄浦区","上海市黄浦区丽园路842弄",121.483621395534,31.2113782080457,2022-05-17
"黄浦区","上海市黄浦区柳江街24弄",121.496079276007,31.2251014830374,2022-05-17
"黄浦区","上海市黄浦区鲁班路168弄",121.480692470419,31.2107777316744,2022-05-17
"黄浦区","上海市黄浦区鲁班路388弄",121.481238999491,31.2073530047359,2022-05-17
"黄浦区","上海市黄浦区鲁班路778弄",121.485698457534,31.1980416607154,2022-05-17
"黄浦区","上海市黄浦区陆家浜路1300号",121.49057401069,31.2171658862935,2022-05-17
"黄浦区","上海市黄浦区蒙自路345弄",121.485623179532,31.21018620811,2022-05-17
"黄浦区","上海市黄浦区南车站路555号",121.501598644722,31.2095445695266,2022-05-17
"黄浦区","上海市黄浦区南京西路479弄",121.474402984391,31.2367738975098,2022-05-17
"黄浦区","上海市黄浦区宁波路120弄",121.491211897432,31.2454927130886,2022-05-17
"黄浦区","上海市黄浦区宁波路51号",121.492500786178,31.2452096038235,2022-05-17
"黄浦区","上海市黄浦区瞿溪路120弄",121.50172216173,31.2120859266995,2022-05-17
"黄浦区","上海市黄浦区瞿溪路121号",121.501095863128,31.2123133128033,2022-05-17
"黄浦区","上海市黄浦区瞿溪路125号",121.500705549384,31.2120042374312,2022-05-17
"黄浦区","上海市黄浦区瞿溪路937弄",121.484684090952,31.2063509816511,2022-05-17
"黄浦区","上海市黄浦区山西南路264号",121.488444128325,31.2440491401772,2022-05-17
"黄浦区","上海市黄浦区五里桥路260弄",121.486546188444,31.2091485427482,2022-05-17
"黄浦区","上海市黄浦区五里桥路269弄",121.48593902375,31.2095841026205,2022-05-17
"黄浦区","上海市黄浦区五里桥路39弄",121.489821320503,31.2101848182838,2022-05-17
"黄浦区","上海市黄浦区西藏南路1108弄",121.492316453887,31.2158389235211,2022-05-17
"黄浦区","上海市黄浦区西藏南路1341弄",121.494635788883,31.2116118499907,2022-05-17
"黄浦区","上海市黄浦区西藏中路555号",121.479444095252,31.2423435759513,2022-05-17
"黄浦区","上海市黄浦区西凌家宅路27弄",121.493752125753,31.2105657842924,2022-05-17
"黄浦区","上海市黄浦区斜土东路158号",121.49594273357,31.212950685849,2022-05-17
"黄浦区","上海市黄浦区斜土东路68弄",121.497270968097,31.2140800338297,2022-05-17
"黄浦区","上海市黄浦区斜土路262弄",121.487484738041,31.2107963397823,2022-05-17
"黄浦区","上海市黄浦区斜土路486弄",121.483998234695,31.2084093757901,2022-05-17
"黄浦区","上海市黄浦区新昌路87弄",121.47507940844,31.238620665096,2022-05-17
"黄浦区","上海市黄浦区学西街39弄",121.493347304375,31.2232647164243,2022-05-17
"黄浦区","上海市黄浦区学院路70号",121.502550758732,31.228816671808,2022-05-17
"黄浦区","上海市黄浦区雁荡路107号",121.476478159949,31.2245719649552,2022-05-17
"黄浦区","上海市黄浦区永年路149弄",121.485099287759,31.2170759403217,2022-05-17
"黄浦区","上海市黄浦区制造局路291号",121.491228066931,31.2129974752681,2022-05-17
"黄浦区","上海市黄浦区制造局路567弄",121.491828673995,31.2093086060248,2022-05-17
"黄浦区","上海市黄浦区中华路185号",121.505177224382,31.2278210542844,2022-05-17
"黄浦区","上海市黄浦区中山南路1726弄",121.49944953862,31.2099897019351,2022-05-17
"黄浦区","上海市黄浦区中山南路1754号",121.499056440129,31.2093329282065,2022-05-17
"黄浦区","上海市黄浦区中山南一路500弄",121.492106430059,31.205224783551,2022-05-17
"静安区","上海市静安区宝昌路731弄",121.477102302618,31.270603131672,2022-05-17
"静安区","上海市静安区宝通路239弄",121.484591206163,31.2625356545031,2022-05-17
"静安区","上海市静安区长乐路764弄",121.457610151018,31.2236014699621,2022-05-17
"静安区","上海市静安区场中路2800弄",121.447194029138,31.3104721478353,2022-05-17
"静安区","上海市静安区高平路860弄",121.434458482431,31.2983149356945,2022-05-17
"静安区","上海市静安区共和新路625弄",121.470507033394,31.2602544231037,2022-05-17
"静安区","上海市静安区汉中路78弄",121.465700020949,31.2493749592327,2022-05-17
"静安区","上海市静安区恒丰北路100号",121.458020137652,31.2616913406822,2022-05-17
"静安区","上海市静安区江宁路401弄",121.458648322696,31.2402440922799,2022-05-17
"静安区","上海市静安区交城路386弄",121.431528389519,31.2994060718159,2022-05-17
"静安区","上海市静安区临汾路380弄",121.468559956201,31.3181868863255,2022-05-17
"静安区","上海市静安区灵石路666弄",121.452108658583,31.2883274968453,2022-05-17
"静安区","上海市静安区柳营路319弄",121.469876782248,31.273721070047,2022-05-17
"静安区","上海市静安区洛川东路320弄",121.46965534994,31.2763943986478,2022-05-17
"静安区","上海市静安区毛家弄79号",121.459310942783,31.2635447928215,2022-05-17
"静安区","上海市静安区平型关路300弄",121.47035315366,31.2768807237311,2022-05-17
"静安区","上海市静安区普善路铁路新村1号",121.459744524909,31.2627410791231,2022-05-17
"静安区","上海市静安区普善路铁路新村25号",121.459735811346,31.2626172996541,2022-05-17
"静安区","上海市静安区普善路铁路新村29号",121.460184065795,31.2627166936546,2022-05-17
"静安区","上海市静安区青云路449号",121.477170573836,31.2686674081081,2022-05-17
"静安区","上海市静安区曲阜西路268号",121.473589838243,31.2472168979282,2022-05-17
"静安区","上海市静安区陕西北路900号",121.454442007145,31.2431439145063,2022-05-17
"静安区","上海市静安区泰兴路445弄",121.463383380869,31.2402080455862,2022-05-17
"静安区","上海市静安区天目中路749弄",121.46822066621,31.252132799701,2022-05-17
"静安区","上海市静安区通阁路215弄",121.476210464907,31.2670900793465,2022-05-17
"静安区","上海市静安区西藏北路1009号",121.473537556862,31.2660322872826,2022-05-17
"静安区","上海市静安区阳曲路570弄",121.468987459793,31.3223288591882,2022-05-17
"静安区","上海市静安区中华新路793弄",121.464296059267,31.2602477863762,2022-05-17
"静安区","上海市静安区中兴路1340弄",121.46757667099,31.2582863812331,2022-05-17
"徐汇区","上海市徐汇区东泉路1号",121.450269827204,31.1633739751265,2022-05-17
"徐汇区","上海市徐汇区复兴中路1315弄",121.461202834074,31.2179689880405,2022-05-17
"徐汇区","上海市徐汇区龙南三村",121.462678031383,31.1624058589018,2022-05-17
"徐汇区","上海市徐汇区龙南五村",121.460453018465,31.1614279215894,2022-05-17
"徐汇区","上海市徐汇区日晖二村",121.472543312324,31.2005826350408,2022-05-17
"徐汇区","上海市徐汇区天钥新村",121.452930158972,31.1920618943491,2022-05-17
"徐汇区","上海市徐汇区襄阳南路316号",121.464162211746,31.2159329626961,2022-05-17
"长宁区","上海市长宁区程桥二村",121.381818138869,31.1959505273064,2022-05-17
"长宁区","上海市长宁区芙蓉江路103弄",121.403232215107,31.2139297843131,2022-05-17
"长宁区","上海市长宁区江苏路256弄",121.436576866485,31.227403103289,2022-05-17
"长宁区","上海市长宁区天山路938弄",121.413482869112,31.2168726543865,2022-05-17
"长宁区","上海市长宁区新泾一村",121.377624938579,31.2238128474236,2022-05-17
"长宁区","上海市长宁区延安西路2799弄",121.393977512421,31.2002731348493,2022-05-17
"长宁区","上海市长宁区玉屏南路345弄",121.413765565856,31.2186175946029,2022-05-17
"普陀区","上海市普陀区曹杨六村",121.420601580956,31.2447849383188,2022-05-17
"普陀区","上海市普陀区常德路1258弄",121.442874527093,31.2484179194877,2022-05-17
"普陀区","上海市普陀区甘泉三村",121.432618034102,31.2672621584812,2022-05-17
"普陀区","上海市普陀区兰溪路180弄",121.409857128413,31.2490497211795,2022-05-17
"普陀区","上海市普陀区祁安路368弄",121.393223115454,31.298597652641,2022-05-17
"普陀区","上海市普陀区石泉路135弄",121.431647953982,31.2572742535316,2022-05-17
"普陀区","上海市普陀区石泉一村",121.433798497373,31.2584545407707,2022-05-17
"普陀区","上海市普陀区延长西路150弄",121.446929029012,31.2697288741824,2022-05-17
"普陀区","上海市普陀区宜川二村",121.443969022526,31.2668859761056,2022-05-17
"虹口区","上海市虹口区保定路520弄",121.513260985836,31.2667998590656,2022-05-17
"虹口区","上海市虹口区场中路4弄",121.511586454535,31.2697466989314,2022-05-17
"虹口区","上海市虹口区大连西路96号",121.502457065467,31.2835198147439,2022-05-17
"虹口区","上海市虹口区大连西路201弄",121.500654974784,31.2818138906312,2022-05-17
"虹口区","上海市虹口区大连西路215弄",121.498152026141,31.281729870498,2022-05-17
"虹口区","上海市虹口区东宝兴路709号",121.482646374733,31.2680435326634,2022-05-17
"虹口区","上海市虹口区东汉阳路309弄",121.490924313861,31.2816194781201,2022-05-17
"虹口区","上海市虹口区东余杭路1025弄",121.512069653068,31.2639506984087,2022-05-17
"虹口区","上海市虹口区东余杭路195号",121.499194958838,31.2574144780541,2022-05-17
"虹口区","上海市虹口区广灵一路74弄",121.485199179332,31.2862086014162,2022-05-17
"虹口区","上海市虹口区海宁路5号",121.498231975332,31.2588018945989,2022-05-17
"虹口区","上海市虹口区恒业路360号",121.480339436353,31.271882943459,2022-05-17
"虹口区","上海市虹口区恒业路388弄",121.479535363091,31.2713869470974,2022-05-17
"虹口区","上海市虹口区虹湾路313弄",121.476694022763,31.3190298409555,2022-05-17
"虹口区","上海市虹口区虹镇老街269号",121.510320742071,31.2732087254105,2022-05-17
"虹口区","上海市虹口区嘉兴路225号",121.496124281114,31.2625334937609,2022-05-17
"虹口区","上海市虹口区嘉兴路245号",121.496528338932,31.2624316301431,2022-05-17
"虹口区","上海市虹口区溧阳路1333弄",121.492545970945,31.2694898987563,2022-05-17
"虹口区","上海市虹口区临平路40弄",121.504827244555,31.2663219697841,2022-05-17
"虹口区","上海市虹口区密云路611弄",121.506720603079,31.293519416688,2022-05-17
"虹口区","上海市虹口区曲阳路475弄",121.496970035751,31.2803654007278,2022-05-17
"虹口区","上海市虹口区瑞虹路188号",121.505259149844,31.2700101344352,2022-05-17
"虹口区","上海市虹口区瑞虹路31号",121.504089196748,31.2664412687098,2022-05-17
"虹口区","上海市虹口区三门支路747弄",121.487895038826,31.3200716425815,2022-05-17
"虹口区","上海市虹口区四川北路1856弄",121.490619824271,31.266843920751,2022-05-17
"虹口区","上海市虹口区四川北路1953弄",121.488481048682,31.2689843985128,2022-05-17
"虹口区","上海市虹口区四达路25弄",121.497927629425,31.2724273944294,2022-05-17
"虹口区","上海市虹口区四平路621号",121.502500453623,31.2774377993282,2022-05-17
"虹口区","上海市虹口区天水路106弄",121.497425207153,31.2650582869472,2022-05-17
"虹口区","上海市虹口区天通庵路553弄",121.4736235247,31.2624819446106,2022-05-17
"虹口区","上海市虹口区同鸣路140弄",121.484208977168,31.2749540807095,2022-05-17
"虹口区","上海市虹口区吴家湾路52弄",121.492271897934,31.2981787067046,2022-05-17
"虹口区","上海市虹口区西宝兴路949弄",121.475029552484,31.2755931874033,2022-05-17
"虹口区","上海市虹口区新市北路1390弄",121.48749111601,31.3092403004518,2022-05-17
"虹口区","上海市虹口区逸仙路58号",121.495536250327,31.300159021582,2022-05-17
"虹口区","上海市虹口区中山北一路240号",121.48526403699,31.2819081720864,2022-05-17
"杨浦区","上海市杨浦区安波路567弄",121.534321578856,31.3071265077671,2022-05-17
"杨浦区","上海市杨浦区波阳路301号",121.559337141545,31.2798919015258,2022-05-17
"杨浦区","上海市杨浦区长阳路2080号",121.547871439507,31.2787251559148,2022-05-17
"杨浦区","上海市杨浦区长阳路910弄",121.528613655815,31.2683234861921,2022-05-17
"杨浦区","上海市杨浦区凤城三村",121.528297991259,31.2878228700411,2022-05-17
"杨浦区","上海市杨浦区凤城一村",121.525101910085,31.2823309715496,2022-05-17
"杨浦区","上海市杨浦区阜新路182弄",121.51428397615,31.2833561751455,2022-05-17
"杨浦区","上海市杨浦区国伟路300号",121.540327649496,31.3380855227175,2022-05-17
"杨浦区","上海市杨浦区佳木斯路154弄",121.547461542703,31.3057865520548,2022-05-17
"杨浦区","上海市杨浦区江浦路1379号",121.524762979416,31.2789448187635,2022-05-17
"杨浦区","上海市杨浦区靖宇东路85弄",121.547152705269,31.2971940104981,2022-05-17
"杨浦区","上海市杨浦区靖宇中路120号",121.533468547944,31.2902783965231,2022-05-17
"杨浦区","上海市杨浦区靖宇中路70号",121.535480033642,31.2911698965802,2022-05-17
"杨浦区","上海市杨浦区军工路2866号",121.549025851918,31.3410077515834,2022-05-17
"杨浦区","上海市杨浦区军工路334号",121.56245021929,31.2932920737328,2022-05-17
"杨浦区","上海市杨浦区军工路400弄",121.562258970047,31.2948290772144,2022-05-17
"杨浦区","上海市杨浦区军工路516号",121.55851465302,31.2962789626884,2022-05-17
"杨浦区","上海市杨浦区开鲁四村",121.536914986863,31.3320019746491,2022-05-17
"杨浦区","上海市杨浦区控江路2026弄",121.517312792838,31.2791893252046,2022-05-17
"杨浦区","上海市杨浦区控江路650弄",121.547080750998,31.2925779494198,2022-05-17
"杨浦区","上海市杨浦区控江七村",121.538589967317,31.289141868182,2022-05-17
"杨浦区","上海市杨浦区控江四村",121.531554977546,31.2909119209767,2022-05-17
"杨浦区","上海市杨浦区控江五村",121.536617288417,31.2934922620784,2022-05-17
"杨浦区","上海市杨浦区辽源西路230弄",121.515985366786,31.2753671896529,2022-05-17
"杨浦区","上海市杨浦区临青路377号",121.545417089193,31.2736402833609,2022-05-17
"杨浦区","上海市杨浦区眉州路470号",121.540439488532,31.2692471416918,2022-05-17
"杨浦区","上海市杨浦区平凉路1759号",121.549109035009,31.2747038533915,2022-05-17
"杨浦区","上海市杨浦区平凉路1983号",121.552515140011,31.2765960892245,2022-05-17
"杨浦区","上海市杨浦区齐齐哈尔路630号",121.533966927841,31.2684187072397,2022-05-17
"杨浦区","上海市杨浦区市光路98弄",121.521970237416,31.3199340999156,2022-05-17
"杨浦区","上海市杨浦区双阳二村",121.53975444075,31.284079705345,2022-05-17
"杨浦区","上海市杨浦区顺平路59弄",121.562105359805,31.2894527716214,2022-05-17
"杨浦区","上海市杨浦区松花江路55弄",121.549851304851,31.3051391672929,2022-05-17
"杨浦区","上海市杨浦区松花一村",121.547631861428,31.3012392597695,2022-05-17
"杨浦区","上海市杨浦区翔殷路871弄",121.531442419866,31.3070371111368,2022-05-17
"杨浦区","上海市杨浦区延吉东路137弄",121.551377615743,31.299151281681,2022-05-17
"杨浦区","上海市杨浦区延吉东路143号",121.551497180207,31.2989578165907,2022-05-17
"杨浦区","上海市杨浦区延吉东路366号",121.546273892989,31.2937738879105,2022-05-17
"杨浦区","上海市杨浦区延吉西路80弄",121.528916205111,31.2866091623597,2022-05-17
"杨浦区","上海市杨浦区营口路600弄",121.540632714047,31.3014316402085,2022-05-17
"杨浦区","上海市杨浦区永吉路158号",121.539985574758,31.2893699927174,2022-05-17
"杨浦区","上海市杨浦区远东一村",121.545550038409,31.3043808582803,2022-05-17
"杨浦区","上海市杨浦区政修路270号",121.509503014565,31.2955658640762,2022-05-17
"宝山区","上海市宝山区长江西路30弄",121.483176195323,31.3479052124221,2022-05-17
"宝山区","上海市宝山区川念路333号",121.392136794601,31.4817366474597,2022-05-17
"宝山区","上海市宝山区电台路599弄",121.398884057117,31.3621520284736,2022-05-17
"宝山区","上海市宝山区富锦路2058号",121.415657037938,31.4010219572604,2022-05-17
"宝山区","上海市宝山区红林路158弄",121.432328061084,31.3718275608762,2022-05-17
"宝山区","上海市宝山区呼兰西路60号",121.442263230194,31.3446747689162,2022-05-17
"宝山区","上海市宝山区沪太路2611号",121.419187468423,31.3145907855867,2022-05-17
"宝山区","上海市宝山区江杨北路1568弄",121.447009966339,31.4052019307942,2022-05-17
"宝山区","上海市宝山区菊盛路851弄",121.375555063023,31.3655515023958,2022-05-17
"宝山区","上海市宝山区聚丰园路628弄",121.381421986139,31.3174156494305,2022-05-17
"宝山区","上海市宝山区兰岗路679号",121.462147941301,31.3820415824213,2022-05-17
"宝山区","上海市宝山区兰岗路757号",121.459812616467,31.3817066333893,2022-05-17
"宝山区","上海市宝山区联谊路649弄",121.42477897107,31.3492678976909,2022-05-17
"宝山区","上海市宝山区联长路221号",121.46935540573,31.3440797750947,2022-05-17
"宝山区","上海市宝山区罗店路198弄",121.496563013525,31.4102794734761,2022-05-17
"宝山区","上海市宝山区南藻路60号",121.425117898216,31.3387445138175,2022-05-17
"宝山区","上海市宝山区潘泾路1328号",121.39402620058,31.3915865062527,2022-05-17
"宝山区","上海市宝山区盘古路1848号",121.454297020636,31.4019519267094,2022-05-17
"宝山区","上海市宝山区三树南路200弄",121.393798280008,31.425763705743,2022-05-17
"宝山区","上海市宝山区韶山路348弄",121.372228188566,31.3691002356995,2022-05-17
"宝山区","上海市宝山区水产西路200号",121.435446349001,31.3667436785145,2022-05-17
"宝山区","上海市宝山区松兰路1166弄",121.448902157065,31.3908299025849,2022-05-17
"宝山区","上海市宝山区塘后路285弄",121.510085296197,31.4045941480637,2022-05-17
"宝山区","上海市宝山区通南路167弄",121.479752573364,31.3462436160922,2022-05-17
"宝山区","上海市宝山区汶水路1585弄",121.422395676721,31.2957361936212,2022-05-17
"宝山区","上海市宝山区新沪路1099弄",121.426730899112,31.2829439502182,2022-05-17
"宝山区","上海市宝山区月罗路1201弄",121.390224392,31.423084743586,2022-05-17
"宝山区","上海市宝山区镇泰路308弄",121.444967591322,31.3887673046274,2022-05-17
"宝山区","上海市宝山区北宗村",121.40980457754,31.3939123805,2022-05-17
"宝山区","上海市宝山区共康六村",121.445469911372,31.334220767249,2022-05-17
"宝山区","上海市宝山区呼玛一村",121.45830175643,31.3481438842397,2022-05-17
"宝山区","上海市宝山区呼玛四村",121.452469957059,31.3495103694908,2022-05-17
"宝山区","上海市宝山区茂盛村",121.405930185876,31.4163209254523,2022-05-17
"宝山区","上海市宝山区淞南五村",121.491637424752,31.3448847930404,2022-05-17
"宝山区","上海市宝山区淞南八村",121.487199076889,31.3400123273096,2022-05-17
"宝山区","上海市宝山区通河一村",121.455058873539,31.341825055584,2022-05-17
"宝山区","上海市宝山区通河二村",121.456897345595,31.3397384488351,2022-05-17
"宝山区","上海市宝山区通河四村",121.45156203968,31.3373858520103,2022-05-17
"宝山区","上海市宝山区通河六村",121.458292414052,31.337235877828,2022-05-17
"宝山区","上海市宝山区永清新村",121.504637612262,31.3967898584618,2022-05-17
"宝山区","上海市宝山区远景村",121.342295571007,31.4087056190161,2022-05-17
"宝山区","上海市宝山区长征新村",121.497751561545,31.3759726984901,2022-05-17
"闵行区","上海市闵行区古美西路420弄",121.400838859737,31.1393902268175,2022-05-17
"闵行区","上海市闵行区古美西路628弄",121.398267370384,31.1386744639421,2022-05-17
"闵行区","上海市闵行区合川路3098号",121.387660268753,31.1845273535867,2022-05-17
"闵行区","上海市闵行区鹤坡南路55弄",121.536303959455,31.0663418722432,2022-05-17
"闵行区","上海市闵行区虹梅南路1770弄",121.438129946881,31.1186495150091,2022-05-17
"闵行区","上海市闵行区黎安路486弄",121.366417044389,31.1311508663928,2022-05-17
"闵行区","上海市闵行区龙茗路1699弄",121.388860404914,31.1576253102664,2022-05-17
"闵行区","上海市闵行区罗阳二村",121.418467925709,31.1265742863013,2022-05-17
"闵行区","上海市闵行区梅陇一村",121.420466026655,31.1425948272757,2022-05-17
"闵行区","上海市闵行区闵驰一路197弄",121.549803245507,31.0461606689846,2022-05-17
"闵行区","上海市闵行区平南二村",121.40034703747,31.1582188652298,2022-05-17
"闵行区","上海市闵行区浦连路598弄",121.541274463503,31.058128041616,2022-05-17
"闵行区","上海市闵行区普乐路333弄",121.431258987696,31.1198851091992,2022-05-17
"闵行区","上海市闵行区莘沥路550号",121.37249785988,31.1132700430732,2022-05-17
"闵行区","上海市闵行区万源路986弄",121.403527128806,31.1569735774931,2022-05-17
"闵行区","上海市闵行区银都路1966弄",121.424098055493,31.1081063075252,2022-05-17
"嘉定区","上海市嘉定区鹤望路365弄",121.331896067779,31.2520776946264,2022-05-17
"嘉定区","上海市嘉定区塔桥村",121.249979139172,31.4491738722988,2022-05-17
"松江区","上海市松江区方泗路38弄",121.277713064165,31.1505649398384,2022-05-17
"松江区","上海市松江区沪亭南路501弄",121.339041728789,31.1255065600961,2022-05-17
"松江区","上海市松江区沪亭南路700弄",121.340810312677,31.1214847803534,2022-05-17
"松江区","上海市松江区涞坊路699弄",121.313509101448,31.1558012042163,2022-05-17
"松江区","上海市松江区新家园路128弄",121.245619662532,31.1135012242521,2022-05-17
"松江区","上海市松江区影振路299弄",121.315064596786,31.010332420418,2022-05-17
"松江区","上海市松江区长水街277弄",121.26109463501,31.0656438064678,2022-05-17
"青浦区","上海市青浦区高光路176号",121.317951312026,31.1691458478883,2022-05-17
"青浦区","上海市青浦区龙联路208弄",121.296974890232,31.2005868049466,2022-05-17
"青浦区","上海市青浦区龙联路58弄",121.303675620522,31.2042845888757,2022-05-17
"青浦区","上海市青浦区龙联路蟠秀路",121.303204279621,31.1911027238624,2022-05-17
"青浦区","上海市青浦区蟠臻路66号",121.295549548879,31.1946896777211,2022-05-17
"青浦区","上海市青浦区崧泽大道333号",121.308617558455,31.1962050582445,2022-05-17
"青浦区","上海市青浦区盈港东路蟠秀路",121.225740071765,31.1701914490882,2022-05-17
"青浦区","上海市青浦区育才路286号",121.281276642123,31.1754520304987,2022-05-17
"青浦区","上海市青浦区诸光路495号",121.319842963769,31.1724477636129,2022-05-17
