"district","address","lng","lat","date"
"宝山区","上海市宝山区丹霞山路257弄",121.370107019766,31.3675569796076,2022-03-11
"宝山区","上海市宝山区四元路126号",121.436653941098,31.4195523226869,2022-03-11
"宝山区","上海市宝山区泗塘一村",121.460399838779,31.3447274291945,2022-03-11
"宝山区","上海市宝山区永顺路81弄",121.355972002905,31.4183699913323,2022-03-11
"宝山区","上海市宝山区长江路868号",121.490436839438,31.3520878558129,2022-03-11
"奉贤区","上海市奉贤区万顺路2768弄",121.520469079078,30.9790229020092,2022-03-11
"虹口区","上海市虹口区三门路747弄",121.486814152978,31.3177930935639,2022-03-11
"虹口区","上海市虹口区四川北路1545弄",121.488676879283,31.2614879973508,2022-03-11
"黄浦区","上海市黄浦区车站东路195号",121.489277845669,31.2305017170132,2022-03-11
"黄浦区","上海市黄浦区淮海东路89弄",121.488370916426,31.2308558135008,2022-03-11
"黄浦区","上海市黄浦区西藏南路1739弄",121.498159482077,31.2045029595054,2022-03-11
"黄浦区","上海市黄浦区徐家汇路388号",121.480628151744,31.2153695755207,2022-03-11
"嘉定区","上海市嘉定区宝安公路3705弄",121.313438764127,31.3453053795747,2022-03-11
"嘉定区","上海市嘉定区城中路20号",121.258437494023,31.3822655490486,2022-03-11
"嘉定区","上海市嘉定区陇南路嘉涛路停车场",121.330611311239,31.2783656854598,2022-03-11
"嘉定区","上海市嘉定区娄塘大北街132号",121.219765890971,31.4391944471686,2022-03-11
"嘉定区","上海市嘉定区娄塘娄南村",121.222467904115,31.43057793372,2022-03-11
"嘉定区","上海市嘉定区娄塘路626弄",121.224235575877,31.4365974995595,2022-03-11
"嘉定区","上海市嘉定区娄塘路658弄",121.223660971541,31.436947491094,2022-03-11
"嘉定区","上海市嘉定区南新路219弄",121.224816973023,31.4367953772625,2022-03-11
"嘉定区","上海市嘉定区秋竹路801弄",121.225987195611,31.3890746169343,2022-03-11
"嘉定区","上海市嘉定区新宝路88弄",121.200884048135,31.4072122548101,2022-03-11
"金山区","上海市金山区学府路1811弄",121.320803342189,30.755067083024,2022-03-11
"静安区","上海市静安区灵石路1197号",121.433015983443,31.2789854798664,2022-03-11
"静安区","上海市静安区陆丰路中宝大厦",121.481374014809,31.2636688797356,2022-03-11
"静安区","上海市静安区茂名北路93号",121.466311407679,31.2314462029207,2022-03-11
"静安区","上海市静安区塘沽路747弄",121.48788403484,31.2521485440021,2022-03-11
"闵行区","上海市闵行区德宏路2465号",121.441709155355,31.0196518122626,2022-03-11
"闵行区","上海市闵行区华漕纪东",121.284139721444,31.2518808133451,2022-03-11
"闵行区","上海市闵行区江川路1565号",121.379179366433,30.9971758467552,2022-03-11
"闵行区","上海市闵行区江川路241弄",121.429029034098,31.0077477260195,2022-03-11
"闵行区","上海市闵行区江川路303弄",121.422027191801,31.0086904297109,2022-03-11
"闵行区","上海市闵行区晋豪生活广场",121.355679694292,31.176544137294,2022-03-11
"闵行区","上海市闵行区景谷中路58弄",121.421333250794,31.0253378160295,2022-03-11
"闵行区","上海市闵行区龙茗路513弄13支弄",121.395353716462,31.1342181126773,2022-03-11
"闵行区","上海市闵行区龙吴路5688弄",121.475579225625,31.0452168701245,2022-03-11
"闵行区","上海市闵行区鲁康路555弄",121.524248969003,31.0342268193806,2022-03-11
"闵行区","上海市闵行区罗秀路1377号",121.424034994446,31.1345681683834,2022-03-11
"闵行区","上海市闵行区普乐路425弄",121.430913140075,31.1209862095661,2022-03-11
"闵行区","上海市闵行区申郑路18弄",121.318236883347,31.2103369269085,2022-03-11
"闵行区","上海市闵行区同乐路158号",121.425788396971,31.1310397326247,2022-03-11
"闵行区","上海市闵行区银都路3151弄",121.404330752915,31.0968833293797,2022-03-11
"浦东新区","上海市NA",121.480538860177,31.235929042252,NA
"浦东新区","上海市浦东新区博兴路462弄",121.589409086289,31.2720183620453,2022-03-11
"浦东新区","上海市浦东新区光辉村",121.718709384784,31.0698578892064,2022-03-11
"浦东新区","上海市浦东新区光泽路120弄",121.623076229345,31.3364001046861,2022-03-11
"浦东新区","上海市浦东新区栖山路1555弄",121.572285586658,31.2644229665686,2022-03-11
"浦东新区","上海市浦东新区听谐路86弄",121.757289001352,31.0625718367426,2022-03-11
"浦东新区","上海市浦东新区瓦屑建设路60弄",121.658234200225,31.1262700288469,2022-03-11
"浦东新区","上海市浦东新区长清路103弄",121.495981181046,31.1756628987045,2022-03-11
"青浦区","上海市青浦区徐和路165弄",121.288442874328,31.1645944578762,2022-03-11
"松江区","上海市松江区博安路32弄",121.318000628998,31.1432614952948,2022-03-11
"松江区","上海市松江区沪松公路1100号",121.266681509138,31.0406443848494,2022-03-11
"松江区","上海市松江区环城路616弄",121.258981956993,31.0167587771811,2022-03-11
"松江区","上海市松江区茸惠路858弄",121.264272527294,31.0670682388426,2022-03-11
"松江区","上海市松江区王家厍路55弄",121.254616012553,31.0983058233158,2022-03-11
"徐汇区","上海市徐汇区华发路368弄",121.453995279815,31.1342788509132,2022-03-11
"徐汇区","上海市徐汇区华泾路880弄",121.454471202074,31.125287309952,2022-03-11
"徐汇区","上海市徐汇区老沪闵路1039弄",121.433693036306,31.1538631830606,2022-03-11
"徐汇区","上海市徐汇区龙吴路1717弄",121.45670573703,31.1382707196565,2022-03-11
"徐汇区","上海市徐汇区罗城路470号",121.446674449231,31.1573758507342,2022-03-11
"徐汇区","上海市徐汇区梅陇路130号",121.432109323692,31.1475741697686,2022-03-11
"徐汇区","上海市徐汇区天等路430弄",121.434986955563,31.1443219883868,2022-03-11
"徐汇区","上海市徐汇区田林路90弄",121.425635595204,31.1770214038202,2022-03-11
"徐汇区","上海市徐汇区田林十四村",121.430482222922,31.1808076270251,2022-03-11
"徐汇区","上海市徐汇区宜山路600号",121.430617507732,31.1854269675365,2022-03-11
"徐汇区","上海市徐汇区宜山路上海精工工地宿舍",121.447826346386,31.1944412434842,2022-03-11
"长宁区","上海市长宁区仙霞西路885弄",121.355979099519,31.2148871769005,2022-03-11
