"district","address","lng","lat","date"
"浦东新区","上海市浦东新区川沙新镇储店村南张家宅",121.740370584868,31.1435274503162,2022-05-24
"浦东新区","上海市浦东新区东沟四村",121.58094785686,31.2971920819799,2022-05-24
"浦东新区","上海市浦东新区芳华路371弄",121.564425503276,31.2030206854988,2022-05-24
"浦东新区","上海市浦东新区高桥镇南塘村",121.5746809183,31.345394276907,2022-05-24
"浦东新区","上海市浦东新区海纳路490弄工地生活区",121.675286284568,31.2972918248909,2022-05-24
"浦东新区","上海市浦东新区环镇东路200弄",121.610552413247,31.0265996238794,2022-05-24
"浦东新区","上海市浦东新区惠南镇陆楼村",121.771259987626,31.0804261058698,2022-05-24
"浦东新区","上海市浦东新区金港路121号生活区",121.615555166462,31.2641713991858,2022-05-24
"浦东新区","上海市浦东新区崂山三村",121.526396817478,31.2389325085635,2022-05-24
"浦东新区","上海市浦东新区浦东大道140弄",121.521669035579,31.2440488314387,2022-05-24
"浦东新区","上海市浦东新区乳山路313弄",121.526396817478,31.2389325085635,2022-05-24
"浦东新区","上海市浦东新区三林镇天花庵村南陈队大陈家宅",121.531939542135,31.1285359001772,2022-05-24
"浦东新区","上海市浦东新区三林镇新春村方家队方巷",121.485071080966,31.1292384482951,2022-05-24
"浦东新区","上海市浦东新区三舒路181弄",121.525530311983,31.1391594184198,2022-05-24
"浦东新区","上海市浦东新区商城路918弄",121.528749479608,31.2378278524308,2022-05-24
"浦东新区","上海市浦东新区沈家弄路877弄",121.552906531721,31.2444312032937,2022-05-24
"浦东新区","上海市浦东新区耀华路260号",121.495149439974,31.1809894422192,2022-05-24
"浦东新区","上海市浦东新区永泰路136弄",121.511141254324,31.1406678921009,2022-05-24
"浦东新区","上海市浦东新区羽山路383弄",121.550383281374,31.2391094252368,2022-05-24
"浦东新区","上海市浦东新区张江镇劳动村吴家宅北",121.639015941975,31.18527126574,2022-05-24
"浦东新区","上海市浦东新区中科路2500弄",121.642259274018,31.1948978769969,2022-05-24
"浦东新区","上海市浦东新区中科路2635弄",121.644202488498,31.1969291857144,2022-05-24
"浦东新区","上海市浦东新区祝家港路399弄",121.598346597299,31.1175235002507,2022-05-24
"黄浦区","上海市黄浦区保屯路99弄",121.496778786508,31.2130922893987,2022-05-24
"黄浦区","上海市黄浦区北京东路431弄",121.488688467424,31.2454462486496,2022-05-24
"黄浦区","上海市黄浦区淡水路229弄",121.480324434651,31.2223618373075,2022-05-24
"黄浦区","上海市黄浦区方斜路269号",121.491635897633,31.2214829596933,2022-05-24
"黄浦区","上海市黄浦区海潮路93弄",121.505912038289,31.2149615288345,2022-05-24
"黄浦区","上海市黄浦区黄河路229号",121.476119286898,31.2426601153383,2022-05-24
"黄浦区","上海市黄浦区金陵东路87号",121.496715276309,31.2367845498161,2022-05-24
"黄浦区","上海市黄浦区局门路241弄",121.487610410982,31.2120270919029,2022-05-24
"黄浦区","上海市黄浦区聚奎新村",121.502708501179,31.2294960046602,2022-05-24
"黄浦区","上海市黄浦区丽园路448弄",121.489317910095,31.2139192066145,2022-05-24
"黄浦区","上海市黄浦区丽园路842弄",121.483621395534,31.2113782080457,2022-05-24
"黄浦区","上海市黄浦区龙华东路888弄",121.477730128338,31.1990606070333,2022-05-24
"黄浦区","上海市黄浦区陆家宅支路27号",121.502832736831,31.2300816936952,2022-05-24
"黄浦区","上海市黄浦区茂名南路169弄",121.469133524269,31.2212484931447,2022-05-24
"黄浦区","上海市黄浦区尚文路133弄",121.497992576913,31.2215084367606,2022-05-24
"黄浦区","上海市黄浦区西藏南路1433弄",121.495532028291,31.2103589324505,2022-05-24
"黄浦区","上海市黄浦区斜土东路68弄",121.497270968097,31.2140800338297,2022-05-24
"黄浦区","上海市黄浦区斜土路688号",121.479488561374,31.208199893902,2022-05-24
"静安区","上海市静安区宝昌路517号",121.479450563051,31.2654461288931,2022-05-24
"静安区","上海市静安区场中路2187弄",121.456493916591,31.3122721845889,2022-05-24
"静安区","上海市静安区汾西路845号",121.456805448942,31.3195821919059,2022-05-24
"静安区","上海市静安区恒丰路710号",121.457618235767,31.2556822235495,2022-05-24
"静安区","上海市静安区京江路238号",121.470060845047,31.2544572935656,2022-05-24
"静安区","上海市静安区岭南路100弄",121.462500616045,31.313743548841,2022-05-24
"静安区","上海市静安区南山路35弄",121.472991117621,31.2628109943866,2022-05-24
"静安区","上海市静安区彭浦新村372号",121.460185143762,31.3167202196531,2022-05-24
"静安区","上海市静安区青云路315弄",121.479427835922,31.2700785009969,2022-05-24
"静安区","上海市静安区青云路350弄",121.479605790243,31.2695631270032,2022-05-24
"静安区","上海市静安区青云路435弄",121.476988487309,31.2693536277036,2022-05-24
"静安区","上海市静安区三泉路717弄",121.446224577831,31.3198084682145,2022-05-24
"静安区","上海市静安区谈家桥路163弄",121.456271855469,31.2669146046022,2022-05-24
"静安区","上海市静安区万荣路970弄",121.446858961183,31.2944005486238,2022-05-24
"静安区","上海市静安区闻喜路675号",121.46060878464,31.3145121166818,2022-05-24
"静安区","上海市静安区西藏北路987弄",121.472264118971,31.2654627969549,2022-05-24
"静安区","上海市静安区延安西路433号",121.444699344906,31.2235376243019,2022-05-24
"静安区","上海市静安区芷江西路393弄",121.464417689833,31.2643917136024,2022-05-24
"静安区","上海市静安区芷江中路413弄",121.476515439628,31.2656527046166,2022-05-24
"静安区","上海市静安区中华新路288弄",121.479036983194,31.262127736357,2022-05-24
"静安区","上海市静安区中华新路499号",121.47180742045,31.2599387921691,2022-05-24
"静安区","上海市静安区中兴路1340弄",121.46757667099,31.2582863812331,2022-05-24
"静安区","上海市静安区中兴路1385弄",121.467360628515,31.2589000578996,2022-05-24
"徐汇区","上海市徐汇区东安路338弄",121.461057308582,31.1967544287922,2022-05-24
"徐汇区","上海市徐汇区复兴中路1218弄",121.465884173578,31.2194577422622,2022-05-24
"徐汇区","上海市徐汇区罗秀新村",121.452962048817,31.1400625583243,2022-05-24
"徐汇区","上海市徐汇区陕西南路186弄",121.463043731556,31.2251951269061,2022-05-24
"徐汇区","上海市徐汇区石龙路321号",121.448476180592,31.1628683650825,2022-05-24
"徐汇区","上海市徐汇区田林东路100弄",121.43877870312,31.1812200705009,2022-05-24
"徐汇区","上海市徐汇区医学院路72弄",121.463460635143,31.2052728122963,2022-05-24
"徐汇区","上海市徐汇区宜山路701弄",121.424135694494,31.1798146657762,2022-05-24
"长宁区","上海市长宁区哈密路398弄住宅",121.382549090062,31.2178058513176,2022-05-24
"长宁区","上海市长宁区淞虹路685弄住宅",121.367611347398,31.2187369543972,2022-05-24
"长宁区","上海市长宁区万航渡路2088弄住宅",121.418780715688,31.2284157087169,2022-05-24
"长宁区","上海市长宁区协和路1551号",121.358372993872,31.2363200155058,2022-05-24
"长宁区","上海市长宁区新华路613号住宅",121.427314348541,31.2109622683485,2022-05-24
"长宁区","上海市长宁区新渔东路175号",121.397231853435,31.2174540135215,2022-05-24
"长宁区","上海市长宁区宣化路217号住宅",121.432949059683,31.2233685527544,2022-05-24
"长宁区","上海市长宁区伊犁南路566号",121.412535965274,31.2033258523921,2022-05-24
"普陀区","上海市普陀区曹杨七村",121.416892028353,31.246969606438,2022-05-24
"普陀区","上海市普陀区泰山一村",121.453747616986,31.2664736784822,2022-05-24
"普陀区","上海市普陀区新村路50弄",121.438774750576,31.2718808600946,2022-05-24
"普陀区","上海市普陀区宜川三村",121.447419503821,31.263551892326,2022-05-24
"虹口区","上海市虹口区大连路975弄",121.512150500564,31.2731188333283,2022-05-24
"虹口区","上海市虹口区大连西路195弄",121.501235549635,31.2819367188258,2022-05-24
"虹口区","上海市虹口区大连西路201弄",121.500654974784,31.2818138906312,2022-05-24
"虹口区","上海市虹口区大连西路215弄",121.498152026141,31.281729870498,2022-05-24
"虹口区","上海市虹口区东宝兴路276号",121.488101604434,31.2639187507705,2022-05-24
"虹口区","上海市虹口区东宝兴路667弄",121.457868773174,31.2388348646193,2022-05-24
"虹口区","上海市虹口区东汉阳路309弄",121.490924313861,31.2816194781201,2022-05-24
"虹口区","上海市虹口区东体育会路671号",121.494732087234,31.2897402213739,2022-05-24
"虹口区","上海市虹口区东体育会路880弄",121.494587280386,31.2904718024595,2022-05-24
"虹口区","上海市虹口区飞虹路237弄",121.508857492226,31.2682412287098,2022-05-24
"虹口区","上海市虹口区公平路761号",121.506232643526,31.2648517099095,2022-05-24
"虹口区","上海市虹口区广灵四路881弄",121.469311209099,31.2909735605473,2022-05-24
"虹口区","上海市虹口区金山路43号",121.49778003783,31.2504138765309,2022-05-24
"虹口区","上海市虹口区临平北路60弄",121.498409211009,31.2687444180473,2022-05-24
"虹口区","上海市虹口区临平路20弄",121.502244795875,31.2678327953164,2022-05-24
"虹口区","上海市虹口区临平路250弄",121.502244795875,31.2678327953164,2022-05-24
"虹口区","上海市虹口区临平路46弄",121.504695463137,31.2664709776683,2022-05-24
"虹口区","上海市虹口区瑞虹路233弄",121.50653501316,31.2699668458752,2022-05-24
"虹口区","上海市虹口区四川北路1363号",121.490267958002,31.258314163463,2022-05-24
"虹口区","上海市虹口区四川北路1999弄",121.490374317375,31.2694836485029,2022-05-24
"虹口区","上海市虹口区四川北路2023弄",121.48945076948,31.2695980820892,2022-05-24
"虹口区","上海市虹口区四平路311号",121.497081066312,31.2703238794409,2022-05-24
"虹口区","上海市虹口区四平路421弄",121.499234035128,31.2733788642648,2022-05-24
"虹口区","上海市虹口区四平路52弄",121.495263524774,31.2630122512771,2022-05-24
"虹口区","上海市虹口区四平路827弄",121.506909786219,31.2797410633257,2022-05-24
"虹口区","上海市虹口区天宝西路252弄",121.499073058781,31.2790654132163,2022-05-24
"虹口区","上海市虹口区吴家湾路52弄",121.492271897934,31.2981787067046,2022-05-24
"虹口区","上海市虹口区西宝兴路949弄",121.475029552484,31.2755931874033,2022-05-24
"虹口区","上海市虹口区新广路243号",121.488192512952,31.2609126143544,2022-05-24
"虹口区","上海市虹口区玉田路220弄",121.503861027149,31.2852238560746,2022-05-24
"虹口区","上海市虹口区玉田支路34号",121.499329794495,31.2868868229142,2022-05-24
"杨浦区","上海市杨浦区长岭路60弄",121.526051957992,31.2865868661582,2022-05-24
"杨浦区","上海市杨浦区凤城三村",121.528297991259,31.2878228700411,2022-05-24
"杨浦区","上海市杨浦区工农三村",121.541521317857,31.3293141220466,2022-05-24
"杨浦区","上海市杨浦区邯郸路524弄",121.519153330998,31.3054524085923,2022-05-24
"杨浦区","上海市杨浦区河间路555弄",121.546093962395,31.2747988364579,2022-05-24
"杨浦区","上海市杨浦区黄兴路1999弄",121.524726328551,31.2986260399978,2022-05-24
"杨浦区","上海市杨浦区霍山路1200弄",121.534474021301,31.2698321187851,2022-05-24
"杨浦区","上海市杨浦区济宁路479弄",121.534061249919,31.269698317462,2022-05-24
"杨浦区","上海市杨浦区开鲁三村",121.537079376772,31.3306258247754,2022-05-24
"杨浦区","上海市杨浦区开鲁四村",121.536914986863,31.3320019746491,2022-05-24
"杨浦区","上海市杨浦区控江三村",121.538019453488,31.2910628954221,2022-05-24
"杨浦区","上海市杨浦区控江西三村",121.538019453488,31.2910628954221,2022-05-24
"杨浦区","上海市杨浦区辽源西路338弄",121.513444419821,31.2753652606837,2022-05-24
"杨浦区","上海市杨浦区临青路284号",121.54728331889,31.2724872714966,2022-05-24
"杨浦区","上海市杨浦区眉州路420弄",121.541199724485,31.2683775785495,2022-05-24
"杨浦区","上海市杨浦区平凉路1545弄",121.545825458878,31.2725263921886,2022-05-24
"杨浦区","上海市杨浦区齐齐哈尔路598弄",121.534594394239,31.2681181510095,2022-05-24
"宝山区","上海市宝山区宝荻路535弄",121.401101344607,31.3663057679309,2022-05-24
"宝山区","上海市宝山区富联三路369号",121.410456118527,31.3822318693115,2022-05-24
"宝山区","上海市宝山区富杨路223弄",121.443463007033,31.3951569019972,2022-05-24
"宝山区","上海市宝山区红林路99弄",121.435407362541,31.3719905056769,2022-05-24
"宝山区","上海市宝山区罗宁路3030弄",121.334157012917,31.491537905682,2022-05-24
"宝山区","上海市宝山区沙浦路518弄",121.388102684216,31.3637188853256,2022-05-24
"宝山区","上海市宝山区铁力路58号",121.485219031883,31.3716118936671,2022-05-24
"宝山区","上海市宝山区呼玛三村",121.448102036347,31.3457123945061,2022-05-24
"宝山区","上海市宝山区呼玛四村",121.452469957059,31.3495103694908,2022-05-24
"宝山区","上海市宝山区沈杨村",121.379187271522,31.3364164516448,2022-05-24
"宝山区","上海市宝山区泗塘七村",121.466495290817,31.3364972610965,2022-05-24
"宝山区","上海市宝山区淞南八村",121.487199076889,31.3400123273096,2022-05-24
"宝山区","上海市宝山区通河二村",121.456897345595,31.3397384488351,2022-05-24
"宝山区","上海市宝山区通河四村",121.45156203968,31.3373858520103,2022-05-24
"宝山区","上海市宝山区月狮村",121.414245171168,31.4552569201867,2022-05-24
"闵行区","上海市闵行区中谊路909弄",121.360439545698,31.1443940783021,2022-05-24
"闵行区","上海市闵行区平阳四村",121.41582690751,31.1264574367173,2022-05-24
"闵行区","上海市闵行区塘湾村",121.449029087634,31.0616459892676,2022-05-24
"嘉定区","上海市嘉定区鹤槎路182弄",121.305993967382,31.3084988394188,2022-05-24
"嘉定区","上海市嘉定区永靖路898弄北区",121.265198590444,31.4117543744218,2022-05-24
"嘉定区","上海市嘉定区已对相关居住地落实终末消毒措施等",121.272595058352,31.3801553396772,2022-05-24
"松江区","上海市松江区环城路413号",121.261900371934,31.014767288161,2022-05-24
"青浦区","上海市青浦区外青松公路7989号",121.178994408959,31.1150444271445,2022-05-24
