"district","address","lng","lat","date"
"浦东新区","上海市浦东新区板泉路1555弄",121.536884264815,31.1897022555378,2022-05-01
"浦东新区","上海市浦东新区板泉路50号",121.501198269956,31.1634647451668,2022-05-01
"浦东新区","上海市浦东新区北艾路1765弄",121.528398601476,31.1842654537065,2022-05-01
"浦东新区","上海市浦东新区北艾路73弄",121.550455145815,31.1911861303814,2022-05-01
"浦东新区","上海市浦东新区北蔡镇联勤村冯桥队冯家宅",121.557447915227,31.1712123975815,2022-05-01
"浦东新区","上海市浦东新区北蔡镇联勤村冯桥队张家宅",121.557447915227,31.1712123975815,2022-05-01
"浦东新区","上海市浦东新区北蔡镇联勤村李家队李家宅",121.55718596934,31.1732310110799,2022-05-01
"浦东新区","上海市浦东新区北蔡镇联勤村麦家宅",121.553913442368,31.1692634940545,2022-05-01
"浦东新区","上海市浦东新区北蔡镇南新村赵家厍",121.543435157746,31.1767913831306,2022-05-01
"浦东新区","上海市浦东新区北蔡镇卫行村张浜队曹家宅",121.587201410668,31.1666652020159,2022-05-01
"浦东新区","上海市浦东新区北蔡镇卫行村张浜队杨家宅",121.587201410668,31.1666652020159,2022-05-01
"浦东新区","上海市浦东新区北蔡镇卫行村朱家队朱家宅",121.587201410668,31.1666652020159,2022-05-01
"浦东新区","上海市浦东新区北蔡镇一六村金桥队南赵家宅",121.602726734966,31.1731882956816,2022-05-01
"浦东新区","上海市浦东新区北蔡镇一六村赵家队南赵家宅",121.602726734966,31.1731882956816,2022-05-01
"浦东新区","上海市浦东新区北蔡镇御桥村印家队东印家圈",121.564637683037,31.1740750417323,2022-05-01
"浦东新区","上海市浦东新区北蔡镇中界村陈家队陈家宅",121.578579474383,31.194413133383,2022-05-01
"浦东新区","上海市浦东新区北蔡镇中界村复兴队苏家宅",121.577029627886,31.1916104985113,2022-05-01
"浦东新区","上海市浦东新区北蔡镇中界村黄家队黄家宅",121.574173735009,31.1954461740634,2022-05-01
"浦东新区","上海市浦东新区北蔡镇中界村季家队季家宅",121.578761021926,31.1993098784582,2022-05-01
"浦东新区","上海市浦东新区北蔡镇中界村林家队中界庙",121.578541026907,31.19086787233,2022-05-01
"浦东新区","上海市浦东新区北蔡镇中界村陆家队陆家宅",121.507419754257,31.1905632054564,2022-05-01
"浦东新区","上海市浦东新区北蔡镇中界村沈家队沈家宅",121.574173735009,31.1954461740634,2022-05-01
"浦东新区","上海市浦东新区北蔡镇中界村苏家队苏家宅",121.577029627886,31.1916104985113,2022-05-01
"浦东新区","上海市浦东新区北新园路350弄",121.633354461329,31.3270160144631,2022-05-01
"浦东新区","上海市浦东新区北张家浜路172号",121.532325184691,31.2224304703227,2022-05-01
"浦东新区","上海市浦东新区北张家浜路58号",121.527623453651,31.2221730769557,2022-05-01
"浦东新区","上海市浦东新区北中路247弄",121.563725992775,31.1903403230554,2022-05-01
"浦东新区","上海市浦东新区北中路278弄",121.562802804203,31.1890241785414,2022-05-01
"浦东新区","上海市浦东新区北中路280弄",121.563938531859,31.1899177254468,2022-05-01
"浦东新区","上海市浦东新区博华路930弄",121.556749213201,31.1803200299912,2022-05-01
"浦东新区","上海市浦东新区博华路999弄",121.557113925239,31.1768062904657,2022-05-01
"浦东新区","上海市浦东新区博山东路111弄",121.570150763613,31.2571442157431,2022-05-01
"浦东新区","上海市浦东新区博山东路173弄",121.572413325701,31.257892721582,2022-05-01
"浦东新区","上海市浦东新区博山东路553弄",121.577927484244,31.2615326789026,2022-05-01
"浦东新区","上海市浦东新区博兴路1663弄",121.60720101505,31.2807760939525,2022-05-01
"浦东新区","上海市浦东新区博兴路465弄",121.58987225261,31.2720666651517,2022-05-01
"浦东新区","上海市浦东新区博兴路799弄",121.59697731021,31.27188533547,2022-05-01
"浦东新区","上海市浦东新区博兴路916弄",121.597995000523,31.2704201787296,2022-05-01
"浦东新区","上海市浦东新区博兴路986弄",121.597262971363,31.270671034824,2022-05-01
"浦东新区","上海市浦东新区曹路镇东海村范家宅",121.677869901045,31.3070549287637,2022-05-01
"浦东新区","上海市浦东新区曹路镇顾东村船板桥",121.670280566944,31.3031164562783,2022-05-01
"浦东新区","上海市浦东新区曹路镇光明村凌家圈",121.665292635769,31.2958850774345,2022-05-01
"浦东新区","上海市浦东新区曹路镇光明村沙桥宅",121.658185512066,31.292967682843,2022-05-01
"浦东新区","上海市浦东新区曹路镇联合村路北宅",121.691927573801,31.2750515326103,2022-05-01
"浦东新区","上海市浦东新区曹路镇联合村路南宅",121.348674887586,31.408630188596,2022-05-01
"浦东新区","上海市浦东新区曹路镇联合村西柴场",121.67746314831,31.3033290423911,2022-05-01
"浦东新区","上海市浦东新区曹路镇五四村沈家宅",121.658040076404,31.2603987332248,2022-05-01
"浦东新区","上海市浦东新区曹路镇新星村胡家宅",121.708279428999,31.2618387353821,2022-05-01
"浦东新区","上海市浦东新区曹路镇迅建村葛家宅",121.697148794917,31.2892028145954,2022-05-01
"浦东新区","上海市浦东新区曹路镇迅建村黄家宅南",121.699225138273,31.2840908923215,2022-05-01
"浦东新区","上海市浦东新区草高支路170弄",121.588426070569,31.3579888528039,2022-05-01
"浦东新区","上海市浦东新区长清路643弄",121.498775809487,31.1641831772803,2022-05-01
"浦东新区","上海市浦东新区长清路693弄",121.536884264815,31.1897022555378,2022-05-01
"浦东新区","上海市浦东新区长清路773弄",121.498012070143,31.1619738650998,2022-05-01
"浦东新区","上海市浦东新区昌里东路411弄",121.519301551407,31.1855112286687,2022-05-01
"浦东新区","上海市浦东新区昌里东路650弄",121.521399004942,31.1835358991941,2022-05-01
"浦东新区","上海市浦东新区昌里路167弄",121.504545446117,31.1810916262197,2022-05-01
"浦东新区","上海市浦东新区陈春路620弄",121.552907609688,31.1780781941088,2022-05-01
"浦东新区","上海市浦东新区成山路1488弄",121.533431537757,31.1819798422434,2022-05-01
"浦东新区","上海市浦东新区成山路1728弄",121.535534201464,31.1818249843163,2022-05-01
"浦东新区","上海市浦东新区成山路2008弄",121.543485283194,31.1832765452903,2022-05-01
"浦东新区","上海市浦东新区成山路24弄",121.492308997952,31.1741468770644,2022-05-01
"浦东新区","上海市浦东新区成山路300弄",121.507887861258,31.1768400443712,2022-05-01
"浦东新区","上海市浦东新区川沙路1666弄",121.67243200864,31.2858133621136,2022-05-01
"浦东新区","上海市浦东新区川沙新镇陈桥村",121.707774401642,31.202328573802,2022-05-01
"浦东新区","上海市浦东新区川沙新镇高桥村钱家宅",121.734918229745,31.1671079889435,2022-05-01
"浦东新区","上海市浦东新区川沙新镇界龙村费家宅",121.692421905035,31.1779911279228,2022-05-01
"浦东新区","上海市浦东新区川沙新镇连民村明华",121.706051092351,31.0995964158777,2022-05-01
"浦东新区","上海市浦东新区川沙新镇鹿溪村砖桥",121.702793387419,31.1246797904009,2022-05-01
"浦东新区","上海市浦东新区川沙新镇新吉村新华",121.718959203546,31.1153715216884,2022-05-01
"浦东新区","上海市浦东新区川沙新镇药师村",121.688302012763,31.209451836559,2022-05-01
"浦东新区","上海市浦东新区川沙新镇长丰村陆家宅",121.666225615872,31.197467509121,2022-05-01
"浦东新区","上海市浦东新区川周公路2928弄",121.620997999547,31.1479346835682,2022-05-01
"浦东新区","上海市浦东新区川周公路3010弄",121.617623155577,31.147196115555,2022-05-01
"浦东新区","上海市浦东新区创新西路199弄",121.660810450597,31.2075822554859,2022-05-01
"浦东新区","上海市浦东新区创新中路399弄",121.673244705635,31.2153254895784,2022-05-01
"浦东新区","上海市浦东新区创业路798号",121.703206428293,31.2213490891708,2022-05-01
"浦东新区","上海市浦东新区春晖路368弄",121.590196181577,31.3445205658804,2022-05-01
"浦东新区","上海市浦东新区达秀路151号",121.660133757056,31.2432925734162,2022-05-01
"浦东新区","上海市浦东新区德平路100弄",121.568682662918,31.2539399811791,2022-05-01
"浦东新区","上海市浦东新区德平路1189弄",121.576813136258,31.2458715286161,2022-05-01
"浦东新区","上海市浦东新区德平路155弄",121.567954047319,31.2566018365944,2022-05-01
"浦东新区","上海市浦东新区德平路25弄",121.564731825455,31.2600917459727,2022-05-01
"浦东新区","上海市浦东新区丁香路1399弄",121.570496790896,31.236774283463,2022-05-01
"浦东新区","上海市浦东新区丁香路901弄",121.557128298127,31.2331400008442,2022-05-01
"浦东新区","上海市浦东新区定水路50弄",121.556696662329,31.2486790996932,2022-05-01
"浦东新区","上海市浦东新区东八灶63弄",121.550454606832,31.2273482924363,2022-05-01
"浦东新区","上海市浦东新区东波路49弄",121.583378042756,31.2907238390316,2022-05-01
"浦东新区","上海市浦东新区东方路1800弄",121.528473609986,31.2090892428252,2022-05-01
"浦东新区","上海市浦东新区东海二村",121.908737022195,30.9608458762568,2022-05-01
"浦东新区","上海市浦东新区东环龙路181弄",121.535363613248,31.2093387964144,2022-05-01
"浦东新区","上海市浦东新区东建新村",121.526861421087,31.2227134169234,2022-05-01
"浦东新区","上海市浦东新区东陆路1182弄",121.602356004282,31.2753682698756,2022-05-01
"浦东新区","上海市浦东新区东陆路1268弄",121.601560554753,31.2728788634835,2022-05-01
"浦东新区","上海市浦东新区东陆路429弄",121.59239119109,31.2862846710958,2022-05-01
"浦东新区","上海市浦东新区东三街102弄",121.517106182571,31.207639780426,2022-05-01
"浦东新区","上海市浦东新区东三里桥路211弄",121.53022853963,31.1980479157436,2022-05-01
"浦东新区","上海市浦东新区东书房路390弄",121.541617795869,31.1696664870587,2022-05-01
"浦东新区","上海市浦东新区渡桥路288弄",121.584859707864,31.1200779398788,2022-05-01
"浦东新区","上海市浦东新区芳甸路333弄",121.529696185109,31.2072012517119,2022-05-01
"浦东新区","上海市浦东新区芳华路253弄",121.561636354498,31.2022491925955,2022-05-01
"浦东新区","上海市浦东新区芳华路310弄",121.564018211558,31.2013345278281,2022-05-01
"浦东新区","上海市浦东新区芳华路411弄",121.565570303818,31.2023994608537,2022-05-01
"浦东新区","上海市浦东新区芳华路478弄",121.536884264815,31.1897022555378,2022-05-01
"浦东新区","上海市浦东新区芳华路503弄",121.536884264815,31.1897022555378,2022-05-01
"浦东新区","上海市浦东新区芳芯路312弄",121.564077499721,31.1971826328678,2022-05-01
"浦东新区","上海市浦东新区高宝路379弄",121.5896261169,31.2815848989426,2022-05-01
"浦东新区","上海市浦东新区高东二路118弄",121.632030269176,31.3299086703681,2022-05-01
"浦东新区","上海市浦东新区高东镇革新村周家桥",121.641532185539,31.3292953061883,2022-05-01
"浦东新区","上海市浦东新区高东镇竞赛村沈家宅",121.652243490609,31.3048216825485,2022-05-01
"浦东新区","上海市浦东新区高东镇珊黄村苍头宅",121.646532423499,31.3365476898601,2022-05-01
"浦东新区","上海市浦东新区高东镇先锋村卢家宅",121.591521541526,31.2903783011154,2022-05-01
"浦东新区","上海市浦东新区高桥镇陆凌村瞿家宅",121.570109621221,31.3523997058498,2022-05-01
"浦东新区","上海市浦东新区高桥镇陆凌村西凌家宅",121.5817386352,31.3535668406377,2022-05-01
"浦东新区","上海市浦东新区高桥镇南塘村龚家宅",121.5746809183,31.345394276907,2022-05-01
"浦东新区","上海市浦东新区高桥镇南塘村顾家宅",121.5746809183,31.345394276907,2022-05-01
"浦东新区","上海市浦东新区高桥镇南塘村姚家宅",121.5746809183,31.345394276907,2022-05-01
"浦东新区","上海市浦东新区高桥镇西浜头",121.615635834297,31.2925041992064,2022-05-01
"浦东新区","上海市浦东新区高桥镇新农村北凌家宅",121.564454608374,31.3630873201532,2022-05-01
"浦东新区","上海市浦东新区高桥镇新农村沈家宅",121.558501268268,31.3625522632348,2022-05-01
"浦东新区","上海市浦东新区拱海路755弄",121.757747406653,31.0780297164604,2022-05-01
"浦东新区","上海市浦东新区古桐南路117弄",121.622987925913,31.2059399614524,2022-05-01
"浦东新区","上海市浦东新区古棕路555弄",121.924901670525,30.8878154751876,2022-05-01
"浦东新区","上海市浦东新区崮山路157号",121.558485997074,31.2530718191383,2022-05-01
"浦东新区","上海市浦东新区崮山路95号",121.55737820672,31.2536873822811,2022-05-01
"浦东新区","上海市浦东新区光泽路428弄",121.623076229345,31.3364001046861,2022-05-01
"浦东新区","上海市浦东新区海鸣路98弄",121.677548217842,31.2886278337477,2022-05-01
"浦东新区","上海市浦东新区海鹏路301弄",121.680730914264,31.2953639830489,2022-05-01
"浦东新区","上海市浦东新区海容路399弄",121.686258637219,31.2876554577026,2022-05-01
"浦东新区","上海市浦东新区海松路52弄",121.681814360539,31.2819161960356,2022-05-01
"浦东新区","上海市浦东新区海阳路1080弄",121.513439479141,31.1641353592278,2022-05-01
"浦东新区","上海市浦东新区海阳路215弄",121.495604611376,31.1592622705933,2022-05-01
"浦东新区","上海市浦东新区航城五路151弄",121.754215359219,31.1483316643714,2022-05-01
"浦东新区","上海市浦东新区航瑞路175弄",121.598873812803,31.0769578821106,2022-05-01
"浦东新区","上海市浦东新区航三路航吉路交界口工地生活区",121.614290352304,31.045793267667,2022-05-01
"浦东新区","上海市浦东新区航头路988弄",121.606904664062,31.0406249008946,2022-05-01
"浦东新区","上海市浦东新区航头镇航东村",121.607737213609,31.03214843823,2022-05-01
"浦东新区","上海市浦东新区航头镇鹤东村沿江",121.608037966294,31.0602733641974,2022-05-01
"浦东新区","上海市浦东新区航头镇梅园村沙北",121.591231748169,31.06555502677,2022-05-01
"浦东新区","上海市浦东新区航绣路50弄",121.60439363067,31.0765771467867,2022-05-01
"浦东新区","上海市浦东新区合庆镇勤奋村卫家宅",121.732101682649,31.2614765761563,2022-05-01
"浦东新区","上海市浦东新区合庆镇向东村张家宅",121.740482334074,31.2418269684034,2022-05-01
"浦东新区","上海市浦东新区合庆镇友谊村西钱家宅",121.734780339849,31.2076866497135,2022-05-01
"浦东新区","上海市浦东新区合庆镇跃丰村徐家宅",121.718556133864,31.2294208151077,2022-05-01
"浦东新区","上海市浦东新区和佳路105弄",121.520302084084,31.1332973749386,2022-05-01
"浦东新区","上海市浦东新区和炯路77弄",121.525530311983,31.1391594184198,2022-05-01
"浦东新区","上海市浦东新区和融路55弄",121.506367658844,31.1307994757948,2022-05-01
"浦东新区","上海市浦东新区菏泽路567弄",121.601772100444,31.2704060021067,2022-05-01
"浦东新区","上海市浦东新区菏泽路58弄",121.596685001597,31.2787130424234,2022-05-01
"浦东新区","上海市浦东新区鹤洁路625弄",121.613228734853,31.0753186370206,2022-05-01
"浦东新区","上海市浦东新区鹤永路599弄",121.609669828083,31.0803451524658,2022-05-01
"浦东新区","上海市浦东新区洪山路1889弄",121.51638699918,31.1575965710788,2022-05-01
"浦东新区","上海市浦东新区沪南路3158弄",121.572008728899,31.1277255406032,2022-05-01
"浦东新区","上海市浦东新区沪南路3219弄",121.574558389428,31.1299938497428,2022-05-01
"浦东新区","上海市浦东新区花木路1883弄",121.5686520307,31.2207318463093,2022-05-01
"浦东新区","上海市浦东新区花山路300弄",121.575701662851,31.3522273211378,2022-05-01
"浦东新区","上海市浦东新区华丰路50弄",121.514504959306,31.1974954638598,2022-05-01
"浦东新区","上海市浦东新区华夏东路2026弄",121.697008479596,31.2054389822991,2022-05-01
"浦东新区","上海市浦东新区华夏东路2170弄",121.699897250455,31.2057116332773,2022-05-01
"浦东新区","上海市浦东新区华夏东路2345弄",121.704621978115,31.2064847964045,2022-05-01
"浦东新区","上海市浦东新区华夏二路200弄",121.690606435888,31.2000575343113,2022-05-01
"浦东新区","上海市浦东新区环林东路875弄",121.537591500743,31.1471015438154,2022-05-01
"浦东新区","上海市浦东新区环桥路1137弄",121.584859707864,31.1200779398788,2022-05-01
"浦东新区","上海市浦东新区环庆南路239弄",121.731379984002,31.2347908492126,2022-05-01
"浦东新区","上海市浦东新区环庆南路336弄",121.734689790654,31.2324718104119,2022-05-01
"浦东新区","上海市浦东新区惠南镇汇南村",121.748981022843,31.0413899094454,2022-05-01
"浦东新区","上海市浦东新区惠南镇陆楼村长路",121.780804034517,31.0810009735505,2022-05-01
"浦东新区","上海市浦东新区惠南镇远东村东联",121.818950218676,31.040364997689,2022-05-01
"浦东新区","上海市浦东新区季景北路185弄",121.591100326072,31.3481643153618,2022-05-01
"浦东新区","上海市浦东新区济阳路65弄",121.488308933346,31.1730161980026,2022-05-01
"浦东新区","上海市浦东新区济阳路95弄",121.488983291293,31.1697081226183,2022-05-01
"浦东新区","上海市浦东新区佳林路959号",121.619505464942,31.2707878589949,2022-05-01
"浦东新区","上海市浦东新区佳林路962弄",121.619364161486,31.269439665226,2022-05-01
"浦东新区","上海市浦东新区江东路25号",121.555930138237,31.3688276760728,2022-05-01
"浦东新区","上海市浦东新区金港路2528弄",121.621800994843,31.2327138910459,2022-05-01
"浦东新区","上海市浦东新区金高路1058弄",121.616020129394,31.2893394424231,2022-05-01
"浦东新区","上海市浦东新区金高路1068弄",121.614963632284,31.2871247508902,2022-05-01
"浦东新区","上海市浦东新区金高路2388号",121.612815963471,31.2651098346762,2022-05-01
"浦东新区","上海市浦东新区金槐路789号工地生活区",121.634199262092,31.2421587226405,2022-05-01
"浦东新区","上海市浦东新区金口路155弄",121.584244997404,31.2559342768333,2022-05-01
"浦东新区","上海市浦东新区金口路471弄",121.58930820658,31.2526068254862,2022-05-01
"浦东新区","上海市浦东新区金葵路945弄",121.602138614349,31.2442502059109,2022-05-01
"浦东新区","上海市浦东新区金桥路1506弄",121.596460784542,31.2555643772158,2022-05-01
"浦东新区","上海市浦东新区金晓路96弄",121.681231989077,31.2838057397283,2022-05-01
"浦东新区","上海市浦东新区金杨路660弄",121.588399929879,31.2575016841727,2022-05-01
"浦东新区","上海市浦东新区金杨路785弄",121.589437562574,31.2596987884712,2022-05-01
"浦东新区","上海市浦东新区金豫路100号",121.621107502989,31.2614514958255,2022-05-01
"浦东新区","上海市浦东新区锦绣路3088弄",121.546294823507,31.1857314194091,2022-05-01
"浦东新区","上海市浦东新区京浦路160弄",121.574694572544,31.1599125196442,2022-05-01
"浦东新区","上海市浦东新区京浦路82弄",121.573340197326,31.1596915729849,2022-05-01
"浦东新区","上海市浦东新区居家桥路151弄",121.56804217109,31.2667841172325,2022-05-01
"浦东新区","上海市浦东新区居家桥路911弄",121.578577677772,31.2516740528233,2022-05-01
"浦东新区","上海市浦东新区巨峰路176弄",121.603201669089,31.285412489154,2022-05-01
"浦东新区","上海市浦东新区巨峰路90弄",121.602480239934,31.2847557049287,2022-05-01
"浦东新区","上海市浦东新区巨野路61弄",121.552332604331,31.250494065864,2022-05-01
"浦东新区","上海市浦东新区康涵路58弄",121.584859707864,31.1200779398788,2022-05-01
"浦东新区","上海市浦东新区康桥路90弄",121.584859707864,31.1200779398788,2022-05-01
"浦东新区","上海市浦东新区康桥镇花墙村",121.55274169266,31.1563281752622,2022-05-01
"浦东新区","上海市浦东新区康桥镇火箭村",121.614989413652,31.1451293459159,2022-05-01
"浦东新区","上海市浦东新区康桥镇汤巷村",121.610593825131,31.1445646831543,2022-05-01
"浦东新区","上海市浦东新区康杉路118号",121.56435929816,31.1631548133993,2022-05-01
"浦东新区","上海市浦东新区康杉路608弄",121.536884264815,31.1897022555378,2022-05-01
"浦东新区","上海市浦东新区康泽路550弄",121.550454606832,31.2273482924363,2022-05-01
"浦东新区","上海市浦东新区蓝村路30弄",121.538649794464,31.2167494318577,2022-05-01
"浦东新区","上海市浦东新区崂山路310弄",121.527279851794,31.2396252759126,2022-05-01
"浦东新区","上海市浦东新区崂山路502号",121.52356526868,31.2427278844216,2022-05-01
"浦东新区","上海市浦东新区崂山路551弄",121.528755677916,31.2325728575384,2022-05-01
"浦东新区","上海市浦东新区崂山路571弄",121.529543491848,31.2323093937171,2022-05-01
"浦东新区","上海市浦东新区崂山三村",121.526396817478,31.2389325085635,2022-05-01
"浦东新区","上海市浦东新区崂山四村",121.524541996261,31.2411728108698,2022-05-01
"浦东新区","上海市浦东新区历城路100弄",121.4979155023,31.1798977733905,2022-05-01
"浦东新区","上海市浦东新区利川路王桥路交界口工地生活区",121.698632705789,31.2151713816381,2022-05-01
"浦东新区","上海市浦东新区利津路729弄",121.596582954092,31.2806785708705,2022-05-01
"浦东新区","上海市浦东新区莲安西路125弄",121.559745780722,31.1853271824863,2022-05-01
"浦东新区","上海市浦东新区莲溪路1099弄",121.569863395681,31.1817477483468,2022-05-01
"浦东新区","上海市浦东新区莲溪路477弄",121.568933829139,31.188689385869,2022-05-01
"浦东新区","上海市浦东新区莲园路8弄",121.550454606832,31.2273482924363,2022-05-01
"浦东新区","上海市浦东新区莲振路269号",121.574360941877,31.173909356805,2022-05-01
"浦东新区","上海市浦东新区莲中路250弄",121.564236679458,31.1877695687022,2022-05-01
"浦东新区","上海市浦东新区莲中路356弄",121.56492999165,31.1857610767685,2022-05-01
"浦东新区","上海市浦东新区林鸣路326弄",121.532165645632,31.1385712292048,2022-05-01
"浦东新区","上海市浦东新区林培路红临路交界口工地生活区",121.500511874716,31.1284369046895,2022-05-01
"浦东新区","上海市浦东新区林展路267弄",121.513993014996,31.133678885242,2022-05-01
"浦东新区","上海市浦东新区林展路278弄",121.512901034818,31.1328058217041,2022-05-01
"浦东新区","上海市浦东新区林展路411弄",121.515681739524,31.128169902288,2022-05-01
"浦东新区","上海市浦东新区临沂路101弄",121.521040491213,31.2013230220684,2022-05-01
"浦东新区","上海市浦东新区临沂路181弄",121.520668143579,31.1975792508032,2022-05-01
"浦东新区","上海市浦东新区临沂路280弄",121.516029653248,31.198943924921,2022-05-01
"浦东新区","上海市浦东新区临沂路301弄",121.516514468732,31.1967603750118,2022-05-01
"浦东新区","上海市浦东新区灵山路1415弄",121.570780206284,31.2449987378052,2022-05-01
"浦东新区","上海市浦东新区灵山路1671弄",121.572311008704,31.2457713448707,2022-05-01
"浦东新区","上海市浦东新区灵山路600弄",121.550404750876,31.2341249863555,2022-05-01
"浦东新区","上海市浦东新区灵岩南路156弄",121.500710759556,31.1648391859701,2022-05-01
"浦东新区","上海市浦东新区凌河路188弄",121.602161970292,31.2819038514981,2022-05-01
"浦东新区","上海市浦东新区凌河路618弄",121.608152859568,31.276965751274,2022-05-01
"浦东新区","上海市浦东新区凌兆路379弄",121.525530311983,31.1391594184198,2022-05-01
"浦东新区","上海市浦东新区凌兆路396弄",121.525530311983,31.1391594184198,2022-05-01
"浦东新区","上海市浦东新区凌兆路428弄",121.525530311983,31.1391594184198,2022-05-01
"浦东新区","上海市浦东新区凌兆路521弄",121.525530311983,31.1391594184198,2022-05-01
"浦东新区","上海市浦东新区凌兆路586弄",121.525530311983,31.1391594184198,2022-05-01
"浦东新区","上海市浦东新区凌兆路99弄",121.497900949751,31.1476189056968,2022-05-01
"浦东新区","上海市浦东新区龙居路180弄",121.568971737631,31.2585512381558,2022-05-01
"浦东新区","上海市浦东新区罗山路108弄",121.558879454888,31.2546415897529,2022-05-01
"浦东新区","上海市浦东新区罗山路1502弄",121.575171482939,31.2348882658017,2022-05-01
"浦东新区","上海市浦东新区苗圃路415弄",121.556504514781,31.2440408814219,2022-05-01
"浦东新区","上海市浦东新区民唐路秦家港路交界口工地生活区",121.697451164552,31.2762273516085,2022-05-01
"浦东新区","上海市浦东新区牟平路154弄",121.5896261169,31.2815848989426,2022-05-01
"浦东新区","上海市浦东新区牟平路384弄",121.5896261169,31.2815848989426,2022-05-01
"浦东新区","上海市浦东新区牡丹路399弄",121.558437398746,31.2150455317792,2022-05-01
"浦东新区","上海市浦东新区南码头路144弄",121.514083474361,31.2046377807221,2022-05-01
"浦东新区","上海市浦东新区南码头路1675弄",121.520848882648,31.1809040184718,2022-05-01
"浦东新区","上海市浦东新区南码头路450弄",121.516319536436,31.2003681163043,2022-05-01
"浦东新区","上海市浦东新区南桥路237弄",121.71515946107,31.1975804091475,2022-05-01
"浦东新区","上海市浦东新区南桥路459弄",121.707911842385,31.195454514332,2022-05-01
"浦东新区","上海市浦东新区南桥路86弄",121.716131607293,31.1982867648435,2022-05-01
"浦东新区","上海市浦东新区泥城镇横港村",121.85411366922,30.9162076849243,2022-05-01
"浦东新区","上海市浦东新区鹏飞路333弄",121.536884264815,31.1897022555378,2022-05-01
"浦东新区","上海市浦东新区鹏岳路152弄",121.560933340606,31.1772149667974,2022-05-01
"浦东新区","上海市浦东新区鹏岳路233弄",121.536884264815,31.1897022555378,2022-05-01
"浦东新区","上海市浦东新区浦电路221号",121.530044566662,31.2249883073877,2022-05-01
"浦东新区","上海市浦东新区浦电路29弄",121.521798301741,31.2219827721666,2022-05-01
"浦东新区","上海市浦东新区浦电路305弄",121.531913940428,31.2253816423621,2022-05-01
"浦东新区","上海市浦东新区浦电路330弄",121.534528817937,31.2266271793415,2022-05-01
"浦东新区","上海市浦东新区浦电路48弄",121.523018290455,31.2247743849636,2022-05-01
"浦东新区","上海市浦东新区浦东大道136弄",121.520173536566,31.2440242095398,2022-05-01
"浦东新区","上海市浦东新区浦东大道140弄",121.521669035579,31.2440488314387,2022-05-01
"浦东新区","上海市浦东新区浦东大道1460弄",121.543161354227,31.2484897749893,2022-05-01
"浦东新区","上海市浦东新区浦东大道1585弄",121.547254752775,31.2507606428061,2022-05-01
"浦东新区","上海市浦东新区浦东大道1615弄",121.547795712353,31.2519762055034,2022-05-01
"浦东新区","上海市浦东新区浦东大道1851弄",121.552497443392,31.2531016867014,2022-05-01
"浦东新区","上海市浦东新区浦东大道2639弄",121.573829414507,31.2700964028423,2022-05-01
"浦东新区","上海市浦东新区浦东大道2894号",121.582823967917,31.2789444329845,2022-05-01
"浦东新区","上海市浦东新区浦东大道290弄",121.523437799128,31.2448877473747,2022-05-01
"浦东新区","上海市浦东新区浦东大道2920弄",121.583602619133,31.2809363432894,2022-05-01
"浦东新区","上海市浦东新区浦东大道2970弄",121.585274365688,31.2829352319847,2022-05-01
"浦东新区","上海市浦东新区浦东南路1288号",121.523559878847,31.2308961867454,2022-05-01
"浦东新区","上海市浦东新区浦东南路1475弄",121.525751744291,31.2285494147365,2022-05-01
"浦东新区","上海市浦东新区浦东南路1533号",121.527644653661,31.2273723011377,2022-05-01
"浦东新区","上海市浦东新区浦东南路1700弄",121.525060767693,31.2237849777418,2022-05-01
"浦东新区","上海市浦东新区浦东南路1862弄",121.524135153695,31.2217476120428,2022-05-01
"浦东新区","上海市浦东新区浦东南路2108号",121.522886149714,31.2157862677185,2022-05-01
"浦东新区","上海市浦东新区浦东南路2178弄",121.520482104508,31.2130211015995,2022-05-01
"浦东新区","上海市浦东新区浦东南路2192弄",121.519879611003,31.2122755567109,2022-05-01
"浦东新区","上海市浦东新区浦东南路2351弄",121.519461719279,31.2055986658343,2022-05-01
"浦东新区","上海市浦东新区浦东南路2362号",121.518109140673,31.2052909581985,2022-05-01
"浦东新区","上海市浦东新区浦东南路3643弄",121.512246170101,31.1951255365065,2022-05-01
"浦东新区","上海市浦东新区浦东南路3905弄",121.508197686829,31.1889342827717,2022-05-01
"浦东新区","上海市浦东新区浦东南路4200弄",121.507359208466,31.1889283360554,2022-05-01
"浦东新区","上海市浦东新区浦东南路4800弄",121.5052519634,31.1862488771978,2022-05-01
"浦东新区","上海市浦东新区浦建路60弄",121.524453692829,31.2131592305879,2022-05-01
"浦东新区","上海市浦东新区浦建路83弄",121.525390176323,31.2156239764809,2022-05-01
"浦东新区","上海市浦东新区浦明路688弄",121.518068267772,31.2284627991959,2022-05-01
"浦东新区","上海市浦东新区浦三路12弄",121.517827791387,31.2027220039836,2022-05-01
"浦东新区","上海市浦东新区浦三路741弄",121.526881722792,31.1921087714312,2022-05-01
"浦东新区","上海市浦东新区浦三路786弄",121.524326133447,31.1887441421226,2022-05-01
"浦东新区","上海市浦东新区栖山路1489弄",121.571031731827,31.2638235251368,2022-05-01
"浦东新区","上海市浦东新区栖山路1899弄",121.580127614099,31.2679922952123,2022-05-01
"浦东新区","上海市浦东新区栖山路401弄",121.556033443371,31.2539878305727,2022-05-01
"浦东新区","上海市浦东新区栖山路450弄",121.557953122246,31.2538112507536,2022-05-01
"浦东新区","上海市浦东新区栖霞路190弄",121.526081152921,31.2441861427874,2022-05-01
"浦东新区","上海市浦东新区栖霞路86号",121.524251574089,31.2422432340542,2022-05-01
"浦东新区","上海市浦东新区齐河路10弄",121.508225444469,31.1834231367154,2022-05-01
"浦东新区","上海市浦东新区清溪路260弄",121.580223283635,31.3489553432852,2022-05-01
"浦东新区","上海市浦东新区清溪路365弄",121.578081633469,31.347103664356,2022-05-01
"浦东新区","上海市浦东新区清溪路400弄",121.577475636572,31.3476508374997,2022-05-01
"浦东新区","上海市浦东新区晴阁路700弄",121.550454606832,31.2273482924363,2022-05-01
"浦东新区","上海市浦东新区乳山路161弄",121.528018079262,31.2415971840306,2022-05-01
"浦东新区","上海市浦东新区瑞福路52弄",121.607602647444,31.1017584182868,2022-05-01
"浦东新区","上海市浦东新区瑞浦路8弄",121.550454606832,31.2273482924363,2022-05-01
"浦东新区","上海市浦东新区瑞意路399弄",121.59268628445,31.1027918607619,2022-05-01
"浦东新区","上海市浦东新区三彩路166弄",121.525530311983,31.1391594184198,2022-05-01
"浦东新区","上海市浦东新区三彩路52弄",121.525530311983,31.1391594184198,2022-05-01
"浦东新区","上海市浦东新区三彩路59弄",121.506355531719,31.132930313735,2022-05-01
"浦东新区","上海市浦东新区三林路168号",121.50263852318,31.1415921892231,2022-05-01
"浦东新区","上海市浦东新区三林路184号",121.502530996011,31.1424148693693,2022-05-01
"浦东新区","上海市浦东新区三林路235号",121.502736528311,31.1436912572177,2022-05-01
"浦东新区","上海市浦东新区三林路788弄",121.514306433788,31.1473404454447,2022-05-01
"浦东新区","上海市浦东新区三林路88弄",121.536884264815,31.1897022555378,2022-05-01
"浦东新区","上海市浦东新区三林镇胡巷村金家宅",121.52500489309,31.1587157705195,2022-05-01
"浦东新区","上海市浦东新区三林镇临江村丁家队丁家宅",121.484386212845,31.1273406057646,2022-05-01
"浦东新区","上海市浦东新区三林镇临江村王家渡队王家渡",121.481034545157,31.1308233546774,2022-05-01
"浦东新区","上海市浦东新区三林镇南阜村东汤队东汤家宅",121.526167659742,31.1360516018922,2022-05-01
"浦东新区","上海市浦东新区三林镇南阜村瞿弄队瞿家里",121.526167659742,31.1360516018922,2022-05-01
"浦东新区","上海市浦东新区三林镇三林村镇前队金家宅",121.593249522005,31.1310947543661,2022-05-01
"浦东新区","上海市浦东新区三林镇天花庵村北陈队大陈家宅",121.531939542135,31.1285359001772,2022-05-01
"浦东新区","上海市浦东新区三林镇天花庵村东瞿队大瞿家宅",121.532611205165,31.1270776188598,2022-05-01
"浦东新区","上海市浦东新区三林镇天花庵村芦家队芦家油车",121.533159710509,31.1300725193346,2022-05-01
"浦东新区","上海市浦东新区三林镇天花庵村闵北队闵家宅",121.539890174712,31.126238497919,2022-05-01
"浦东新区","上海市浦东新区三林镇天花庵村南陈队大陈家宅",121.531939542135,31.1285359001772,2022-05-01
"浦东新区","上海市浦东新区三林镇天花庵村南周家队大周家宅",121.531939542135,31.1285359001772,2022-05-01
"浦东新区","上海市浦东新区三林镇西林村圈门队西林街",121.505050473475,31.1424654028824,2022-05-01
"浦东新区","上海市浦东新区三林镇西林村万家队西林街",121.505050473475,31.1424654028824,2022-05-01
"浦东新区","上海市浦东新区三林镇西林村西林队金家宅",121.506713326804,31.1407565978205,2022-05-01
"浦东新区","上海市浦东新区三林镇新任村",121.502813063941,31.1618677203956,2022-05-01
"浦东新区","上海市浦东新区三林镇懿德村康家队康家宅",121.522822549684,31.1249738516842,2022-05-01
"浦东新区","上海市浦东新区三林镇懿德村吴家队吴家宅",121.522180979889,31.1256048631317,2022-05-01
"浦东新区","上海市浦东新区三林镇中林村三林桥队天打桥",121.505046161608,31.1424974692412,2022-05-01
"浦东新区","上海市浦东新区三舒路288弄",121.525530311983,31.1391594184198,2022-05-01
"浦东新区","上海市浦东新区三舒路62弄",121.509892699496,31.1304092986302,2022-05-01
"浦东新区","上海市浦东新区商城路991弄",121.530389965131,31.2397038535453,2022-05-01
"浦东新区","上海市浦东新区上川路538号",121.652824694274,31.2786376609798,2022-05-01
"浦东新区","上海市浦东新区上南路1000弄",121.50066746123,31.1805938353858,2022-05-01
"浦东新区","上海市浦东新区上南路1251弄",121.502606274012,31.1785212361064,2022-05-01
"浦东新区","上海市浦东新区上南路3339弄",121.513109172205,31.1658360910049,2022-05-01
"浦东新区","上海市浦东新区上南路3651弄",121.513459421523,31.1605853221933,2022-05-01
"浦东新区","上海市浦东新区上南路3827弄",121.513376418094,31.1574412866063,2022-05-01
"浦东新区","上海市浦东新区上南路3848弄",121.511836003805,31.1560752357101,2022-05-01
"浦东新区","上海市浦东新区上南路4185弄",121.51939174128,31.1519459822317,2022-05-01
"浦东新区","上海市浦东新区上南路4265弄",121.519804782154,31.1518099263142,2022-05-01
"浦东新区","上海市浦东新区上南路6733弄",121.584859707864,31.1200779398788,2022-05-01
"浦东新区","上海市浦东新区上南路7992弄",121.58100651621,31.1250013643354,2022-05-01
"浦东新区","上海市浦东新区上南路929弄",121.507678825566,31.1860937173936,2022-05-01
"浦东新区","上海市浦东新区上浦路510弄",121.506222941826,31.1521017393601,2022-05-01
"浦东新区","上海市浦东新区盛荣路288弄",121.636263803384,31.1944164540822,2022-05-01
"浦东新区","上海市浦东新区世博家园大道站路94弄",121.545610314708,31.1654593463491,2022-05-01
"浦东新区","上海市浦东新区寿光路161弄",121.590525320716,31.2803961854226,2022-05-01
"浦东新区","上海市浦东新区思浦路13弄",121.500159469464,31.1649102558777,2022-05-01
"浦东新区","上海市浦东新区思浦路15弄",121.499982772771,31.1645087101922,2022-05-01
"浦东新区","上海市浦东新区思浦路17弄",121.499381626723,31.1638258159296,2022-05-01
"浦东新区","上海市浦东新区松林路283号",121.540448022434,31.2333759042748,2022-05-01
"浦东新区","上海市浦东新区松林路333弄",121.540645649646,31.232864650767,2022-05-01
"浦东新区","上海市浦东新区唐镇虹四村吴张家宅",121.658368227407,31.2467905435275,2022-05-01
"浦东新区","上海市浦东新区唐镇暮二村小丁家宅",121.669724605664,31.2288207632593,2022-05-01
"浦东新区","上海市浦东新区唐镇前进村顾家宅",121.648552173608,31.2141666626809,2022-05-01
"浦东新区","上海市浦东新区唐镇前进村西李家宅",121.648552173608,31.2141666626809,2022-05-01
"浦东新区","上海市浦东新区唐镇唐四村龚家宅",121.667689494531,31.2210198162809,2022-05-01
"浦东新区","上海市浦东新区唐镇小湾村小湾新村",121.696664967569,31.239619872733,2022-05-01
"浦东新区","上海市浦东新区唐镇小湾村张家老宅",121.699658031698,31.2385939576616,2022-05-01
"浦东新区","上海市浦东新区唐镇新虹村刘家宅",121.655033627523,31.2487133679639,2022-05-01
"浦东新区","上海市浦东新区唐镇新虹村陆家宅",121.655033627523,31.2487133679639,2022-05-01
"浦东新区","上海市浦东新区唐镇新镇村谢家宅",121.648514804098,31.2218474355031,2022-05-01
"浦东新区","上海市浦东新区唐镇一心村袁家宅",121.688848811327,31.2500387840308,2022-05-01
"浦东新区","上海市浦东新区塘南路159弄",121.516400833085,31.2080020709147,2022-05-01
"浦东新区","上海市浦东新区桃林路299弄",121.543789000287,31.2452268929635,2022-05-01
"浦东新区","上海市浦东新区万安街333弄",121.620487043373,31.3020433364024,2022-05-01
"浦东新区","上海市浦东新区万德路45弄",121.563916613204,31.2576476191856,2022-05-01
"浦东新区","上海市浦东新区万德路52弄",121.565303147759,31.255246569532,2022-05-01
"浦东新区","上海市浦东新区万和路118弄",121.825241321654,30.979408598091,2022-05-01
"浦东新区","上海市浦东新区潍坊路282号",121.540762429363,31.2342850069253,2022-05-01
"浦东新区","上海市浦东新区潍坊路335弄",121.538270619708,31.2337883478814,2022-05-01
"浦东新区","上海市浦东新区潍坊路355弄",121.538217979006,31.2351453926189,2022-05-01
"浦东新区","上海市浦东新区潍坊路375弄",121.541472090715,31.2347481618797,2022-05-01
"浦东新区","上海市浦东新区潍坊新村",121.53626066113,31.2349299495727,2022-05-01
"浦东新区","上海市浦东新区五莲路100弄",121.585797359155,31.2816781004793,2022-05-01
"浦东新区","上海市浦东新区五莲路1047弄",121.601390415689,31.2777458097831,2022-05-01
"浦东新区","上海市浦东新区五莲路108弄",121.588773624971,31.2771578731139,2022-05-01
"浦东新区","上海市浦东新区五莲路1728弄",121.605773877086,31.2879444559569,2022-05-01
"浦东新区","上海市浦东新区五莲路1769弄",121.60380012022,31.290088693223,2022-05-01
"浦东新区","上海市浦东新区五莲路201弄",121.587086158071,31.2826666637015,2022-05-01
"浦东新区","上海市浦东新区五莲路30弄",121.584500744982,31.2815552719446,2022-05-01
"浦东新区","上海市浦东新区五莲路759弄",121.597702871571,31.2763872229612,2022-05-01
"浦东新区","上海市浦东新区五星路151弄",121.536884264815,31.1897022555378,2022-05-01
"浦东新区","上海市浦东新区五星路231弄",121.536884264815,31.1897022555378,2022-05-01
"浦东新区","上海市浦东新区五星路239弄",121.569954483859,31.1817814232373,2022-05-01
"浦东新区","上海市浦东新区西三里桥路9弄",121.550454606832,31.2273482924363,2022-05-01
"浦东新区","上海市浦东新区西市街175弄",121.705357500759,31.2016178339823,2022-05-01
"浦东新区","上海市浦东新区西泰林路850弄",121.546822039011,31.1487391512895,2022-05-01
"浦东新区","上海市浦东新区西泰林路901弄",121.54507097208,31.1494599367676,2022-05-01
"浦东新区","上海市浦东新区西营南路18弄",121.49313364241,31.1654734829916,2022-05-01
"浦东新区","上海市浦东新区西营南路68弄",121.525530311983,31.1391594184198,2022-05-01
"浦东新区","上海市浦东新区下南路225弄",121.552785889291,31.1753995837175,2022-05-01
"浦东新区","上海市浦东新区下南路276弄",121.536884264815,31.1897022555378,2022-05-01
"浦东新区","上海市浦东新区下南路309弄",121.529696185109,31.2072012517119,2022-05-01
"浦东新区","上海市浦东新区下南路320弄",121.547891741212,31.1755488136572,2022-05-01
"浦东新区","上海市浦东新区下南路339弄",121.550641274717,31.1767910741702,2022-05-01
"浦东新区","上海市浦东新区下南路474号",121.546493708347,31.1779882106021,2022-05-01
"浦东新区","上海市浦东新区下南路500弄",121.543720818899,31.1779675877605,2022-05-01
"浦东新区","上海市浦东新区下南路501弄",121.536884264815,31.1897022555378,2022-05-01
"浦东新区","上海市浦东新区下南路518弄",121.536884264815,31.1897022555378,2022-05-01
"浦东新区","上海市浦东新区下南路526弄",121.544402003967,31.1780418917603,2022-05-01
"浦东新区","上海市浦东新区下南路551弄",121.54679904239,31.1790168752743,2022-05-01
"浦东新区","上海市浦东新区翔川路458弄",121.701523183428,31.1890314381616,2022-05-01
"浦东新区","上海市浦东新区新德路365弄",121.704561252663,31.2031656244534,2022-05-01
"浦东新区","上海市浦东新区新德路908弄",121.691473121044,31.2031042358452,2022-05-01
"浦东新区","上海市浦东新区新德西路508弄",121.676387607123,31.198096102614,2022-05-01
"浦东新区","上海市浦东新区新金桥路230号",121.606037799245,31.2552516631071,2022-05-01
"浦东新区","上海市浦东新区新浦路629弄",121.542012690971,31.1775770659788,2022-05-01
"浦东新区","上海市浦东新区新元南路正茂路交界口工地生活区",121.82788341782,30.8836711316312,2022-05-01
"浦东新区","上海市浦东新区新园路32弄",121.635502758956,31.324576801349,2022-05-01
"浦东新区","上海市浦东新区行南路1150弄",121.591471326248,31.3367516407738,2022-05-01
"浦东新区","上海市浦东新区秀康路958弄",121.584859707864,31.1200779398788,2022-05-01
"浦东新区","上海市浦东新区秀沿路1168弄",121.584859707864,31.1200779398788,2022-05-01
"浦东新区","上海市浦东新区秀沿路1弄",121.584859707864,31.1200779398788,2022-05-01
"浦东新区","上海市浦东新区秀沿路2585弄",121.584859707864,31.1200779398788,2022-05-01
"浦东新区","上海市浦东新区秀沿路2875弄",121.616066481959,31.1449302308223,2022-05-01
"浦东新区","上海市浦东新区秀沿西路218弄",121.540521863147,31.1357646072078,2022-05-01
"浦东新区","上海市浦东新区宣桥镇光辉村",121.718709384784,31.0698578892064,2022-05-01
"浦东新区","上海市浦东新区宣桥镇光明村金光",121.732031255497,31.082491592569,2022-05-01
"浦东新区","上海市浦东新区宣桥镇季桥村蔡圈",121.692896575955,31.0618052214518,2022-05-01
"浦东新区","上海市浦东新区宣桥镇宣桥村",121.706113704245,31.0247363045066,2022-05-01
"浦东新区","上海市浦东新区宣桥镇腰路村",121.700608977911,31.0807714134949,2022-05-01
"浦东新区","上海市浦东新区宣桥镇张家桥村胡桥",121.693527412796,31.0508223108026,2022-05-01
"浦东新区","上海市浦东新区学前二村",121.590492532564,31.3525874321299,2022-05-01
"浦东新区","上海市浦东新区雪野路34弄",121.503822310181,31.1865529402405,2022-05-01
"浦东新区","上海市浦东新区严杨路30弄",121.532512930542,31.1982761081556,2022-05-01
"浦东新区","上海市浦东新区严中路140弄",121.536105883091,31.1992723487879,2022-05-01
"浦东新区","上海市浦东新区严中路47弄",121.53702206488,31.200757616483,2022-05-01
"浦东新区","上海市浦东新区杨高南路1218弄",121.536872766504,31.2110085182781,2022-05-01
"浦东新区","上海市浦东新区杨高南路2030弄",121.52893228478,31.1967108746521,2022-05-01
"浦东新区","上海市浦东新区杨高南路2140弄",121.5300002802,31.1942849388584,2022-05-01
"浦东新区","上海市浦东新区杨莲路310弄",121.536884264815,31.1897022555378,2022-05-01
"浦东新区","上海市浦东新区杨南路1899弄",121.525480006874,31.1614217413702,2022-05-01
"浦东新区","上海市浦东新区杨南路694弄",121.507554859406,31.1553909666812,2022-05-01
"浦东新区","上海市浦东新区杨思北街118弄",121.499143935085,31.1698540400458,2022-05-01
"浦东新区","上海市浦东新区杨思路430弄",121.499450167434,31.1653666470015,2022-05-01
"浦东新区","上海市浦东新区杨思路436弄",121.500760435851,31.1656608126153,2022-05-01
"浦东新区","上海市浦东新区杨思路855弄",121.506597265732,31.1689656319057,2022-05-01
"浦东新区","上海市浦东新区杨思新村",121.600645630591,31.2244171774298,2022-05-01
"浦东新区","上海市浦东新区杨新路197弄",121.498520151739,31.1688455907204,2022-05-01
"浦东新区","上海市浦东新区杨新路198弄",121.498479727991,31.1692324410427,2022-05-01
"浦东新区","上海市浦东新区杨新路20弄",121.502908553817,31.1704943282868,2022-05-01
"浦东新区","上海市浦东新区杨新路282弄",121.494152859841,31.1673540236933,2022-05-01
"浦东新区","上海市浦东新区洋泾镇路89弄",121.555696938127,31.2473205533115,2022-05-01
"浦东新区","上海市浦东新区耀华路331弄",121.493188888199,31.1809682021446,2022-05-01
"浦东新区","上海市浦东新区耀华路414弄",121.492226982658,31.1790527910542,2022-05-01
"浦东新区","上海市浦东新区耀华路550弄",121.487451231245,31.1759876966065,2022-05-01
"浦东新区","上海市浦东新区耀华路560号",121.488000006081,31.1774534827976,2022-05-01
"浦东新区","上海市浦东新区耀元路228弄",121.480329835216,31.1769398309366,2022-05-01
"浦东新区","上海市浦东新区益丰路55弄",121.628839488005,31.2071079243307,2022-05-01
"浦东新区","上海市浦东新区银冬路568号生活区",121.643025528618,31.2116879803861,2022-05-01
"浦东新区","上海市浦东新区樱花路802弄",121.567473903024,31.2138070211684,2022-05-01
"浦东新区","上海市浦东新区永泰路1299弄",121.533145517282,31.1492555769921,2022-05-01
"浦东新区","上海市浦东新区永泰路136弄",121.511141254324,31.1406678921009,2022-05-01
"浦东新区","上海市浦东新区永泰路182号",121.514436059273,31.1416909390381,2022-05-01
"浦东新区","上海市浦东新区永泰路1960弄",121.525530311983,31.1391594184198,2022-05-01
"浦东新区","上海市浦东新区永泰路468弄",121.518683696877,31.1422970350015,2022-05-01
"浦东新区","上海市浦东新区永泰路59弄",121.507846629035,31.1402600610679,2022-05-01
"浦东新区","上海市浦东新区永泰路630弄",121.52411305538,31.1453658573196,2022-05-01
"浦东新区","上海市浦东新区玉泉街77弄",121.501992641519,31.1689911232573,2022-05-01
"浦东新区","上海市浦东新区御衡路68弄",121.588337407815,31.159592610344,2022-05-01
"浦东新区","上海市浦东新区御青路260弄",121.584859707864,31.1200779398788,2022-05-01
"浦东新区","上海市浦东新区园二路299弄",121.641001825966,31.3230769196488,2022-05-01
"浦东新区","上海市浦东新区源深路600弄",121.540367174938,31.2377605429358,2022-05-01
"浦东新区","上海市浦东新区云山路1050弄",121.578006175806,31.2549915817213,2022-05-01
"浦东新区","上海市浦东新区云山路999弄",121.578509226892,31.2581962432747,2022-05-01
"浦东新区","上海市浦东新区云台路183弄",121.510618530348,31.1833989622759,2022-05-01
"浦东新区","上海市浦东新区运盐河路1255弄",121.722547125584,31.1878365279896,2022-05-01
"浦东新区","上海市浦东新区韵涛路36弄",121.584859707864,31.1200779398788,2022-05-01
"浦东新区","上海市浦东新区枣庄路210弄",121.577389219582,31.2643915592667,2022-05-01
"浦东新区","上海市浦东新区枣庄路552弄",121.585578981086,31.2573668619355,2022-05-01
"浦东新区","上海市浦东新区枣庄路658弄",121.585248584319,31.2574340029709,2022-05-01
"浦东新区","上海市浦东新区张江镇韩荡村汤家宅",121.610580260717,31.1590221632345,2022-05-01
"浦东新区","上海市浦东新区张江镇环东中心村桥弄严家宅",121.559597021329,31.176807680787,2022-05-01
"浦东新区","上海市浦东新区张江镇劳动村孙家宅西",121.635001684142,31.1855036598441,2022-05-01
"浦东新区","上海市浦东新区张江镇沔北村诸家宅南",121.628810113415,31.1677259713913,2022-05-01
"浦东新区","上海市浦东新区张江镇钱堂村立达宅",121.599518706329,31.1638817454656,2022-05-01
"浦东新区","上海市浦东新区张江镇中心村安乐宅",121.664786799937,31.1927150050595,2022-05-01
"浦东新区","上海市浦东新区张江镇中心村蔡家圈宅",121.646543023504,31.1777788924112,2022-05-01
"浦东新区","上海市浦东新区张江镇中心村吴家宅",121.662129522408,31.2029666325547,2022-05-01
"浦东新区","上海市浦东新区张杨北路2899弄",121.594111985125,31.3105698711783,2022-05-01
"浦东新区","上海市浦东新区张杨北路555弄",121.593490267882,31.2720642731454,2022-05-01
"浦东新区","上海市浦东新区张杨北路588弄",121.595215283953,31.275260170384,2022-05-01
"浦东新区","上海市浦东新区张杨路1515弄",121.542149592731,31.240309161544,2022-05-01
"浦东新区","上海市浦东新区张杨路1673弄",121.549771894644,31.2433326325524,2022-05-01
"浦东新区","上海市浦东新区张杨路2100弄",121.5896261169,31.2815848989426,2022-05-01
"浦东新区","上海市浦东新区张杨路310弄",121.519739385513,31.2308058679906,2022-05-01
"浦东新区","上海市浦东新区赵高公路958号",121.637129320743,31.3168728490792,2022-05-01
"浦东新区","上海市浦东新区中大街134弄",121.583441013972,31.1238192404643,2022-05-01
"浦东新区","上海市浦东新区周东路599弄",121.590484807137,31.1249730015741,2022-05-01
"浦东新区","上海市浦东新区周浦镇沈西村",121.572071969607,31.0966482420378,2022-05-01
"浦东新区","上海市浦东新区周市路148号",121.591025676885,31.1183045782953,2022-05-01
"浦东新区","上海市浦东新区周祝公路周泰北路交界口工地生活区",121.608663636081,31.109520206494,2022-05-01
"浦东新区","上海市浦东新区竹柏路500弄",121.910085019444,30.90890287624,2022-05-01
"浦东新区","上海市浦东新区祝家港路155弄",121.592181436754,31.1164185721122,2022-05-01
"浦东新区","上海市浦东新区祝桥镇共和村陈家宅",121.740163974601,31.1765980509996,2022-05-01
"浦东新区","上海市浦东新区祝桥镇红星村红二",121.788223229554,31.095598342992,2022-05-01
"浦东新区","上海市浦东新区祝桥镇军民村周家宅",121.748544715856,31.1734496085643,2022-05-01
"浦东新区","上海市浦东新区祝桥镇星火村小桥",121.790651857789,31.0881901098298,2022-05-01
"浦东新区","上海市浦东新区紫薇路35弄",121.636263803384,31.1944164540822,2022-05-01
"浦东新区","上海市浦东新区紫薇路750弄",121.636263803384,31.1944164540822,2022-05-01
"浦东新区","上海市浦东新区紫叶路115弄",121.55858804458,31.189245596706,2022-05-01
"浦东新区","上海市浦东新区紫叶路65弄",121.536884264815,31.1897022555378,2022-05-01
"浦东新区","上海市浦东新区紫叶路66弄",121.536884264815,31.1897022555378,2022-05-01
"黄浦区","上海市黄浦区白河路11弄",121.478395862552,31.2409170899906,2022-05-01
"黄浦区","上海市黄浦区白河路21弄",121.478330555741,31.2410853579584,2022-05-01
"黄浦区","上海市黄浦区半淞园路650号",121.501021393601,31.2042314632707,2022-05-01
"黄浦区","上海市黄浦区半淞园路698弄",121.500650662917,31.2032802164143,2022-05-01
"黄浦区","上海市黄浦区保屯路211弄",121.498305816045,31.209535149529,2022-05-01
"黄浦区","上海市黄浦区保屯路50弄",121.496314991373,31.2118891156666,2022-05-01
"黄浦区","上海市黄浦区保屯路99弄",121.496778786508,31.2130922893987,2022-05-01
"黄浦区","上海市黄浦区北京东路288弄",121.490646324283,31.2464802699138,2022-05-01
"黄浦区","上海市黄浦区北京东路316弄",121.477099248379,31.2054004512698,2022-05-01
"黄浦区","上海市黄浦区北京东路431弄",121.488688467424,31.2454462486496,2022-05-01
"黄浦区","上海市黄浦区北京东路492号",121.487254682,31.2455657285888,2022-05-01
"黄浦区","上海市黄浦区北京西路206号",121.476306942919,31.242105997039,2022-05-01
"黄浦区","上海市黄浦区北京西路239弄",121.475743795195,31.241462338857,2022-05-01
"黄浦区","上海市黄浦区北京西路240弄",121.475833086762,31.2420176187645,2022-05-01
"黄浦区","上海市黄浦区北京西路256号",121.475433161149,31.2417952447631,2022-05-01
"黄浦区","上海市黄浦区北京西路266号",121.475059376227,31.2417632895525,2022-05-01
"黄浦区","上海市黄浦区曹家街17号",121.492450031917,31.2249128826119,2022-05-01
"黄浦区","上海市黄浦区曹市弄23弄",121.491585592524,31.2372471520636,2022-05-01
"黄浦区","上海市黄浦区曹市弄42弄",121.495654826654,31.2249117246057,2022-05-01
"黄浦区","上海市黄浦区长乐路169弄",121.468800612247,31.2272269364624,2022-05-01
"黄浦区","上海市黄浦区重庆北路104号",121.476908088966,31.231385759196,2022-05-01
"黄浦区","上海市黄浦区重庆北路126号",121.47687440251,31.2317740496208,2022-05-01
"黄浦区","上海市黄浦区重庆北路212号",121.476441509084,31.2331334393856,2022-05-01
"黄浦区","上海市黄浦区重庆北路216弄",121.476485975207,31.233229391023,2022-05-01
"黄浦区","上海市黄浦区重庆北路235号",121.475467027267,31.233620838719,2022-05-01
"黄浦区","上海市黄浦区重庆北路94弄",121.477107692451,31.2312745210258,2022-05-01
"黄浦区","上海市黄浦区重庆南路189号",121.477398563775,31.2206729397422,2022-05-01
"黄浦区","上海市黄浦区重庆南路18号",121.477852747041,31.2268588532583,2022-05-01
"黄浦区","上海市黄浦区车站支路9弄",121.491585592524,31.2372471520636,2022-05-01
"黄浦区","上海市黄浦区成都北路140弄",121.474440892883,31.2324651717123,2022-05-01
"黄浦区","上海市黄浦区成都北路254号",121.474188918188,31.2343689925272,2022-05-01
"黄浦区","上海市黄浦区成都北路262弄",121.474451223396,31.2349910085444,2022-05-01
"黄浦区","上海市黄浦区打浦路339弄",121.478552257541,31.2052967494431,2022-05-01
"黄浦区","上海市黄浦区打浦路398弄",121.478787972907,31.2038108587615,2022-05-01
"黄浦区","上海市黄浦区打浦路399号",121.478892086516,31.204535854047,2022-05-01
"黄浦区","上海市黄浦区打浦路470弄",121.479363247756,31.2030630784288,2022-05-01
"黄浦区","上海市黄浦区打浦路500弄",121.479751585228,31.2021083448416,2022-05-01
"黄浦区","上海市黄浦区大沽路179号",121.477421380735,31.2320375921442,2022-05-01
"黄浦区","上海市黄浦区大沽路183弄",121.477665540172,31.2319429515929,2022-05-01
"黄浦区","上海市黄浦区大沽路185号",121.477276573886,31.2320723296798,2022-05-01
"黄浦区","上海市黄浦区大沽路191号",121.47719725351,31.2319528325033,2022-05-01
"黄浦区","上海市黄浦区大沽路193号",121.477124939916,31.2319691977587,2022-05-01
"黄浦区","上海市黄浦区大沽路197号",121.477107782281,31.2319145439699,2022-05-01
"黄浦区","上海市黄浦区大沽路201号",121.476954082208,31.2319064385325,2022-05-01
"黄浦区","上海市黄浦区大沽路250号",121.47606574789,31.2321393344898,2022-05-01
"黄浦区","上海市黄浦区大沽路252号",121.476074820775,31.2320001527858,2022-05-01
"黄浦区","上海市黄浦区大沽路254号",121.475885817296,31.2319917385775,2022-05-01
"黄浦区","上海市黄浦区大吉路173弄",121.490317185144,31.2201454039175,2022-05-01
"黄浦区","上海市黄浦区大吉路26弄",121.449603104854,31.2296828975263,2022-05-01
"黄浦区","上海市黄浦区大吉路310弄",121.468393051037,31.2230778107397,2022-05-01
"黄浦区","上海市黄浦区大林路256号",121.490978338,31.2181194626927,2022-05-01
"黄浦区","上海市黄浦区大林路31弄",121.494257961586,31.2193829306693,2022-05-01
"黄浦区","上海市黄浦区大林路86号",121.493454606968,31.2187793402125,2022-05-01
"黄浦区","上海市黄浦区大林路94号",121.493391366261,31.2187330941216,2022-05-01
"黄浦区","上海市黄浦区淡水路199号",121.479881929357,31.2238072889281,2022-05-01
"黄浦区","上海市黄浦区淡水路201号",121.479904027673,31.2237378849088,2022-05-01
"黄浦区","上海市黄浦区淡水路214弄",121.479010483182,31.2233875443681,2022-05-01
"黄浦区","上海市黄浦区淡水路216号",121.479799015758,31.2233480943044,2022-05-01
"黄浦区","上海市黄浦区淡水路222号",121.479685559773,31.2231758571387,2022-05-01
"黄浦区","上海市黄浦区淡水路223弄",121.479911483608,31.2228435797927,2022-05-01
"黄浦区","上海市黄浦区淡水路225弄",121.479878246304,31.2227551833205,2022-05-01
"黄浦区","上海市黄浦区淡水路227弄",121.479884264951,31.2227210599438,2022-05-01
"黄浦区","上海市黄浦区淡水路228号",121.479637230936,31.2231540862149,2022-05-01
"黄浦区","上海市黄浦区淡水路91弄",121.4795759665,31.2272278628445,2022-05-01
"黄浦区","上海市黄浦区东江阴街232号",121.50299389284,31.2197405434401,2022-05-01
"黄浦区","上海市黄浦区方浜西路63弄",121.488941789578,31.2268514421722,2022-05-01
"黄浦区","上海市黄浦区方斜路269号",121.491635897633,31.2214829596933,2022-05-01
"黄浦区","上海市黄浦区方斜路401弄",121.490010862965,31.2204078211292,2022-05-01
"黄浦区","上海市黄浦区方斜路534号",121.489219545642,31.2184387862433,2022-05-01
"黄浦区","上海市黄浦区丰记码头街125弄",121.510363591244,31.2157208725676,2022-05-01
"黄浦区","上海市黄浦区凤阳路358弄",121.475650191761,31.240041088235,2022-05-01
"黄浦区","上海市黄浦区福建中路195弄",121.488057048481,31.2395095706142,2022-05-01
"黄浦区","上海市黄浦区福州路531号",121.489504847472,31.238861494796,2022-05-01
"黄浦区","上海市黄浦区福州路614弄",121.485855032185,31.2389698679587,2022-05-01
"黄浦区","上海市黄浦区抚安街9弄",121.491585592524,31.2372471520636,2022-05-01
"黄浦区","上海市黄浦区复兴东路260号",121.506001958671,31.2262458926962,2022-05-01
"黄浦区","上海市黄浦区复兴东路346号",121.504371264678,31.226603324847,2022-05-01
"黄浦区","上海市黄浦区复兴东路663弄",121.498122382059,31.2279773029395,2022-05-01
"黄浦区","上海市黄浦区复兴东路673号",121.497880827708,31.2278543266236,2022-05-01
"黄浦区","上海市黄浦区复兴中路408弄",121.480135790494,31.2225478951959,2022-05-01
"黄浦区","上海市黄浦区高家横弄18弄",121.471987979858,31.2162274328676,2022-05-01
"黄浦区","上海市黄浦区高家弄37弄",121.491585592524,31.2372471520636,2022-05-01
"黄浦区","上海市黄浦区高家弄47号",121.491585592524,31.2372471520636,2022-05-01
"黄浦区","上海市黄浦区高家弄66弄",121.484578540055,31.2354982364646,2022-05-01
"黄浦区","上海市黄浦区高家弄74号",121.491585592524,31.2372471520636,2022-05-01
"黄浦区","上海市黄浦区牯岭路145弄",121.477555497747,31.2417679207431,2022-05-01
"黄浦区","上海市黄浦区光启路111号",121.500877215567,31.2296260037028,2022-05-01
"黄浦区","上海市黄浦区广东路138号",121.494688699078,31.2390723746523,2022-05-01
"黄浦区","上海市黄浦区广东路212号",121.493726344385,31.2388859636763,2022-05-01
"黄浦区","上海市黄浦区广东路542号",121.487539893999,31.2379491946548,2022-05-01
"黄浦区","上海市黄浦区广西北路200号",121.484809404571,31.2385372236355,2022-05-01
"黄浦区","上海市黄浦区广西北路228弄",121.485099557251,31.2391192282015,2022-05-01
"黄浦区","上海市黄浦区广西北路425号",121.483259827566,31.2421428148632,2022-05-01
"黄浦区","上海市黄浦区广西北路493号",121.482925657917,31.2431460756967,2022-05-01
"黄浦区","上海市黄浦区贵州路163号",121.48247138482,31.2427217867499,2022-05-01
"黄浦区","上海市黄浦区贵州路169号",121.482444076333,31.2428328569367,2022-05-01
"黄浦区","上海市黄浦区贵州路174号",121.482541991633,31.2428909776977,2022-05-01
"黄浦区","上海市黄浦区贵州路68号",121.482970034209,31.2408808891818,2022-05-01
"黄浦区","上海市黄浦区国货路370弄",121.490967743528,31.2121753784511,2022-05-01
"黄浦区","上海市黄浦区海潮路222弄",121.503655584679,31.2138987460993,2022-05-01
"黄浦区","上海市黄浦区海潮路93弄",121.505912038289,31.2149615288345,2022-05-01
"黄浦区","上海市黄浦区海口路9号",121.487527138061,31.237148039744,2022-05-01
"黄浦区","上海市黄浦区汉口路130号",121.494115669993,31.2421841866567,2022-05-01
"黄浦区","上海市黄浦区汉口路429弄",121.488844952244,31.2405803215844,2022-05-01
"黄浦区","上海市黄浦区汉口路678号",121.484266828043,31.2396475833219,2022-05-01
"黄浦区","上海市黄浦区合肥路271号",121.481303857149,31.2202875370147,2022-05-01
"黄浦区","上海市黄浦区河南南路720号",121.498187239717,31.2233931800901,2022-05-01
"黄浦区","上海市黄浦区河南南路790弄",121.498540094122,31.2220411374899,2022-05-01
"黄浦区","上海市黄浦区河南中路192号",121.492742071038,31.2399719278209,2022-05-01
"黄浦区","上海市黄浦区河南中路575弄",121.490140847773,31.2459055663665,2022-05-01
"黄浦区","上海市黄浦区湖北路20号",121.488464340199,31.2370663723487,2022-05-01
"黄浦区","上海市黄浦区湖滨路150号",121.485768615195,31.2266223158043,2022-05-01
"黄浦区","上海市黄浦区淮海东路89弄",121.488370916426,31.2308558135008,2022-05-01
"黄浦区","上海市黄浦区淮海中路606弄",121.473667092517,31.2264680720641,2022-05-01
"黄浦区","上海市黄浦区淮海中路613弄",121.473823038353,31.2257835448502,2022-05-01
"黄浦区","上海市黄浦区淮海中路697弄",121.471974235783,31.2249414467614,2022-05-01
"黄浦区","上海市黄浦区淮海中路774号",121.469762158465,31.2248507362566,2022-05-01
"黄浦区","上海市黄浦区淮海中路833弄",121.468989885218,31.224196151208,2022-05-01
"黄浦区","上海市黄浦区淮海中路855弄",121.468392961207,31.2237405097558,2022-05-01
"黄浦区","上海市黄浦区淮海中路927弄",121.467196957251,31.2226196933692,2022-05-01
"黄浦区","上海市黄浦区黄陂北路249弄",121.476281161551,31.2354804051842,2022-05-01
"黄浦区","上海市黄浦区黄陂南路596弄",121.482998420663,31.2218577034941,2022-05-01
"黄浦区","上海市黄浦区黄河路107弄",121.476632399005,31.2404605265254,2022-05-01
"黄浦区","上海市黄浦区黄河路215弄",121.434456955312,31.2533728868238,2022-05-01
"黄浦区","上海市黄浦区黄河路223弄",121.476039876691,31.2425346111887,2022-05-01
"黄浦区","上海市黄浦区黄河路253弄",121.475294193287,31.242852770827,2022-05-01
"黄浦区","上海市黄浦区黄河路281弄",121.475632764634,31.2434464806782,2022-05-01
"黄浦区","上海市黄浦区黄家路55弄",121.503348004872,31.2215087455735,2022-05-01
"黄浦区","上海市黄浦区黄家路99弄",121.502000636438,31.2221657427013,2022-05-01
"黄浦区","上海市黄浦区黄家阙路76弄",121.494053776744,31.2203405763063,2022-05-01
"黄浦区","上海市黄浦区黄家阙路86号",121.494263171758,31.2202421409158,2022-05-01
"黄浦区","上海市黄浦区黄家阙路88弄",121.493958197037,31.2199379556041,2022-05-01
"黄浦区","上海市黄浦区徽宁路355号",121.496610713547,31.2161506885021,2022-05-01
"黄浦区","上海市黄浦区徽宁路509号",121.494416422678,31.2151442814681,2022-05-01
"黄浦区","上海市黄浦区建国东路10号",121.487393200709,31.21973444427,2022-05-01
"黄浦区","上海市黄浦区建国东路143弄",121.485327098036,31.2182331870898,2022-05-01
"黄浦区","上海市黄浦区建国东路61弄",121.486442404214,31.219232432313,2022-05-01
"黄浦区","上海市黄浦区建国东路65号",121.486370479886,31.2192139288219,2022-05-01
"黄浦区","上海市黄浦区建国西路120弄",121.471453488079,31.2140467565938,2022-05-01
"黄浦区","上海市黄浦区建国西路44号",121.472669973401,31.2145558738476,2022-05-01
"黄浦区","上海市黄浦区建国中路103弄",121.475834883374,31.2154260147615,2022-05-01
"黄浦区","上海市黄浦区建国中路145号",121.474768954055,31.2151413475461,2022-05-01
"黄浦区","上海市黄浦区建国中路155弄",121.474450414922,31.2147902799509,2022-05-01
"黄浦区","上海市黄浦区建国中路26号",121.474417986093,31.2151568664483,2022-05-01
"黄浦区","上海市黄浦区建国中路61弄",121.476353924297,31.2157260455033,2022-05-01
"黄浦区","上海市黄浦区建国中路65弄",121.476221514065,31.2156458263642,2022-05-01
"黄浦区","上海市黄浦区江滨路99号",121.479935019213,31.197853855228,2022-05-01
"黄浦区","上海市黄浦区江西中路135弄",121.494035091989,31.2399062408178,2022-05-01
"黄浦区","上海市黄浦区江西中路170号",121.494544970196,31.2405148665712,2022-05-01
"黄浦区","上海市黄浦区江西中路34弄",121.494850663561,31.2384770932491,2022-05-01
"黄浦区","上海市黄浦区江西中路412弄",121.492185570774,31.2467273311509,2022-05-01
"黄浦区","上海市黄浦区江西中路44弄",121.494733344862,31.2385833827505,2022-05-01
"黄浦区","上海市黄浦区江西中路451号",121.491606253551,31.2473839196508,2022-05-01
"黄浦区","上海市黄浦区江西中路452号",121.491936021504,31.2475258570077,2022-05-01
"黄浦区","上海市黄浦区江西中路46号",121.494664804151,31.2384741600585,2022-05-01
"黄浦区","上海市黄浦区江阴街404号",121.49517818575,31.2182135767827,2022-05-01
"黄浦区","上海市黄浦区江阴路130弄",121.474520662412,31.2357107449248,2022-05-01
"黄浦区","上海市黄浦区江阴路136号",121.474618847205,31.2355667054618,2022-05-01
"黄浦区","上海市黄浦区江阴路142号",121.474518775971,31.23553413059,2022-05-01
"黄浦区","上海市黄浦区江阴路88弄",121.475551737477,31.2358600331803,2022-05-01
"黄浦区","上海市黄浦区金陵东路55号",121.497973622667,31.2370869049897,2022-05-01
"黄浦区","上海市黄浦区金陵东路57号",121.497950536215,31.2370931574096,2022-05-01
"黄浦区","上海市黄浦区金陵东路59号",121.497854327695,31.2370649057313,2022-05-01
"黄浦区","上海市黄浦区金陵东路63号",121.497718773394,31.2370229141499,2022-05-01
"黄浦区","上海市黄浦区金坛路35弄",121.504583354609,31.2247265978234,2022-05-01
"黄浦区","上海市黄浦区进贤路180弄",121.465265690235,31.2277379891816,2022-05-01
"黄浦区","上海市黄浦区静修路104弄",121.493245481446,31.2257681049094,2022-05-01
"黄浦区","上海市黄浦区静修路126弄",121.486533342675,31.2255124191199,2022-05-01
"黄浦区","上海市黄浦区静修路37弄",121.494724990621,31.2259248201899,2022-05-01
"黄浦区","上海市黄浦区静修路7弄",121.491585592524,31.2372471520636,2022-05-01
"黄浦区","上海市黄浦区九江路218弄",121.492635082852,31.2429358996953,2022-05-01
"黄浦区","上海市黄浦区九江路619号",121.485146628459,31.2401623504,2022-05-01
"黄浦区","上海市黄浦区局门后路15号",121.487110953118,31.2147352300854,2022-05-01
"黄浦区","上海市黄浦区局门后路3号",121.48678037669,31.2154162093145,2022-05-01
"黄浦区","上海市黄浦区局门后路5号",121.487081219206,31.2152536858102,2022-05-01
"黄浦区","上海市黄浦区局门后路77号",121.487152544663,31.2143576782424,2022-05-01
"黄浦区","上海市黄浦区局门路1弄",121.491585592524,31.2372471520636,2022-05-01
"黄浦区","上海市黄浦区局门路241弄",121.487610410982,31.2120270919029,2022-05-01
"黄浦区","上海市黄浦区局门路434弄",121.487727639851,31.2084105340004,2022-05-01
"黄浦区","上海市黄浦区局门路599弄",121.4896578289,31.2063988553875,2022-05-01
"黄浦区","上海市黄浦区巨鹿路391弄",121.465008325706,31.2286652107884,2022-05-01
"黄浦区","上海市黄浦区聚奎新村",121.502708501179,31.2294960046602,2022-05-01
"黄浦区","上海市黄浦区丽水路88号",121.49690302216,31.2339138637669,2022-05-01
"黄浦区","上海市黄浦区丽园路1016弄",121.478937810266,31.2107348789637,2022-05-01
"黄浦区","上海市黄浦区丽园路333弄",121.490709205669,31.215059429318,2022-05-01
"黄浦区","上海市黄浦区丽园路567号",121.487316036266,31.2131918904586,2022-05-01
"黄浦区","上海市黄浦区丽园路710弄",121.486006396663,31.2123440426996,2022-05-01
"黄浦区","上海市黄浦区丽园路842弄",121.483621395534,31.2113782080457,2022-05-01
"黄浦区","上海市黄浦区丽园路883号",121.48180780654,31.2126339687374,2022-05-01
"黄浦区","上海市黄浦区丽园路885号",121.481914076082,31.2125746710216,2022-05-01
"黄浦区","上海市黄浦区丽园路888弄",121.481329818178,31.2120819889387,2022-05-01
"黄浦区","上海市黄浦区丽园路891号",121.481299635113,31.2125244069128,2022-05-01
"黄浦区","上海市黄浦区柳江街16弄",121.496042714973,31.2251638608268,2022-05-01
"黄浦区","上海市黄浦区柳江街5号",121.496275915084,31.2253566295493,2022-05-01
"黄浦区","上海市黄浦区柳市路1弄",121.491585592524,31.2372471520636,2022-05-01
"黄浦区","上海市黄浦区六合路158号",121.481415965676,31.24270588649,2022-05-01
"黄浦区","上海市黄浦区龙华东路39号",121.492922091462,31.2027595322718,2022-05-01
"黄浦区","上海市黄浦区龙华东路72号",121.493112483232,31.201493916502,2022-05-01
"黄浦区","上海市黄浦区龙华东路888弄",121.477730128338,31.1990606070333,2022-05-01
"黄浦区","上海市黄浦区鲁班路168弄",121.480692470419,31.2107777316744,2022-05-01
"黄浦区","上海市黄浦区鲁班路400弄",121.482126615165,31.2064886571851,2022-05-01
"黄浦区","上海市黄浦区鲁班路509弄",121.483254078411,31.2067494139374,2022-05-01
"黄浦区","上海市黄浦区鲁班路529号",121.483384242879,31.20560129119,2022-05-01
"黄浦区","上海市黄浦区鲁班路88弄",121.479933042941,31.2123967776489,2022-05-01
"黄浦区","上海市黄浦区陆家浜路1034弄",121.496036516665,31.2171361616686,2022-05-01
"黄浦区","上海市黄浦区陆家浜路1060弄",121.494868000858,31.2173551199827,2022-05-01
"黄浦区","上海市黄浦区陆家浜路1088号",121.494590244794,31.2176036478577,2022-05-01
"黄浦区","上海市黄浦区陆家浜路1256弄",121.491440695846,31.2171967690106,2022-05-01
"黄浦区","上海市黄浦区陆家浜路1396号",121.488887891247,31.2168014694617,2022-05-01
"黄浦区","上海市黄浦区陆家浜路305弄",121.507385528817,31.2171620259531,2022-05-01
"黄浦区","上海市黄浦区陆家浜路468弄",121.504498105416,31.2161071433814,2022-05-01
"黄浦区","上海市黄浦区陆家浜路521弄",121.505512112676,31.2192072119766,2022-05-01
"黄浦区","上海市黄浦区陆家浜路812号",121.499546375954,31.2181488781814,2022-05-01
"黄浦区","上海市黄浦区陆家浜路976号",121.496603796595,31.2177531966214,2022-05-01
"黄浦区","上海市黄浦区陆家宅路91弄",121.502350619858,31.2301080052278,2022-05-01
"黄浦区","上海市黄浦区马当路278弄",121.480389561801,31.2236803698593,2022-05-01
"黄浦区","上海市黄浦区马当路284号",121.481157972334,31.2237016002508,2022-05-01
"黄浦区","上海市黄浦区马当路290号",121.481188065569,31.223545962069,2022-05-01
"黄浦区","上海市黄浦区马当路306弄",121.480125639642,31.2230886190092,2022-05-01
"黄浦区","上海市黄浦区马当路316号",121.481257055432,31.2230825972592,2022-05-01
"黄浦区","上海市黄浦区马当路318弄",121.481149977415,31.2230443050963,2022-05-01
"黄浦区","上海市黄浦区马当路320号",121.481295682569,31.2230121890767,2022-05-01
"黄浦区","上海市黄浦区马当路357弄",121.482270074555,31.2192363183031,2022-05-01
"黄浦区","上海市黄浦区茂名南路143号",121.468213569596,31.2228754642639,2022-05-01
"黄浦区","上海市黄浦区茂名南路169弄",121.469133524269,31.2212484931447,2022-05-01
"黄浦区","上海市黄浦区茂名南路22弄",121.491585592524,31.2372471520636,2022-05-01
"黄浦区","上海市黄浦区蒙自路255号",121.484869860532,31.2107614399254,2022-05-01
"黄浦区","上海市黄浦区蒙自路345弄",121.485623179532,31.21018620811,2022-05-01
"黄浦区","上海市黄浦区蒙自路490弄",121.485480618448,31.2072328582784,2022-05-01
"黄浦区","上海市黄浦区蒙自路501弄",121.486431923983,31.2074409524628,2022-05-01
"黄浦区","上海市黄浦区蒙自路601弄",121.487528126197,31.2051225486478,2022-05-01
"黄浦区","上海市黄浦区蒙自西路6号",121.483052902892,31.2133338796934,2022-05-01
"黄浦区","上海市黄浦区蒙自西路72弄",121.48209804905,31.2132159800014,2022-05-01
"黄浦区","上海市黄浦区蒙自西路76号",121.481230016436,31.2131929713998,2022-05-01
"黄浦区","上海市黄浦区梦花街13弄",121.492488659054,31.2236649295716,2022-05-01
"黄浦区","上海市黄浦区梦花街151号",121.493618907046,31.2243223747692,2022-05-01
"黄浦区","上海市黄浦区梦花街198弄",121.493182330568,31.2239496480682,2022-05-01
"黄浦区","上海市黄浦区梦花街23号",121.495804664013,31.2252713234556,2022-05-01
"黄浦区","上海市黄浦区梦花街27号",121.495734416522,31.2252480090164,2022-05-01
"黄浦区","上海市黄浦区梦花街31号",121.495494928273,31.2253925275655,2022-05-01
"黄浦区","上海市黄浦区梦花街32号",121.495631111389,31.2250500676501,2022-05-01
"黄浦区","上海市黄浦区梦花街35号",121.495527896085,31.2251711176462,2022-05-01
"黄浦区","上海市黄浦区梦花街3弄",121.491585592524,31.2372471520636,2022-05-01
"黄浦区","上海市黄浦区梦花街9号",121.495938062381,31.2253889763646,2022-05-01
"黄浦区","上海市黄浦区面筋弄11号",121.504791132674,31.2258243834812,2022-05-01
"黄浦区","上海市黄浦区面筋弄12弄",121.504795534371,31.2263274151385,2022-05-01
"黄浦区","上海市黄浦区面筋弄17号",121.504795534371,31.2263274151385,2022-05-01
"黄浦区","上海市黄浦区面筋弄24号",121.504795534371,31.2263274151385,2022-05-01
"黄浦区","上海市黄浦区面筋弄40号",121.504795534371,31.2263274151385,2022-05-01
"黄浦区","上海市黄浦区面筋弄48号",121.504795534371,31.2263274151385,2022-05-01
"黄浦区","上海市黄浦区面筋弄60弄",121.535203625036,31.2165557189203,2022-05-01
"黄浦区","上海市黄浦区面筋弄8号",121.504795534371,31.2263274151385,2022-05-01
"黄浦区","上海市黄浦区南昌路110弄",121.468393051037,31.2230778107397,2022-05-01
"黄浦区","上海市黄浦区南昌路352号",121.46736637767,31.2218906691419,2022-05-01
"黄浦区","上海市黄浦区南昌路68号",121.475953819023,31.2255648378516,2022-05-01
"黄浦区","上海市黄浦区南昌路74弄",121.477767497848,31.2253373295349,2022-05-01
"黄浦区","上海市黄浦区南车站路450弄",121.50015381014,31.2106206821849,2022-05-01
"黄浦区","上海市黄浦区南京东路98号",121.494649263466,31.2445718330013,2022-05-01
"黄浦区","上海市黄浦区南塘浜路102号",121.4789711374,31.209180045817,2022-05-01
"黄浦区","上海市黄浦区南塘浜路93弄",121.48067306702,31.2097893347034,2022-05-01
"黄浦区","上海市黄浦区宁波路120弄",121.491211897432,31.2454927130886,2022-05-01
"黄浦区","上海市黄浦区宁波路439弄",121.485651835478,31.2432334494959,2022-05-01
"黄浦区","上海市黄浦区宁波路540号",121.483899960073,31.2428860378203,2022-05-01
"黄浦区","上海市黄浦区宁波路542弄",121.483778778659,31.2427559028324,2022-05-01
"黄浦区","上海市黄浦区宁波路545号",121.483792432903,31.2427012553458,2022-05-01
"黄浦区","上海市黄浦区宁波路617号",121.48255124418,31.2424048616417,2022-05-01
"黄浦区","上海市黄浦区宁波路620弄",121.482230728774,31.2425626296574,2022-05-01
"黄浦区","上海市黄浦区宁海东路261弄",121.487502075337,31.2340604531395,2022-05-01
"黄浦区","上海市黄浦区牌楼路29号",121.492932691467,31.2197669474376,2022-05-01
"黄浦区","上海市黄浦区牌楼路31弄",121.492987128781,31.2199450198173,2022-05-01
"黄浦区","上海市黄浦区蓬莱路208号",121.49739861731,31.22358085716,2022-05-01
"黄浦区","上海市黄浦区蓬莱路252弄",121.496682577988,31.223207201084,2022-05-01
"黄浦区","上海市黄浦区蓬莱路303弄",121.495558797795,31.2232214834201,2022-05-01
"黄浦区","上海市黄浦区蓬莱路338号",121.495332784129,31.2225087535878,2022-05-01
"黄浦区","上海市黄浦区蓬莱路402弄",121.494301349742,31.221763979083,2022-05-01
"黄浦区","上海市黄浦区平望街22号",121.485829969461,31.2375278153524,2022-05-01
"黄浦区","上海市黄浦区普育东路101弄",121.502876214818,31.2152174750717,2022-05-01
"黄浦区","上海市黄浦区普育东路200弄",121.502308755228,31.2136236482467,2022-05-01
"黄浦区","上海市黄浦区普育东路26号",121.502612651982,31.2167004053053,2022-05-01
"黄浦区","上海市黄浦区普育东路28号",121.502622533342,31.2164667760583,2022-05-01
"黄浦区","上海市黄浦区普育东路32号",121.502553273987,31.2160930143751,2022-05-01
"黄浦区","上海市黄浦区普育东路71弄",121.503539343946,31.2153491925307,2022-05-01
"黄浦区","上海市黄浦区普育西路112弄",121.496556006742,31.2171298307083,2022-05-01
"黄浦区","上海市黄浦区普育西路46号",121.500446118753,31.217555007785,2022-05-01
"黄浦区","上海市黄浦区普育西支路71号",121.499323326696,31.2178305573232,2022-05-01
"黄浦区","上海市黄浦区青岛路59号",121.474612738727,31.2432965870491,2022-05-01
"黄浦区","上海市黄浦区瞿溪路1003弄",121.483856931239,31.2057716302849,2022-05-01
"黄浦区","上海市黄浦区瞿溪路1072弄",121.481430608056,31.2047559228658,2022-05-01
"黄浦区","上海市黄浦区瞿溪路1111弄",121.480162649829,31.2049094302128,2022-05-01
"黄浦区","上海市黄浦区瞿溪路114号",121.501800763462,31.2126111916244,2022-05-01
"黄浦区","上海市黄浦区瞿溪路1195号",121.477967550485,31.2041682993581,2022-05-01
"黄浦区","上海市黄浦区瞿溪路1199弄",121.501473690425,31.2126581356342,2022-05-01
"黄浦区","上海市黄浦区瞿溪路1200弄",121.477917514868,31.2023023965439,2022-05-01
"黄浦区","上海市黄浦区瞿溪路120弄",121.50172216173,31.2120859266995,2022-05-01
"黄浦区","上海市黄浦区瞿溪路121号",121.501095863128,31.2123133128033,2022-05-01
"黄浦区","上海市黄浦区瞿溪路122号",121.50094297153,31.2119094994099,2022-05-01
"黄浦区","上海市黄浦区瞿溪路123号",121.500922490165,31.2121818999169,2022-05-01
"黄浦区","上海市黄浦区瞿溪路301弄",121.498335460126,31.2103753786943,2022-05-01
"黄浦区","上海市黄浦区瞿溪路305号",121.497776714099,31.2103228742439,2022-05-01
"黄浦区","上海市黄浦区瞿溪路601号",121.491644072213,31.2080429945178,2022-05-01
"黄浦区","上海市黄浦区瞿溪路883弄",121.485768974517,31.2063427195683,2022-05-01
"黄浦区","上海市黄浦区瞿溪路886号",121.485570987982,31.2058658340031,2022-05-01
"黄浦区","上海市黄浦区瞿溪路904弄",121.485646894798,31.2058076130278,2022-05-01
"黄浦区","上海市黄浦区瞿溪路937弄",121.484684090952,31.2063509816511,2022-05-01
"黄浦区","上海市黄浦区汝南街70弄",121.491384012768,31.2081913231254,2022-05-01
"黄浦区","上海市黄浦区汝南街76号",121.490695551425,31.2084300691469,2022-05-01
"黄浦区","上海市黄浦区瑞金二路200弄",121.472902275206,31.2150271561415,2022-05-01
"黄浦区","上海市黄浦区瑞金二路225弄",121.473528034824,31.213905849373,2022-05-01
"黄浦区","上海市黄浦区瑞金二路352号",121.472721805629,31.2132541217648,2022-05-01
"黄浦区","上海市黄浦区瑞金二路410弄",121.473398499169,31.2133016831321,2022-05-01
"黄浦区","上海市黄浦区瑞金二路48弄",121.470007845022,31.221921087083,2022-05-01
"黄浦区","上海市黄浦区瑞金二路52弄",121.470646001256,31.2218631849024,2022-05-01
"黄浦区","上海市黄浦区瑞金二路70弄",121.470872104753,31.2213571183194,2022-05-01
"黄浦区","上海市黄浦区三牌楼路11号",121.498994546879,31.2299872827542,2022-05-01
"黄浦区","上海市黄浦区三牌楼路135号",121.499064165556,31.2280247796284,2022-05-01
"黄浦区","上海市黄浦区山东中路230号",121.491214233027,31.240914697187,2022-05-01
"黄浦区","上海市黄浦区山西南路264号",121.488444128325,31.2440491401772,2022-05-01
"黄浦区","上海市黄浦区山西南路5号",121.490020025682,31.2401698376195,2022-05-01
"黄浦区","上海市黄浦区陕西南路271弄",121.469344985386,31.2142398570488,2022-05-01
"黄浦区","上海市黄浦区陕西南路287弄",121.468602895204,31.2136275859427,2022-05-01
"黄浦区","上海市黄浦区尚文路133弄",121.497992576913,31.2215084367606,2022-05-01
"黄浦区","上海市黄浦区尚文路185号",121.49733995796,31.2214598759202,2022-05-01
"黄浦区","上海市黄浦区尚文路257弄",121.495580446958,31.2210072320889,2022-05-01
"黄浦区","上海市黄浦区尚文路267弄",121.495837811486,31.2206491609339,2022-05-01
"黄浦区","上海市黄浦区顺昌路612弄46号",121.485565328658,31.2203313890076,2022-05-01
"黄浦区","上海市黄浦区思南路26弄",121.47224929693,31.2248943545103,2022-05-01
"黄浦区","上海市黄浦区思南路78号",121.476633746464,31.2158613910173,2022-05-01
"黄浦区","上海市黄浦区四川中路126弄",121.496402396499,31.2402469482272,2022-05-01
"黄浦区","上海市黄浦区四川中路653号",121.492475364132,31.2485798451266,2022-05-01
"黄浦区","上海市黄浦区四川中路668号",121.492685028638,31.2487115928061,2022-05-01
"黄浦区","上海市黄浦区四牌楼路81弄",121.502118583951,31.2297261275455,2022-05-01
"黄浦区","上海市黄浦区四牌楼路83号",121.502024531364,31.2297803194341,2022-05-01
"黄浦区","上海市黄浦区四牌楼路95弄",121.502076049185,31.2295805349371,2022-05-01
"黄浦区","上海市黄浦区孙家弄38号",121.504714237722,31.2276987725461,2022-05-01
"黄浦区","上海市黄浦区泰康路274弄",121.475030001637,31.2140448263593,2022-05-01
"黄浦区","上海市黄浦区天津路478弄",121.483546836177,31.2423470493228,2022-05-01
"黄浦区","上海市黄浦区天津路480号",121.483844624453,31.2421933718099,2022-05-01
"黄浦区","上海市黄浦区天津路524号",121.48324734112,31.2419435970713,2022-05-01
"黄浦区","上海市黄浦区天柱山路17弄",121.500176986422,31.2168069511661,2022-05-01
"黄浦区","上海市黄浦区威海路151号",121.475331652627,31.2328740684169,2022-05-01
"黄浦区","上海市黄浦区文庙路169号",121.495298379028,31.2236853107509,2022-05-01
"黄浦区","上海市黄浦区文庙路87弄",121.496424674476,31.2243110262358,2022-05-01
"黄浦区","上海市黄浦区吾园街140号",121.497572888579,31.2231858161767,2022-05-01
"黄浦区","上海市黄浦区西仓桥街103弄",121.49644982703,31.2263300399129,2022-05-01
"黄浦区","上海市黄浦区西仓桥街106号",121.496520793166,31.2259672799498,2022-05-01
"黄浦区","上海市黄浦区西仓桥街107号",121.496543071142,31.2263341314729,2022-05-01
"黄浦区","上海市黄浦区西仓桥街109号",121.496526093168,31.2262082194224,2022-05-01
"黄浦区","上海市黄浦区西仓桥街111号",121.496489891456,31.2263116664904,2022-05-01
"黄浦区","上海市黄浦区西仓桥街112弄",121.496291276108,31.2259735331128,2022-05-01
"黄浦区","上海市黄浦区西仓桥街129号",121.496106674326,31.2260856267788,2022-05-01
"黄浦区","上海市黄浦区西仓桥街138弄",121.517276860618,31.2603853054475,2022-05-01
"黄浦区","上海市黄浦区西仓桥街144号",121.495884972526,31.2259695959361,2022-05-01
"黄浦区","上海市黄浦区西仓桥街149号",121.495812119949,31.2260867075711,2022-05-01
"黄浦区","上海市黄浦区西仓桥街155号",121.495735853811,31.2260430898732,2022-05-01
"黄浦区","上海市黄浦区西仓桥街161弄",121.495304756997,31.2257539001616,2022-05-01
"黄浦区","上海市黄浦区西仓桥街162弄",121.495642430038,31.2256990111432,2022-05-01
"黄浦区","上海市黄浦区西仓桥街92号",121.496683296632,31.2260197756263,2022-05-01
"黄浦区","上海市黄浦区西仓桥街98号",121.496665240692,31.2260059569143,2022-05-01
"黄浦区","上海市黄浦区西仓桥街99号",121.496714018681,31.2262460470948,2022-05-01
"黄浦区","上海市黄浦区西藏南路1090弄",121.492658798117,31.2169561151676,2022-05-01
"黄浦区","上海市黄浦区西藏南路1225号",121.493741615579,31.215063289745,2022-05-01
"黄浦区","上海市黄浦区西藏南路1341弄",121.494635788883,31.2116118499907,2022-05-01
"黄浦区","上海市黄浦区西藏南路1374弄",121.493515512082,31.2116939256578,2022-05-01
"黄浦区","上海市黄浦区西藏南路1383弄",121.49478679404,31.2111731338686,2022-05-01
"黄浦区","上海市黄浦区西藏南路381号",121.488391757114,31.2281262175465,2022-05-01
"黄浦区","上海市黄浦区西藏南路555弄",121.489053808275,31.2259346245362,2022-05-01
"黄浦区","上海市黄浦区西藏南路688弄",121.489576891574,31.2227312506368,2022-05-01
"黄浦区","上海市黄浦区西藏南路897号",121.492501774314,31.2189146041068,2022-05-01
"黄浦区","上海市黄浦区西凌家宅路111弄",121.493016593202,31.2103186275591,2022-05-01
"黄浦区","上海市黄浦区西凌家宅路27弄",121.493752125753,31.2105657842924,2022-05-01
"黄浦区","上海市黄浦区西凌家宅路34号",121.493978678403,31.210128298671,2022-05-01
"黄浦区","上海市黄浦区西凌家宅路46号",121.493806293576,31.2101111574702,2022-05-01
"黄浦区","上海市黄浦区西姚家弄18号",121.503120104764,31.2282980596133,2022-05-01
"黄浦区","上海市黄浦区先棉祠北弄53号",121.497569475018,31.2233464730686,2022-05-01
"黄浦区","上海市黄浦区先棉祠街65号",121.497395742732,31.2230172072055,2022-05-01
"黄浦区","上海市黄浦区县左街20弄",121.501370385292,31.229773603347,2022-05-01
"黄浦区","上海市黄浦区县左街24弄",121.501377571736,31.2296827431334,2022-05-01
"黄浦区","上海市黄浦区斜土东路158弄",121.495445790962,31.2135645055772,2022-05-01
"黄浦区","上海市黄浦区斜土东路23弄",121.496886942491,31.2144777383494,2022-05-01
"黄浦区","上海市黄浦区斜土东路265弄",121.493419752715,31.2132894839525,2022-05-01
"黄浦区","上海市黄浦区斜土东路68弄",121.497270968097,31.2140800338297,2022-05-01
"黄浦区","上海市黄浦区斜土路108号",121.489092704904,31.2118158422498,2022-05-01
"黄浦区","上海市黄浦区斜土路118弄",121.489370999951,31.2115998822251,2022-05-01
"黄浦区","上海市黄浦区斜土路195弄",121.488632592821,31.2120941882756,2022-05-01
"黄浦区","上海市黄浦区斜土路251弄",121.487102598877,31.2113163615509,2022-05-01
"黄浦区","上海市黄浦区斜土路2号",121.491013821067,31.2123754674827,2022-05-01
"黄浦区","上海市黄浦区斜土路330弄",121.485718399917,31.2101785640661,2022-05-01
"黄浦区","上海市黄浦区斜土路352号",121.485722891444,31.2104135988271,2022-05-01
"黄浦区","上海市黄浦区斜土路460弄",121.483998234695,31.2084093757901,2022-05-01
"黄浦区","上海市黄浦区斜土路486弄",121.483998234695,31.2084093757901,2022-05-01
"黄浦区","上海市黄浦区斜土路520号",121.483011356262,31.209060442198,2022-05-01
"黄浦区","上海市黄浦区斜土路530号",121.482802230739,31.2089081770726,2022-05-01
"黄浦区","上海市黄浦区斜土路540号",121.482678534071,31.2089838463849,2022-05-01
"黄浦区","上海市黄浦区斜土路550弄",121.483031388475,31.2088232420574,2022-05-01
"黄浦区","上海市黄浦区斜土路645号",121.480752207735,31.2089162072882,2022-05-01
"黄浦区","上海市黄浦区斜土路80弄",121.490479149628,31.2107099394492,2022-05-01
"黄浦区","上海市黄浦区斜土路85弄",121.489755025556,31.2122803437828,2022-05-01
"黄浦区","上海市黄浦区斜土支路5号",121.49068333447,31.211769901564,2022-05-01
"黄浦区","上海市黄浦区新昌路288号",121.474818091367,31.2418715821665,2022-05-01
"黄浦区","上海市黄浦区新昌路290号",121.474852316807,31.2419182027543,2022-05-01
"黄浦区","上海市黄浦区新昌路330号",121.474457062382,31.2424308733143,2022-05-01
"黄浦区","上海市黄浦区新闸路126号",121.477764263948,31.2447131571542,2022-05-01
"黄浦区","上海市黄浦区新闸路274号",121.474435997118,31.245219811363,2022-05-01
"黄浦区","上海市黄浦区徐家汇路101号",121.487160000599,31.2157462739953,2022-05-01
"黄浦区","上海市黄浦区徐家汇路135弄",121.484746613016,31.2153483432394,2022-05-01
"黄浦区","上海市黄浦区徐家汇路518号",121.477714318161,31.213510767558,2022-05-01
"黄浦区","上海市黄浦区徐家汇路536弄",121.477049841576,31.2132213847057,2022-05-01
"黄浦区","上海市黄浦区徐家汇路7号",121.487695929666,31.2165669139794,2022-05-01
"黄浦区","上海市黄浦区薛家浜路236号",121.508702624356,31.2165631308217,2022-05-01
"黄浦区","上海市黄浦区薛家浜路242弄",121.508629322626,31.2162139987478,2022-05-01
"黄浦区","上海市黄浦区学前街111弄",121.496114489583,31.2219156056781,2022-05-01
"黄浦区","上海市黄浦区学前街118号",121.496111615006,31.2215682692401,2022-05-01
"黄浦区","上海市黄浦区学前街156号",121.496594723709,31.2205836919761,2022-05-01
"黄浦区","上海市黄浦区学前街56号",121.495477141824,31.2224582632054,2022-05-01
"黄浦区","上海市黄浦区学西街19号",121.493664540966,31.2233881619815,2022-05-01
"黄浦区","上海市黄浦区学院路129号",121.501363468339,31.2290119033111,2022-05-01
"黄浦区","上海市黄浦区学院路228号",121.499588955635,31.2286995635896,2022-05-01
"黄浦区","上海市黄浦区学院路79弄",121.502472695983,31.2290396170423,2022-05-01
"黄浦区","上海市黄浦区巡道街43弄",121.504199778157,31.2257806112616,2022-05-01
"黄浦区","上海市黄浦区巡道街50弄",121.503885550889,31.2257474153848,2022-05-01
"黄浦区","上海市黄浦区巡道街53弄",121.504287812097,31.2257333650333,2022-05-01
"黄浦区","上海市黄浦区巡道街54号",121.504065391652,31.225668980429,2022-05-01
"黄浦区","上海市黄浦区巡道街58号",121.504029818754,31.2255882294117,2022-05-01
"黄浦区","上海市黄浦区巡道街64号",121.504022183157,31.2254886415411,2022-05-01
"黄浦区","上海市黄浦区延安东路1292弄",121.478033306448,31.2317579931103,2022-05-01
"黄浦区","上海市黄浦区延安东路1310弄",121.430256478747,31.2301944772047,2022-05-01
"黄浦区","上海市黄浦区延安东路158弄",121.495577662211,31.2381332918125,2022-05-01
"黄浦区","上海市黄浦区雁荡路18号",121.476397581945,31.226749539679,2022-05-01
"黄浦区","上海市黄浦区雁荡路31号",121.476740554989,31.2264161170333,2022-05-01
"黄浦区","上海市黄浦区雁荡路36号",121.476367848033,31.2263632355831,2022-05-01
"黄浦区","上海市黄浦区永年路140号",121.48540264553,31.2179607269827,2022-05-01
"黄浦区","上海市黄浦区永年路146号",121.485261701395,31.217959337272,2022-05-01
"黄浦区","上海市黄浦区永年路74号",121.486809571619,31.2182165106085,2022-05-01
"黄浦区","上海市黄浦区永年路84号",121.486623891871,31.2183235951847,2022-05-01
"黄浦区","上海市黄浦区永年路98号",121.486423929064,31.2181641649671,2022-05-01
"黄浦区","上海市黄浦区鸳鸯厅弄60号",121.491585592524,31.2372471520636,2022-05-01
"黄浦区","上海市黄浦区肇嘉浜路168弄",121.47033518755,31.2099309430341,2022-05-01
"黄浦区","上海市黄浦区肇周路421弄",121.488446284259,31.217591680858,2022-05-01
"黄浦区","上海市黄浦区浙江中路118弄",121.486697642753,31.2378334100933,2022-05-01
"黄浦区","上海市黄浦区浙江中路128弄",121.486610237627,31.237968878016,2022-05-01
"黄浦区","上海市黄浦区浙江中路137弄",121.48637928328,31.2380436747508,2022-05-01
"黄浦区","上海市黄浦区浙江中路142号",121.486361496831,31.2381222537122,2022-05-01
"黄浦区","上海市黄浦区浙江中路159号",121.486020050907,31.2382680645963,2022-05-01
"黄浦区","上海市黄浦区浙江中路167弄",121.486008642427,31.23837381401,2022-05-01
"黄浦区","上海市黄浦区浙江中路419号",121.484169631387,31.2423411059982,2022-05-01
"黄浦区","上海市黄浦区制造局后街28号",121.489251794809,31.2162017999477,2022-05-01
"黄浦区","上海市黄浦区制造局路208弄",121.490336768204,31.2139303247794,2022-05-01
"黄浦区","上海市黄浦区制造局路370弄",121.490967743528,31.2121753784511,2022-05-01
"黄浦区","上海市黄浦区制造局路455弄",121.491010407506,31.210925129407,2022-05-01
"黄浦区","上海市黄浦区制造局路567弄",121.491828673995,31.2093086060248,2022-05-01
"黄浦区","上海市黄浦区制造局路715号",121.492227611472,31.2067669418305,2022-05-01
"黄浦区","上海市黄浦区制造局路721弄",121.456643574289,31.2405023621885,2022-05-01
"黄浦区","上海市黄浦区制造局路729号",121.492261208098,31.2063831806023,2022-05-01
"黄浦区","上海市黄浦区制造局路833弄",121.493175054294,31.2053293348396,2022-05-01
"黄浦区","上海市黄浦区制造局路859弄",121.493007789808,31.2045940758128,2022-05-01
"黄浦区","上海市黄浦区中华路1022号",121.497282107085,31.2202435305927,2022-05-01
"黄浦区","上海市黄浦区中华路1141弄",121.495266399351,31.2208021790035,2022-05-01
"黄浦区","上海市黄浦区中华路1299弄",121.497128807935,31.2185663181058,2022-05-01
"黄浦区","上海市黄浦区中华路211弄",121.505009420913,31.2273103108126,2022-05-01
"黄浦区","上海市黄浦区中华路333号",121.505256275267,31.2255354246935,2022-05-01
"黄浦区","上海市黄浦区中华路989号",121.497596514014,31.2203453629658,2022-05-01
"黄浦区","上海市黄浦区中华路999号",121.497145654478,31.2205095761196,2022-05-01
"黄浦区","上海市黄浦区中山南路1586弄",121.501523995534,31.2111320572099,2022-05-01
"黄浦区","上海市黄浦区中山南路1711弄",121.500289544102,31.2096550613938,2022-05-01
"黄浦区","上海市黄浦区中山南路1726号",121.499991755826,31.2101176433303,2022-05-01
"黄浦区","上海市黄浦区中山南路1726弄",121.49944953862,31.2099897019351,2022-05-01
"黄浦区","上海市黄浦区中山南路200弄",121.507902413808,31.2283238436158,2022-05-01
"黄浦区","上海市黄浦区中山南路36号",121.506283038465,31.2296211403215,2022-05-01
"黄浦区","上海市黄浦区中山南一路1022号",121.478868910233,31.2013247209055,2022-05-01
"黄浦区","上海市黄浦区中山南一路1065号",121.479004105213,31.201882323908,2022-05-01
"黄浦区","上海市黄浦区中山南一路246弄",121.493951010593,31.2056968849722,2022-05-01
"黄浦区","上海市黄浦区中山南一路247弄",121.492960718599,31.2063049610685,2022-05-01
"黄浦区","上海市黄浦区中山南一路252号",121.493591149406,31.2060665184933,2022-05-01
"黄浦区","上海市黄浦区中山南一路254号",121.493356332346,31.205938262699,2022-05-01
"黄浦区","上海市黄浦区中山南一路256弄",121.493082259335,31.2058115510524,2022-05-01
"黄浦区","上海市黄浦区中山南一路290号",121.493025216935,31.2058813544426,2022-05-01
"黄浦区","上海市黄浦区中山南一路500弄",121.492106430059,31.205224783551,2022-05-01
"黄浦区","上海市黄浦区庄家街100弄",121.495154130027,31.2259040909421,2022-05-01
"黄浦区","上海市黄浦区庄家街34号",121.494785446581,31.226400291201,2022-05-01
"黄浦区","上海市黄浦区庄家街35号",121.495108297582,31.226386781342,2022-05-01
"黄浦区","上海市黄浦区庄家街49号",121.495230556962,31.2261723989185,2022-05-01
"黄浦区","上海市黄浦区庄家街58号",121.494978222944,31.2261391259812,2022-05-01
"黄浦区","上海市黄浦区庄家街64号",121.495055926371,31.2259222726037,2022-05-01
"黄浦区","上海市黄浦区庄家街79弄",121.50150872434,31.2233857687296,2022-05-01
"黄浦区","上海市黄浦区紫霞路119号",121.509925577477,31.2249443031758,2022-05-01
"静安区","上海市静安区安远路389弄",121.447898031166,31.2448525514944,2022-05-01
"静安区","上海市静安区安远路515弄",121.446483918632,31.2438676789462,2022-05-01
"静安区","上海市静安区宝昌路610弄",121.478543094825,31.2668629035372,2022-05-01
"静安区","上海市静安区保德路1316弄",121.448663477291,31.3201670078394,2022-05-01
"静安区","上海市静安区保德路525弄",121.46445137629,31.3227480051444,2022-05-01
"静安区","上海市静安区北宝兴路42弄",121.472788280236,31.2772799358607,2022-05-01
"静安区","上海市静安区北京西路1065号",121.461476188441,31.2363051948318,2022-05-01
"静安区","上海市静安区昌化路435弄",121.476988487309,31.2693536277036,2022-05-01
"静安区","上海市静安区昌化路449号",121.456590574264,31.2451123523515,2022-05-01
"静安区","上海市静安区昌化路453弄",121.456616625124,31.2451581223029,2022-05-01
"静安区","上海市静安区昌化路60号",121.461465723182,31.2409881793846,2022-05-01
"静安区","上海市静安区昌平路317号",121.455656426364,31.2430896531735,2022-05-01
"静安区","上海市静安区昌平路418弄",121.460704544008,31.2135391035576,2022-05-01
"静安区","上海市静安区昌平路421弄",121.454136134119,31.2418984430378,2022-05-01
"静安区","上海市静安区昌平路935号",121.444992012841,31.2392937516765,2022-05-01
"静安区","上海市静安区昌平路999弄",121.443925364879,31.2386810269573,2022-05-01
"静安区","上海市静安区常德路617弄",121.451314646343,31.2375653296885,2022-05-01
"静安区","上海市静安区常德路633弄",121.450978230929,31.2376848196961,2022-05-01
"静安区","上海市静安区场中路1500号",121.463274955394,31.3102347421604,2022-05-01
"静安区","上海市静安区长乐路516弄",121.463508065674,31.2263957364487,2022-05-01
"静安区","上海市静安区长乐路638弄",121.460752603353,31.2252078649354,2022-05-01
"静安区","上海市静安区长乐路672弄",121.459949787718,31.2248299693287,2022-05-01
"静安区","上海市静安区长乐路698弄",121.458999021167,31.2242728889774,2022-05-01
"静安区","上海市静安区长宁路155弄",121.435531149041,31.2323679841828,2022-05-01
"静安区","上海市静安区大统路1033弄",121.466110007584,31.2627958692347,2022-05-01
"静安区","上海市静安区大统路107弄",121.471659469533,31.2491013549185,2022-05-01
"静安区","上海市静安区大统路933弄",121.466221397467,31.2615230326281,2022-05-01
"静安区","上海市静安区大统路988号",121.465722298925,31.2618301695185,2022-05-01
"静安区","上海市静安区东宝兴路458弄",121.485668993113,31.265014533089,2022-05-01
"静安区","上海市静安区东宝兴路490号",121.485344165841,31.2654029153855,2022-05-01
"静安区","上海市静安区汾西路400弄",121.464971944333,31.3233030332376,2022-05-01
"静安区","上海市静安区高平路811号",121.433946088968,31.2975763963068,2022-05-01
"静安区","上海市静安区共和新路1207号",121.468106671241,31.2687055272643,2022-05-01
"静安区","上海市静安区共和新路1304弄",121.465836653217,31.2700540402802,2022-05-01
"静安区","上海市静安区共和新路1700弄",121.462315026126,31.274841119709,2022-05-01
"静安区","上海市静安区共和新路318弄",121.468953144523,31.2545115483017,2022-05-01
"静安区","上海市静安区共和新路619弄",121.471503433865,31.2604662579375,2022-05-01
"静安区","上海市静安区共和新路688弄",121.469175654797,31.2605111714909,2022-05-01
"静安区","上海市静安区共和新路708弄",121.469623819416,31.2614049621479,2022-05-01
"静安区","上海市静安区共和新路710弄",121.468637300305,31.2615052834805,2022-05-01
"静安区","上海市静安区共和新路730弄",121.46838703239,31.2616626334152,2022-05-01
"静安区","上海市静安区共和新路736弄",121.46920377176,31.262594071693,2022-05-01
"静安区","上海市静安区共和新路802弄",121.469784975425,31.2630487521927,2022-05-01
"静安区","上海市静安区共和新路899弄",121.455802041687,31.316900845253,2022-05-01
"静安区","上海市静安区共和新路950号",121.46878318512,31.2652307556595,2022-05-01
"静安区","上海市静安区共和新路966号",121.468580078244,31.2652664840375,2022-05-01
"静安区","上海市静安区广延路49弄",121.463702728478,31.2791981209434,2022-05-01
"静安区","上海市静安区广中西路1099号",121.440914693962,31.2808738483953,2022-05-01
"静安区","上海市静安区广中西路288号",121.453730998334,31.2845657589525,2022-05-01
"静安区","上海市静安区广中西路99弄",121.455460685593,31.2881044615463,2022-05-01
"静安区","上海市静安区海防路100弄",121.456160375755,31.2473811411033,2022-05-01
"静安区","上海市静安区海防路391弄",121.452406806182,31.2436590482655,2022-05-01
"静安区","上海市静安区海防路403弄",121.452235948474,31.2441513325657,2022-05-01
"静安区","上海市静安区海宁路1399号",121.475086415223,31.2500566897152,2022-05-01
"静安区","上海市静安区汉中路18号",121.466608387481,31.2497506718354,2022-05-01
"静安区","上海市静安区和田路451弄",121.458169885181,31.2772186730355,2022-05-01
"静安区","上海市静安区恒丰北路100号",121.458020137652,31.2616913406822,2022-05-01
"静安区","上海市静安区恒丰北路108弄",121.457175101659,31.26142973381,2022-05-01
"静安区","上海市静安区沪太路1170弄",121.433927224553,31.2833302520144,2022-05-01
"静安区","上海市静安区沪太路453弄",121.463284567263,31.2634062752071,2022-05-01
"静安区","上海市静安区沪太路631弄",121.456626326823,31.2673061427831,2022-05-01
"静安区","上海市静安区沪太路651弄",121.455284797375,31.2674438057978,2022-05-01
"静安区","上海市静安区沪太路883弄",121.442703399893,31.2764844418933,2022-05-01
"静安区","上海市静安区黄山路280弄",121.474549498019,31.272077159114,2022-05-01
"静安区","上海市静安区江场路1428号",121.459302019615,31.304622906929,2022-05-01
"静安区","上海市静安区江场西路299弄",121.447922015923,31.3021208587737,2022-05-01
"静安区","上海市静安区江宁路301号",121.45969251302,31.2393226201899,2022-05-01
"静安区","上海市静安区江杨南路466弄",121.474431550506,31.3227213988794,2022-05-01
"静安区","上海市静安区胶州路565弄",121.447087130782,31.2392638025142,2022-05-01
"静安区","上海市静安区晋元路88弄",121.476462978586,31.2469950765655,2022-05-01
"静安区","上海市静安区京江路176号",121.471205555758,31.2543751782295,2022-05-01
"静安区","上海市静安区京江路194号",121.470801587771,31.2544675579776,2022-05-01
"静安区","上海市静安区京江路195号",121.470748138593,31.2547844422008,2022-05-01
"静安区","上海市静安区京江路207号",121.470703941962,31.2547756441633,2022-05-01
"静安区","上海市静安区景凤路280弄",121.46873746137,31.3266084551578,2022-05-01
"静安区","上海市静安区康定路281号",121.457336976312,31.2413588313538,2022-05-01
"静安区","上海市静安区康定路307弄",121.43767427642,31.2353691347162,2022-05-01
"静安区","上海市静安区康定路418弄",121.454561302117,31.2416075270411,2022-05-01
"静安区","上海市静安区康定路848弄",121.446996222264,31.2377864787102,2022-05-01
"静安区","上海市静安区康定路859号",121.447271732564,31.2372908417288,2022-05-01
"静安区","上海市静安区康定路861号",121.447219990167,31.2373568393292,2022-05-01
"静安区","上海市静安区康定路863弄",121.447164654548,31.2373183214371,2022-05-01
"静安区","上海市静安区康定路888弄",121.446550572901,31.2373840874478,2022-05-01
"静安区","上海市静安区老沪太路1291弄",121.447781431111,31.2756099308133,2022-05-01
"静安区","上海市静安区老沪太路135号",121.462721150047,31.2745094117194,2022-05-01
"静安区","上海市静安区老沪太路199弄",121.460297611612,31.2747340998374,2022-05-01
"静安区","上海市静安区老沪太路255弄",121.458134222452,31.2736461475354,2022-05-01
"静安区","上海市静安区临汾路1513弄",121.445769047107,31.3167769062049,2022-05-01
"静安区","上海市静安区临汾路299弄",121.468261089958,31.3158047463518,2022-05-01
"静安区","上海市静安区临汾路894弄",121.456228287652,31.3171978509763,2022-05-01
"静安区","上海市静安区临汾路971弄",121.45414439853,31.3168023572985,2022-05-01
"静安区","上海市静安区临山路203弄",121.479793715756,31.261272923676,2022-05-01
"静安区","上海市静安区临山路20号",121.482783276493,31.261997859661,2022-05-01
"静安区","上海市静安区灵石路1123弄",121.43409628565,31.2800337123583,2022-05-01
"静安区","上海市静安区岭南路100弄",121.462500616045,31.313743548841,2022-05-01
"静安区","上海市静安区柳营路309弄",121.470841113213,31.2743156640793,2022-05-01
"静安区","上海市静安区柳营路319弄",121.469876782248,31.273721070047,2022-05-01
"静安区","上海市静安区陆丰路146号",121.48069103313,31.2631956817387,2022-05-01
"静安区","上海市静安区洛川中路1100弄",121.456053477399,31.2707076099104,2022-05-01
"静安区","上海市静安区茂名北路141弄",121.462588739815,31.2323926863444,2022-05-01
"静安区","上海市静安区民德路58号",121.477951021663,31.2558628901027,2022-05-01
"静安区","上海市静安区民立路130号",121.46242973974,31.2514104884491,2022-05-01
"静安区","上海市静安区南汇路10弄",121.464172182937,31.2356614967304,2022-05-01
"静安区","上海市静安区南京西路1025弄",121.464349957598,31.233589884228,2022-05-01
"静安区","上海市静安区南京西路1081弄",121.463353916448,31.2344146905436,2022-05-01
"静安区","上海市静安区南京西路1522弄",121.45194193308,31.2315979682183,2022-05-01
"静安区","上海市静安区南山路151弄",121.470529131709,31.2632772491442,2022-05-01
"静安区","上海市静安区南山路38号",121.473241475366,31.2628059012235,2022-05-01
"静安区","上海市静安区南山路50号",121.472836788734,31.262692385349,2022-05-01
"静安区","上海市静安区南山路71弄",121.472567925895,31.2628968835957,2022-05-01
"静安区","上海市静安区南苏州路1539弄",121.466373750081,31.2448289331989,2022-05-01
"静安区","上海市静安区南苏州路1593弄",121.465571024278,31.2444361430894,2022-05-01
"静安区","上海市静安区平陆路397号",121.452393780752,31.2927311583586,2022-05-01
"静安区","上海市静安区平顺路180弄",121.459391221352,31.3190394812892,2022-05-01
"静安区","上海市静安区平顺路600号",121.458913861804,31.3217247767057,2022-05-01
"静安区","上海市静安区平顺路790弄",121.459392299319,31.3237597316582,2022-05-01
"静安区","上海市静安区平型关路2199号",121.467978752536,31.3070587082599,2022-05-01
"静安区","上海市静安区平型关路265弄",121.472734421377,31.2765016111474,2022-05-01
"静安区","上海市静安区平型关路300弄",121.47035315366,31.2768807237311,2022-05-01
"静安区","上海市静安区平型关路305弄",121.471647342408,31.2763879945405,2022-05-01
"静安区","上海市静安区平型关路377弄",121.469338068434,31.2785705351804,2022-05-01
"静安区","上海市静安区普善路1029弄",121.457004872765,31.2748514590413,2022-05-01
"静安区","上海市静安区普善路28号",121.464607232296,31.2605260654995,2022-05-01
"静安区","上海市静安区普善路661号",121.459559204483,31.2690579358118,2022-05-01
"静安区","上海市静安区普善路铁路新村15号",121.458997673708,31.262280146391,2022-05-01
"静安区","上海市静安区普善路铁路新村3号",121.459744524909,31.2627410791231,2022-05-01
"静安区","上海市静安区青云路350弄",121.479605790243,31.2695631270032,2022-05-01
"静安区","上海市静安区青云路439弄",121.477672996108,31.268397872821,2022-05-01
"静安区","上海市静安区青云路483弄",121.476371620916,31.2687305284838,2022-05-01
"静安区","上海市静安区青云路503弄",121.476128898767,31.2682512601139,2022-05-01
"静安区","上海市静安区青云路604号",121.475328598388,31.2676945927192,2022-05-01
"静安区","上海市静安区青云路608号",121.475230144104,31.2676564731505,2022-05-01
"静安区","上海市静安区青云路650弄",121.473574028066,31.2671281219807,2022-05-01
"静安区","上海市静安区青云路753号",121.471702378592,31.2666879428058,2022-05-01
"静安区","上海市静安区虬江路1150弄",121.477866311454,31.25448708351,2022-05-01
"静安区","上海市静安区虬江路1455弄",121.471544306766,31.2565574613825,2022-05-01
"静安区","上海市静安区虬江路1488弄",121.471377311772,31.2558347212696,2022-05-01
"静安区","上海市静安区曲沃路79弄",121.451471131162,31.313351279863,2022-05-01
"静安区","上海市静安区三泉路631弄",121.447241908821,31.31878991201,2022-05-01
"静安区","上海市静安区三泉路717弄",121.446224577831,31.3198084682145,2022-05-01
"静安区","上海市静安区三泉路900弄",121.447248825774,31.3236159821771,2022-05-01
"静安区","上海市静安区山西北路222弄",121.487524263483,31.2498269255647,2022-05-01
"静安区","上海市静安区山西北路388弄",121.486922039469,31.2522479491359,2022-05-01
"静安区","上海市静安区陕西北路1155弄",121.4509555038,31.2462318959159,2022-05-01
"静安区","上海市静安区陕西北路159弄",121.461836678442,31.232603966754,2022-05-01
"静安区","上海市静安区陕西北路430号",121.459583997715,31.2364823480469,2022-05-01
"静安区","上海市静安区陕西北路470弄",121.460319170944,31.2372568780333,2022-05-01
"静安区","上海市静安区陕西北路513号",121.458845949908,31.2376671432123,2022-05-01
"静安区","上海市静安区陕西北路525弄",121.458618948105,31.2377535958521,2022-05-01
"静安区","上海市静安区陕西北路835弄",121.454580885177,31.2418672597267,2022-05-01
"静安区","上海市静安区少年村路531号",121.436043362842,31.3073386990806,2022-05-01
"静安区","上海市静安区升平街41弄",121.467690037145,31.2324648629355,2022-05-01
"静安区","上海市静安区顺德路58号",121.466271972067,31.2443828859029,2022-05-01
"静安区","上海市静安区谈家桥路163弄",121.456271855469,31.2669146046022,2022-05-01
"静安区","上海市静安区谈家桥路85弄",121.459246234843,31.2665920512221,2022-05-01
"静安区","上海市静安区天目西路285号",121.460884025449,31.25271487401,2022-05-01
"静安区","上海市静安区天目中路260号",121.475796974881,31.2514356486528,2022-05-01
"静安区","上海市静安区天目中路538弄",121.458733122736,31.2789379518962,2022-05-01
"静安区","上海市静安区通阁路181号",121.477066550058,31.2659264919843,2022-05-01
"静安区","上海市静安区万航渡路623弄",121.440392958122,31.2327279403492,2022-05-01
"静安区","上海市静安区闻喜路590号",121.463023070529,31.3147160386864,2022-05-01
"静安区","上海市静安区闻喜路605号",121.462495585534,31.3145012418574,2022-05-01
"静安区","上海市静安区闻喜路985号",121.453230462504,31.314143220334,2022-05-01
"静安区","上海市静安区武定路100号",121.464159067677,31.2424873734209,2022-05-01
"静安区","上海市静安区武定路530号",121.456642496322,31.2399535570773,2022-05-01
"静安区","上海市静安区武定路657弄",121.454946675181,31.2386145671565,2022-05-01
"静安区","上海市静安区武定西路1189号",121.442094977571,31.2326908872371,2022-05-01
"静安区","上海市静安区武宁南路195弄",121.440491142914,31.2354666650611,2022-05-01
"静安区","上海市静安区武宁南路438弄",121.438487921627,31.2389311191642,2022-05-01
"静安区","上海市静安区西宝兴路922弄",121.474453738652,31.275670037316,2022-05-01
"静安区","上海市静安区西藏北路1009号",121.473537556862,31.2660322872826,2022-05-01
"静安区","上海市静安区西藏北路970弄",121.473947004514,31.2657388998806,2022-05-01
"静安区","上海市静安区西藏北路991号",121.473604211131,31.2657647507276,2022-05-01
"静安区","上海市静安区西康路904号",121.449772435443,31.2452375443071,2022-05-01
"静安区","上海市静安区西苏州路85弄",121.457767983296,31.2480783223847,2022-05-01
"静安区","上海市静安区新丰路385号",121.450050820321,31.2447285939684,2022-05-01
"静安区","上海市静安区新闸路1335弄",121.457366620394,31.2377003348603,2022-05-01
"静安区","上海市静安区延安中路504弄",121.471168994724,31.230550890728,2022-05-01
"静安区","上海市静安区延安中路540弄",121.470162173909,31.2306991836741,2022-05-01
"静安区","上海市静安区延平路230弄",121.44664166108,31.2368471513888,2022-05-01
"静安区","上海市静安区延平路250号",121.445913314972,31.2372267738382,2022-05-01
"静安区","上海市静安区延平路518弄",121.443116261106,31.2417365058289,2022-05-01
"静安区","上海市静安区阳城路280弄",121.43407185174,31.2907746782822,2022-05-01
"静安区","上海市静安区宜川路725号",121.444251988762,31.2761678627294,2022-05-01
"静安区","上海市静安区永兴路258弄",121.479762005571,31.2591358963515,2022-05-01
"静安区","上海市静安区永兴路310号",121.478175598041,31.2585455273793,2022-05-01
"静安区","上海市静安区永兴路973弄",121.466076051635,31.2578379285958,2022-05-01
"静安区","上海市静安区永兴小马路18号",121.47073457418,31.2564572890875,2022-05-01
"静安区","上海市静安区永兴小马路20号",121.470755504698,31.2564440922672,2022-05-01
"静安区","上海市静安区余姚路321弄",121.444438566816,31.2410680680527,2022-05-01
"静安区","上海市静安区余姚路487弄",121.442623360872,31.2386428955558,2022-05-01
"静安区","上海市静安区育婴堂路38弄",121.473188026188,31.2540109063199,2022-05-01
"静安区","上海市静安区原平路128号",121.439017742217,31.2883463981173,2022-05-01
"静安区","上海市静安区粤秀路318弄",121.46632137887,31.2944323315499,2022-05-01
"静安区","上海市静安区运城路623号",121.440089330859,31.2816883619011,2022-05-01
"静安区","上海市静安区止园路320弄",121.46965534994,31.2763943986478,2022-05-01
"静安区","上海市静安区止园路400弄",121.474177150385,31.2665367231739,2022-05-01
"静安区","上海市静安区止园路406弄",121.474943045663,31.2663673435203,2022-05-01
"静安区","上海市静安区芷江西路220弄",121.468844180064,31.2632441437441,2022-05-01
"静安区","上海市静安区芷江西路230号",121.468637839289,31.2636664103459,2022-05-01
"静安区","上海市静安区芷江西路234号",121.468330349313,31.2636251252269,2022-05-01
"静安区","上海市静安区芷江西路239弄",121.469162180215,31.2639864272762,2022-05-01
"静安区","上海市静安区芷江西路285弄",121.46675184687,31.2636787572939,2022-05-01
"静安区","上海市静安区芷江西路393弄",121.464417689833,31.2643917136024,2022-05-01
"静安区","上海市静安区芷江中路413弄",121.476515439628,31.2656527046166,2022-05-01
"静安区","上海市静安区芷江中路459弄",121.476189264897,31.2652190262538,2022-05-01
"静安区","上海市静安区芷江中路493弄",121.475481759478,31.265302366736,2022-05-01
"静安区","上海市静安区芷江中路497号",121.475458134043,31.2648270163219,2022-05-01
"静安区","上海市静安区芷江中路531弄",121.474920498195,31.2645193491074,2022-05-01
"静安区","上海市静安区芷江中路660弄",121.475069886401,31.2641234778376,2022-05-01
"静安区","上海市静安区芷江中路666弄",121.50777395612,31.2646654274973,2022-05-01
"静安区","上海市静安区芷江中路680号",121.474511409866,31.2639051691626,2022-05-01
"静安区","上海市静安区中华新路455弄",121.4744274183,31.2614964089054,2022-05-01
"静安区","上海市静安区中华新路469号",121.472778488706,31.2601780235376,2022-05-01
"静安区","上海市静安区中华新路487号",121.47132314395,31.2599306891604,2022-05-01
"静安区","上海市静安区中华新路489号",121.471178426932,31.2599163352576,2022-05-01
"静安区","上海市静安区中华新路718号",121.4666099146,31.2597568215762,2022-05-01
"静安区","上海市静安区中华新路730弄",121.466466634871,31.2596556494775,2022-05-01
"静安区","上海市静安区中华新路793弄",121.464296059267,31.2602477863762,2022-05-01
"静安区","上海市静安区中华新路815弄",121.481323080887,31.2653461976264,2022-05-01
"静安区","上海市静安区中华新路870号",121.462970609487,31.26010617702,2022-05-01
"静安区","上海市静安区中华新路893弄",121.46198462936,31.2612283963409,2022-05-01
"静安区","上海市静安区中华新路950弄",121.462162224359,31.2602891501585,2022-05-01
"静安区","上海市静安区中山北路188弄",121.507601750953,31.2598748941387,2022-05-01
"静安区","上海市静安区中山北路570弄",121.471554188127,31.2673255113025,2022-05-01
"静安区","上海市静安区中山北路758弄",121.466237297474,31.2661851539463,2022-05-01
"静安区","上海市静安区中山北路805弄",121.464330194877,31.2677061674839,2022-05-01
"静安区","上海市静安区中山北路814弄",121.464484433933,31.2658025624015,2022-05-01
"静安区","上海市静安区中兴路1231弄",121.469337093551,31.2591958742905,2022-05-01
"静安区","上海市静安区中兴路1279弄",121.468457908695,31.2589530752997,2022-05-01
"静安区","上海市静安区中兴路1321弄",121.468296123873,31.2585743899491,2022-05-01
"静安区","上海市静安区中兴路1340弄",121.46757667099,31.2582863812331,2022-05-01
"静安区","上海市静安区中兴路1377弄",121.467328109855,31.2590294758672,2022-05-01
"静安区","上海市静安区中兴路1385弄",121.467360628515,31.2589000578996,2022-05-01
"徐汇区","上海市徐汇区安福路53弄",121.453542623668,31.2209097238441,2022-05-01
"徐汇区","上海市徐汇区漕溪三村",121.444011063224,31.1760910446685,2022-05-01
"徐汇区","上海市徐汇区漕溪四村",121.446825274726,31.1784801451306,2022-05-01
"徐汇区","上海市徐汇区茶陵路159弄",121.474245960587,31.2023908895464,2022-05-01
"徐汇区","上海市徐汇区长桥四村",121.446028028586,31.1399378439366,2022-05-01
"徐汇区","上海市徐汇区大木桥路158弄",121.467797923637,31.2051192283281,2022-05-01
"徐汇区","上海市徐汇区东安二村",121.45997781485,31.1928310771145,2022-05-01
"徐汇区","上海市徐汇区东安路149弄",121.458208152996,31.2022213937134,2022-05-01
"徐汇区","上海市徐汇区东安路230弄",121.459038007626,31.1992838547995,2022-05-01
"徐汇区","上海市徐汇区东安路240弄",121.458288731,31.1979819676469,2022-05-01
"徐汇区","上海市徐汇区东安路452号",121.462020741241,31.1948755589216,2022-05-01
"徐汇区","上海市徐汇区东安四村",121.456663067518,31.1926611778501,2022-05-01
"徐汇区","上海市徐汇区东安一村",121.463765520033,31.1953510331687,2022-05-01
"徐汇区","上海市徐汇区东泉路104弄",121.451995921241,31.1611801717318,2022-05-01
"徐汇区","上海市徐汇区东泉路105弄",121.450730657931,31.1621501546563,2022-05-01
"徐汇区","上海市徐汇区东泉路51弄",121.450889927497,31.1620085513709,2022-05-01
"徐汇区","上海市徐汇区番禺路1160弄",121.43238124077,31.1983297776946,2022-05-01
"徐汇区","上海市徐汇区丰谷路220弄",121.459726379138,31.1743844739643,2022-05-01
"徐汇区","上海市徐汇区复兴中路1196弄",121.466289039872,31.219698698493,2022-05-01
"徐汇区","上海市徐汇区复兴中路1218弄",121.465884173578,31.2194577422622,2022-05-01
"徐汇区","上海市徐汇区复兴中路1230号",121.465538325957,31.2193315893455,2022-05-01
"徐汇区","上海市徐汇区复兴中路1294弄",121.462652968659,31.2189048762306,2022-05-01
"徐汇区","上海市徐汇区广元西路629号",121.437446246557,31.200575453536,2022-05-01
"徐汇区","上海市徐汇区广元西路881号",121.437937611781,31.2013667373737,2022-05-01
"徐汇区","上海市徐汇区桂林东街218弄",121.427859530155,31.1629831608182,2022-05-01
"徐汇区","上海市徐汇区桂林东街28弄",121.430221714324,31.1616973787523,2022-05-01
"徐汇区","上海市徐汇区桂林路303弄",121.424907518588,31.1752011507849,2022-05-01
"徐汇区","上海市徐汇区桂林路575弄",121.42160804245,31.1848929000286,2022-05-01
"徐汇区","上海市徐汇区桂林西街111弄",121.425720035922,31.1569824619793,2022-05-01
"徐汇区","上海市徐汇区桂林西街15弄",121.4224232547,31.1617198592318,2022-05-01
"徐汇区","上海市徐汇区桂林西街30弄",121.423684385806,31.161511895278,2022-05-01
"徐汇区","上海市徐汇区桂平路123弄",121.417268238701,31.157433947284,2022-05-01
"徐汇区","上海市徐汇区桂平路258弄",121.414757744292,31.1640397230495,2022-05-01
"徐汇区","上海市徐汇区桂平路350弄",121.413579257293,31.166860408583,2022-05-01
"徐汇区","上海市徐汇区虹桥路693弄",121.431831298137,31.2018613974462,2022-05-01
"徐汇区","上海市徐汇区虹桥路772弄",121.431106635082,31.2009297404512,2022-05-01
"徐汇区","上海市徐汇区华发路180弄",121.458213542829,31.1335297432581,2022-05-01
"徐汇区","上海市徐汇区机场新村",121.458088049549,31.1737422039756,2022-05-01
"徐汇区","上海市徐汇区江南二村",121.468645025733,31.1983538710604,2022-05-01
"徐汇区","上海市徐汇区凯旋一村",121.431102233385,31.1995708096388,2022-05-01
"徐汇区","上海市徐汇区康健路100弄",121.434161322968,31.1710799228616,2022-05-01
"徐汇区","上海市徐汇区老沪闵路841弄",121.439600473001,31.1407893601906,2022-05-01
"徐汇区","上海市徐汇区乐山路12弄",121.438499060615,31.2030565148617,2022-05-01
"徐汇区","上海市徐汇区乐山新村",121.435647299943,31.2044509150663,2022-05-01
"徐汇区","上海市徐汇区零陵路289弄",121.465095191849,31.1987138808072,2022-05-01
"徐汇区","上海市徐汇区零陵路357号",121.462082634491,31.1975887492262,2022-05-01
"徐汇区","上海市徐汇区零陵路639号",121.452161838269,31.1937486822708,2022-05-01
"徐汇区","上海市徐汇区零陵路648号",121.451716727889,31.193136277201,2022-05-01
"徐汇区","上海市徐汇区零陵路677弄",121.450807373221,31.1934421713308,2022-05-01
"徐汇区","上海市徐汇区柳州路460号",121.429827178544,31.178442066447,2022-05-01
"徐汇区","上海市徐汇区龙漕路58弄",121.442918813555,31.1740632236563,2022-05-01
"徐汇区","上海市徐汇区龙华路2373弄",121.458604036234,31.1881678483267,2022-05-01
"徐汇区","上海市徐汇区龙华路2381弄",121.457359344119,31.1876758101734,2022-05-01
"徐汇区","上海市徐汇区龙华西路31弄",121.457319100032,31.1746273227092,2022-05-01
"徐汇区","上海市徐汇区龙华西路40号",121.459201139906,31.1778433099411,2022-05-01
"徐汇区","上海市徐汇区龙华西路81弄",121.457099733827,31.1761814161989,2022-05-01
"徐汇区","上海市徐汇区龙南六村",121.459373884056,31.1623585034551,2022-05-01
"徐汇区","上海市徐汇区龙南七村",121.459623163835,31.1645714373345,2022-05-01
"徐汇区","上海市徐汇区龙南三村",121.462678031383,31.1624058589018,2022-05-01
"徐汇区","上海市徐汇区龙山新村",121.452206484053,31.1906486976297,2022-05-01
"徐汇区","上海市徐汇区龙吴路11弄",121.450063216937,31.1802756186035,2022-05-01
"徐汇区","上海市徐汇区龙吴路1323弄",121.456191996109,31.1473358868488,2022-05-01
"徐汇区","上海市徐汇区龙吴路2888弄",121.461576798658,31.1154641931161,2022-05-01
"徐汇区","上海市徐汇区龙吴路2889号",121.460267698038,31.1081073896777,2022-05-01
"徐汇区","上海市徐汇区龙吴路9弄",121.443396352764,31.1945567728227,2022-05-01
"徐汇区","上海市徐汇区罗秀路1175弄",121.428828981461,31.1354273834691,2022-05-01
"徐汇区","上海市徐汇区梅陇十一村",121.433632041362,31.1387218313397,2022-05-01
"徐汇区","上海市徐汇区南丹东路99弄",121.451003742806,31.1972406275345,2022-05-01
"徐汇区","上海市徐汇区浦北路948弄",121.420650538607,31.1595965503106,2022-05-01
"徐汇区","上海市徐汇区浦北路959弄",121.42047824361,31.1579268394382,2022-05-01
"徐汇区","上海市徐汇区钦州路900号",121.432063150789,31.1847335673685,2022-05-01
"徐汇区","上海市徐汇区日晖六村",121.466221038145,31.2012329836581,2022-05-01
"徐汇区","上海市徐汇区日晖七村",121.466176122869,31.2037039892407,2022-05-01
"徐汇区","上海市徐汇区双峰路300号",121.455056627775,31.1881075311218,2022-05-01
"徐汇区","上海市徐汇区天平路310弄",121.446064679451,31.2029707251359,2022-05-01
"徐汇区","上海市徐汇区天钥桥路905号",121.451482539642,31.1859970223533,2022-05-01
"徐汇区","上海市徐汇区天钥桥路968弄",121.449490098021,31.1845598689735,2022-05-01
"徐汇区","上海市徐汇区天钥新村",121.452930158972,31.1920618943491,2022-05-01
"徐汇区","上海市徐汇区田林东路414弄",121.432183254236,31.1800417440273,2022-05-01
"徐汇区","上海市徐汇区田林二村",121.426561838015,31.1763800015378,2022-05-01
"徐汇区","上海市徐汇区田林十一村",121.431996137198,31.1784792182662,2022-05-01
"徐汇区","上海市徐汇区田林一村",121.42511817123,31.175784475982,2022-05-01
"徐汇区","上海市徐汇区宛南二村",121.455704306048,31.189398279942,2022-05-01
"徐汇区","上海市徐汇区宛南四村",121.456061202827,31.1884676574684,2022-05-01
"徐汇区","上海市徐汇区宛南五村",121.454704761507,31.1876258416275,2022-05-01
"徐汇区","上海市徐汇区宛南一村",121.457053291432,31.1903627194398,2022-05-01
"徐汇区","上海市徐汇区宛平南路485弄",121.45513406171,31.1959653543703,2022-05-01
"徐汇区","上海市徐汇区宛平南路921弄",121.458703837976,31.1900820691877,2022-05-01
"徐汇区","上海市徐汇区宛平南路968弄",121.458578793849,31.1893078439228,2022-05-01
"徐汇区","上海市徐汇区乌鲁木齐中路180号",121.451945795794,31.2197962852039,2022-05-01
"徐汇区","上海市徐汇区吴中东路500弄",121.428787479747,31.1968650129717,2022-05-01
"徐汇区","上海市徐汇区五原路212弄",121.4517658652,31.2189870999149,2022-05-01
"徐汇区","上海市徐汇区武康路73弄",121.447135100296,31.2186988920731,2022-05-01
"徐汇区","上海市徐汇区襄阳南路166弄",121.462888684025,31.2195145650627,2022-05-01
"徐汇区","上海市徐汇区襄阳南路257号",121.46425240162,31.2168337420266,2022-05-01
"徐汇区","上海市徐汇区小木桥路360弄",121.466127973694,31.2007678867869,2022-05-01
"徐汇区","上海市徐汇区小木桥路440弄",121.464877173102,31.2006399326188,2022-05-01
"徐汇区","上海市徐汇区小木桥路518弄",121.467370869197,31.1982676909158,2022-05-01
"徐汇区","上海市徐汇区斜土路1590号",121.465778982003,31.2031968978798,2022-05-01
"徐汇区","上海市徐汇区斜土路1622弄",121.464361455908,31.2021918960018,2022-05-01
"徐汇区","上海市徐汇区斜土路2200弄",121.457232593212,31.1974553078788,2022-05-01
"徐汇区","上海市徐汇区斜土路2590弄",121.450717722331,31.1934407812562,2022-05-01
"徐汇区","上海市徐汇区新乐路100弄",121.461426601977,31.2241252806568,2022-05-01
"徐汇区","上海市徐汇区徐虹北路5弄",121.443396352764,31.1945567728227,2022-05-01
"徐汇区","上海市徐汇区延庆路68弄",121.457926983371,31.2223532678274,2022-05-01
"徐汇区","上海市徐汇区医学院路15号",121.466066260105,31.2068294862679,2022-05-01
"徐汇区","上海市徐汇区宜山路50弄",121.436694993659,31.1978699947769,2022-05-01
"徐汇区","上海市徐汇区永康路142弄",121.463025855276,31.2170170314539,2022-05-01
"徐汇区","上海市徐汇区永康路38弄",121.464636966208,31.2174878381192,2022-05-01
"徐汇区","上海市徐汇区永康路81号",121.464303605034,31.2170241344911,2022-05-01
"徐汇区","上海市徐汇区中山南二路1023弄",121.452078206026,31.1863647255651,2022-05-01
"徐汇区","上海市徐汇区中山南二路777弄",121.461904680169,31.1920533993235,2022-05-01
"徐汇区","上海市徐汇区中山西路1536弄",121.428275176114,31.1940975891955,2022-05-01
"长宁区","上海市长宁区安化路311号",121.431123253734,31.2208134507585,2022-05-01
"长宁区","上海市长宁区安顺路169号",121.424736121897,31.2075101369204,2022-05-01
"长宁区","上海市长宁区安顺路220弄",121.4230754245,31.2076420196512,2022-05-01
"长宁区","上海市长宁区安顺路240弄住宅",121.421663647561,31.206715361942,2022-05-01
"长宁区","上海市长宁区北渔路125弄",121.378533125449,31.2193450230179,2022-05-01
"长宁区","上海市长宁区长宁路1455号",121.416145985627,31.221901863563,2022-05-01
"长宁区","上海市长宁区长宁路1600弄住宅",121.413845694708,31.2239348254346,2022-05-01
"长宁区","上海市长宁区长宁支路165弄",121.432340817022,31.2330570176571,2022-05-01
"长宁区","上海市长宁区长顺路36弄",121.424252204718,31.2056112520975,2022-05-01
"长宁区","上海市长宁区程家桥路80弄住宅",121.378344481292,31.1946983269584,2022-05-01
"长宁区","上海市长宁区程桥二村",121.381818138869,31.1959505273064,2022-05-01
"长宁区","上海市长宁区定西路711号",121.430285943168,31.2132937305026,2022-05-01
"长宁区","上海市长宁区定西路768弄",121.430504950051,31.2142334486835,2022-05-01
"长宁区","上海市长宁区法华镇路588弄",121.432390942469,31.2108540171721,2022-05-01
"长宁区","上海市长宁区福泉路435弄",121.365078844504,31.2102546956269,2022-05-01
"长宁区","上海市长宁区虹古路377弄住宅",121.394373126168,31.2079818407496,2022-05-01
"长宁区","上海市长宁区虹桥机场新村",121.425393052716,31.2043622695753,2022-05-01
"长宁区","上海市长宁区虹桥路953弄",121.426040012344,31.2022821651476,2022-05-01
"长宁区","上海市长宁区华山路1635号",121.441345790776,31.2094121489828,2022-05-01
"长宁区","上海市长宁区剑河路408弄",121.374815847418,31.2199441319654,2022-05-01
"长宁区","上海市长宁区江苏路70弄住宅",121.434707582549,31.2293481729878,2022-05-01
"长宁区","上海市长宁区锦屏路10弄",121.408564556614,31.2213666915341,2022-05-01
"长宁区","上海市长宁区联建新村",121.414996513896,31.2114993529339,2022-05-01
"长宁区","上海市长宁区娄山关路440弄",121.410022596288,31.2121961067244,2022-05-01
"长宁区","上海市长宁区茅台路255弄住宅",121.405843050241,31.2152954555358,2022-05-01
"长宁区","上海市长宁区番禺路225弄",121.436149722215,31.2108082304385,2022-05-01
"长宁区","上海市长宁区天山路938弄",121.413482869112,31.2168726543865,2022-05-01
"长宁区","上海市长宁区天山路1726弄",121.415678327778,31.216905776204,2022-05-01
"长宁区","上海市长宁区天山路1761弄",121.416385204384,31.2147356933383,2022-05-01
"长宁区","上海市长宁区天山四村",121.409079465333,31.2184604038524,2022-05-01
"长宁区","上海市长宁区天山五村",121.404386807179,31.2170167226262,2022-05-01
"长宁区","上海市长宁区天山支路138弄",121.403701579736,31.2211539188849,2022-05-01
"长宁区","上海市长宁区万航渡路1579弄",121.422559437815,31.2299354840699,2022-05-01
"长宁区","上海市长宁区万航渡路2505弄住宅",121.413759457379,31.2264666052806,2022-05-01
"长宁区","上海市长宁区万航渡路2534号",121.412082859975,31.2254159191687,2022-05-01
"长宁区","上海市长宁区威宁路511弄",121.391068709349,31.223493619408,2022-05-01
"长宁区","上海市长宁区武定西路1207号",121.44037481235,31.2318858275597,2022-05-01
"长宁区","上海市长宁区武定西路1371弄住宅",121.439192103316,31.2293589805331,2022-05-01
"长宁区","上海市长宁区武夷路413号",121.428613477969,31.219338615002,2022-05-01
"长宁区","上海市长宁区武夷路416弄住宅",121.428986813739,31.2178199028591,2022-05-01
"长宁区","上海市长宁区武夷路450弄",121.428024279385,31.2183971723316,2022-05-01
"长宁区","上海市长宁区仙霞路620弄",121.396677998445,31.2108557930483,2022-05-01
"长宁区","上海市长宁区新华路370弄",121.43201931348,31.210397538652,2022-05-01
"长宁区","上海市长宁区新泾一村",121.377624938579,31.2238128474236,2022-05-01
"长宁区","上海市长宁区新渔路150弄",121.374361125169,31.2227285485592,2022-05-01
"长宁区","上海市长宁区延安西路649弄",121.435894064467,31.2215616297668,2022-05-01
"长宁区","上海市长宁区愚园路1088弄住宅",121.434743694431,31.2274153778277,2022-05-01
"长宁区","上海市长宁区玉屏南路340弄",121.413634592913,31.219254152679,2022-05-01
"长宁区","上海市长宁区玉屏南路345弄",121.413765565856,31.2186175946029,2022-05-01
"长宁区","上海市长宁区玉屏南路537弄",121.410472198195,31.2198983496773,2022-05-01
"长宁区","上海市长宁区昭化路55弄",121.42873097633,31.2176729020128,2022-05-01
"长宁区","上海市长宁区昭化路508弄",121.42925100539,31.2171589376807,2022-05-01
"长宁区","上海市长宁区昭化路518弄",121.426547285466,31.2171740702145,2022-05-01
"长宁区","上海市长宁区镇宁路465弄住宅",121.440542795481,31.2294566343681,2022-05-01
"长宁区","上海市长宁区中华新村",121.425393052716,31.2043622695753,2022-05-01
"长宁区","上海市长宁区中山西路945弄",121.420093050207,31.2065532866285,2022-05-01
"长宁区","上海市长宁区中山西路1030弄住宅",121.420268938426,31.2044362437801,2022-05-01
"长宁区","上海市长宁区遵义路435弄",121.414168455877,31.2174729372558,2022-05-01
"长宁区","上海市长宁区遵义路780弄",121.415111676663,31.2198063218061,2022-05-01
"长宁区","上海市长宁区遵义路800弄住宅",121.416564955317,31.2217256091776,2022-05-01
"普陀区","上海市普陀区曹杨路1222弄",121.415226659768,31.2528654471373,2022-05-01
"普陀区","上海市普陀区曹杨三村",121.410439140553,31.2445998508596,2022-05-01
"普陀区","上海市普陀区常德路1239号",121.443012955972,31.2469398912804,2022-05-01
"普陀区","上海市普陀区常德路1309弄",121.44151916374,31.2472361162469,2022-05-01
"普陀区","上海市普陀区长风二村",121.408447417576,31.2403716835701,2022-05-01
"普陀区","上海市普陀区长寿路479号",121.442599645607,31.2447118450249,2022-05-01
"普陀区","上海市普陀区车站新村",121.410093742084,31.2661193310269,2022-05-01
"普陀区","上海市普陀区东新路99弄",121.435443564253,31.2467833655674,2022-05-01
"普陀区","上海市普陀区甘泉一村",121.438465374158,31.2707049092188,2022-05-01
"普陀区","上海市普陀区甘泉二村",121.436904478504,31.2677089454272,2022-05-01
"普陀区","上海市普陀区甘泉三村",121.432618034102,31.2672621584812,2022-05-01
"普陀区","上海市普陀区甘泉路501弄",121.43576255254,31.2681644498499,2022-05-01
"普陀区","上海市普陀区古浪路288弄",121.40142626171,31.2883737085199,2022-05-01
"普陀区","上海市普陀区光新路191弄",121.438063741765,31.2587196287345,2022-05-01
"普陀区","上海市普陀区华池路45号",121.435291660792,31.2624249935702,2022-05-01
"普陀区","上海市普陀区黄陵路200弄",121.435022887783,31.2692043157615,2022-05-01
"普陀区","上海市普陀区江宁路1415弄",121.445535218183,31.253043958173,2022-05-01
"普陀区","上海市普陀区金汤路353弄",121.385829791615,31.2562354124742,2022-05-01
"普陀区","上海市普陀区梅岭北路1001弄",121.404708580213,31.2471089974146,2022-05-01
"普陀区","上海市普陀区平利路90弄",121.430949710712,31.2752099269168,2022-05-01
"普陀区","上海市普陀区普陀一村",121.428633510182,31.2421393414841,2022-05-01
"普陀区","上海市普陀区陕西北路1588号",121.447230051189,31.2501736168373,2022-05-01
"普陀区","上海市普陀区石岚三村",121.428764303465,31.257962794819,2022-05-01
"普陀区","上海市普陀区石泉路130弄",121.432140225402,31.2571131146903,2022-05-01
"普陀区","上海市普陀区石泉路220号",121.429816398878,31.2559261734774,2022-05-01
"普陀区","上海市普陀区石泉路300弄",121.434236331479,31.2580655893844,2022-05-01
"普陀区","上海市普陀区石泉五村",121.433422017534,31.2593868599144,2022-05-01
"普陀区","上海市普陀区铁路新村",121.432426695029,31.2597676256077,2022-05-01
"普陀区","上海市普陀区武宁路2089号",121.407130501698,31.2495293195644,2022-05-01
"普陀区","上海市普陀区西康路1288弄",121.443934078442,31.249768577575,2022-05-01
"普陀区","上海市普陀区新村路285弄",121.440960956696,31.2728978450436,2022-05-01
"普陀区","上海市普陀区新村路50弄",121.438774750576,31.2718808600946,2022-05-01
"普陀区","上海市普陀区杨柳青路768号",121.405809992599,31.2498148855063,2022-05-01
"普陀区","上海市普陀区宜川三村",121.447419503821,31.263551892326,2022-05-01
"普陀区","上海市普陀区真北路1029弄",121.389038628727,31.2421892037573,2022-05-01
"普陀区","上海市普陀区真北路3658号",121.408288597162,31.2876011450637,2022-05-01
"普陀区","上海市普陀区志丹路155号",121.436620344471,31.2692235295596,2022-05-01
"普陀区","上海市普陀区中山北路3751弄",121.417021743669,31.2296622088672,2022-05-01
"普陀区","上海市普陀区中潭路99弄",121.443888264861,31.2591168348233,2022-05-01
"虹口区","上海市虹口区安国路28弄",121.515132156213,31.2630578581272,2022-05-01
"虹口区","上海市虹口区宝安路160弄",121.493788956279,31.2703028139582,2022-05-01
"虹口区","上海市虹口区宝安路184号",121.494116298807,31.2709098529038,2022-05-01
"虹口区","上海市虹口区宝安路199号",121.494123934404,31.2713826260223,2022-05-01
"虹口区","上海市虹口区宝安路241弄",121.49400598689,31.2715775371746,2022-05-01
"虹口区","上海市虹口区宝安路309号",121.493411488304,31.2729437557114,2022-05-01
"虹口区","上海市虹口区宝山路888弄",121.48602867464,31.2698177664032,2022-05-01
"虹口区","上海市虹口区保定路257号",121.517094684261,31.2634698621486,2022-05-01
"虹口区","上海市虹口区长春路158弄",121.492666882867,31.266885513111,2022-05-01
"虹口区","上海市虹口区长春路214弄",121.492241984361,31.2673317617003,2022-05-01
"虹口区","上海市虹口区场中路4弄",121.511586454535,31.2697466989314,2022-05-01
"虹口区","上海市虹口区场中路660号",121.474922115145,31.3118944095954,2022-05-01
"虹口区","上海市虹口区场中路666号",121.474681369268,31.3121315025325,2022-05-01
"虹口区","上海市虹口区场中路685弄",121.478691674556,31.3143732890408,2022-05-01
"虹口区","上海市虹口区场中路688号",121.474330041983,31.3121588831028,2022-05-01
"虹口区","上海市虹口区车站北路625弄",121.474764732019,31.301514485552,2022-05-01
"虹口区","上海市虹口区车站南路407弄",121.479777007274,31.2996526845537,2022-05-01
"虹口区","上海市虹口区车站西路300弄",121.488904779391,31.3056357556958,2022-05-01
"虹口区","上海市虹口区车站西路307弄",121.489837490002,31.306902823199,2022-05-01
"虹口区","上海市虹口区崇明路206弄",121.492023875783,31.251872323747,2022-05-01
"虹口区","上海市虹口区大连西路165弄",121.50235313152,31.2816419926103,2022-05-01
"虹口区","上海市虹口区大连西路201弄",121.500654974784,31.2818138906312,2022-05-01
"虹口区","上海市虹口区大连西路215弄",121.498152026141,31.281729870498,2022-05-01
"虹口区","上海市虹口区大连西路270弄",121.493994129258,31.2828175743286,2022-05-01
"虹口区","上海市虹口区丹徒路340弄",121.508411842862,31.2621359163449,2022-05-01
"虹口区","上海市虹口区丹徒路377号",121.507984878253,31.262312171759,2022-05-01
"虹口区","上海市虹口区东宝兴路254弄",121.488148406152,31.2638634983077,2022-05-01
"虹口区","上海市虹口区东汉阳路309弄",121.490924313861,31.2816194781201,2022-05-01
