"district","address","lng","lat","date"
"浦东新区","上海市浦东新区白萱路99弄",121.597709608862,31.3366934242069,2022-04-25
"浦东新区","上海市浦东新区白杨路1065弄",121.565649983517,31.1994098802839,2022-04-25
"浦东新区","上海市浦东新区白杨路1155弄",121.565798024265,31.1977391794061,2022-04-25
"浦东新区","上海市浦东新区板泉路2101弄",121.539604693221,31.1688158507634,2022-04-25
"浦东新区","上海市浦东新区板泉路50号",121.501198269956,31.1634647451668,2022-04-25
"浦东新区","上海市浦东新区北艾路1660弄",121.530288187116,31.1870408137803,2022-04-25
"浦东新区","上海市浦东新区北艾路1765弄",121.528398601476,31.1842654537065,2022-04-25
"浦东新区","上海市浦东新区北蔡大街31弄",121.560543565845,31.1936780975778,2022-04-25
"浦东新区","上海市浦东新区北蔡镇北蔡村丁家宅",121.569857916017,31.1921842226328,2022-04-25
"浦东新区","上海市浦东新区北蔡镇联勤村冯桥队张家宅",121.557447915227,31.1712123975815,2022-04-25
"浦东新区","上海市浦东新区北蔡镇联勤村麦家宅",121.553913442368,31.1692634940545,2022-04-25
"浦东新区","上海市浦东新区北蔡镇联勤村张家宅",121.55718596934,31.1732310110799,2022-04-25
"浦东新区","上海市浦东新区北蔡镇联勤村赵家宅",121.55718596934,31.1732310110799,2022-04-25
"浦东新区","上海市浦东新区北蔡镇南新村东钟家宅",121.548654941573,31.1732516349633,2022-04-25
"浦东新区","上海市浦东新区北蔡镇南新村西钟家宅",121.548654941573,31.1732516349633,2022-04-25
"浦东新区","上海市浦东新区北蔡镇卫行村张浜队南顾家宅",121.588143822978,31.17172159313,2022-04-25
"浦东新区","上海市浦东新区北蔡镇卫行村张浜队杨家宅",121.587201410668,31.1666652020159,2022-04-25
"浦东新区","上海市浦东新区北蔡镇卫行村朱家队朱家宅",121.587201410668,31.1666652020159,2022-04-25
"浦东新区","上海市浦东新区北蔡镇五星村陈家队奚家宅",121.578579474383,31.194413133383,2022-04-25
"浦东新区","上海市浦东新区北蔡镇五星村家务队顾家宅",121.57836549801,31.1799884502015,2022-04-25
"浦东新区","上海市浦东新区北蔡镇五星村三联队黄家宅",121.57836549801,31.1799884502015,2022-04-25
"浦东新区","上海市浦东新区北蔡镇五星村吴家队吴家宅",121.57836549801,31.1799884502015,2022-04-25
"浦东新区","上海市浦东新区北蔡镇杨桥村西计队西计家宅",121.570644651983,31.1909809347657,2022-04-25
"浦东新区","上海市浦东新区北蔡镇中界村复兴队陈家宅",121.578579474383,31.194413133383,2022-04-25
"浦东新区","上海市浦东新区北蔡镇中界村复兴队顾家宅",121.578066721598,31.1937157839413,2022-04-25
"浦东新区","上海市浦东新区北蔡镇中界村复兴队苏家宅",121.577029627886,31.1916104985113,2022-04-25
"浦东新区","上海市浦东新区北蔡镇中界村黄家队黄家宅",121.574173735009,31.1954461740634,2022-04-25
"浦东新区","上海市浦东新区北蔡镇中界村季家队季家宅",121.578761021926,31.1993098784582,2022-04-25
"浦东新区","上海市浦东新区北蔡镇中界村陆家队陆家宅",121.507419754257,31.1905632054564,2022-04-25
"浦东新区","上海市浦东新区北蔡镇中界村沈家队姚家宅",121.574173735009,31.1954461740634,2022-04-25
"浦东新区","上海市浦东新区北蔡镇中界村苏家队苏家宅",121.577029627886,31.1916104985113,2022-04-25
"浦东新区","上海市浦东新区北蔡镇中界村庄家队蔡家宅",121.578579474383,31.194413133383,2022-04-25
"浦东新区","上海市浦东新区北新园路460弄",121.634743151816,31.3261917171778,2022-04-25
"浦东新区","上海市浦东新区北园路258弄",121.53086597722,31.2096526677908,2022-04-25
"浦东新区","上海市浦东新区北张家浜路172号",121.532325184691,31.2224304703227,2022-04-25
"浦东新区","上海市浦东新区北张家浜路58号",121.527623453651,31.2221730769557,2022-04-25
"浦东新区","上海市浦东新区北中路10弄",121.559857440097,31.1887764243558,2022-04-25
"浦东新区","上海市浦东新区北中路354弄",121.566413902522,31.1901497991136,2022-04-25
"浦东新区","上海市浦东新区碧云路199弄",121.579663100319,31.2428323938229,2022-04-25
"浦东新区","上海市浦东新区博华路1018弄",121.557501993219,31.1768508579768,2022-04-25
"浦东新区","上海市浦东新区博华路380弄",121.554524649437,31.1871169641464,2022-04-25
"浦东新区","上海市浦东新区博华路980弄",121.556426811354,31.1772710428287,2022-04-25
"浦东新区","上海市浦东新区博山东路112弄",121.569426819203,31.2554456818061,2022-04-25
"浦东新区","上海市浦东新区博山东路459弄",121.573680385623,31.2598821482651,2022-04-25
"浦东新区","上海市浦东新区博山东路811弄",121.57981814785,31.2654428107137,2022-04-25
"浦东新区","上海市浦东新区博山路11弄",121.564218982839,31.2518921585341,2022-04-25
"浦东新区","上海市浦东新区博山路12弄",121.563217821348,31.2532525679138,2022-04-25
"浦东新区","上海市浦东新区博山路78弄",121.562071314026,31.2514665972376,2022-04-25
"浦东新区","上海市浦东新区博兴路916弄",121.597995000523,31.2704201787296,2022-04-25
"浦东新区","上海市浦东新区博兴路986弄",121.597262971363,31.270671034824,2022-04-25
"浦东新区","上海市浦东新区彩云路567弄",121.814258638489,30.9047908270833,2022-04-25
"浦东新区","上海市浦东新区曹路镇顾东村苍龙桥",121.668037318424,31.3056298935306,2022-04-25
"浦东新区","上海市浦东新区曹路镇顾东村船板桥",121.670280566944,31.3031164562783,2022-04-25
"浦东新区","上海市浦东新区曹路镇顾东村水洞港",121.669643039524,31.2997669268929,2022-04-25
"浦东新区","上海市浦东新区曹路镇顾东村吴家宅",121.668134784572,31.29938100167,2022-04-25
"浦东新区","上海市浦东新区曹路镇光明村沙桥宅",121.658185512066,31.292967682843,2022-04-25
"浦东新区","上海市浦东新区曹路镇黎明村张唐村",121.700912784834,31.2745557073923,2022-04-25
"浦东新区","上海市浦东新区曹路镇联合村路南宅",121.348674887586,31.408630188596,2022-04-25
"浦东新区","上海市浦东新区曹路镇联合村西浜宅",121.681654911311,31.3037331552227,2022-04-25
"浦东新区","上海市浦东新区曹路镇联合村西柴场",121.67746314831,31.3033290423911,2022-04-25
"浦东新区","上海市浦东新区曹路镇民建村南邵家宅",121.654516473041,31.2803786713243,2022-04-25
"浦东新区","上海市浦东新区曹路镇民建村徐家宅",121.653580977683,31.2733973056005,2022-04-25
"浦东新区","上海市浦东新区曹路镇启明村龙王庙",121.702859951858,31.2814263481015,2022-04-25
"浦东新区","上海市浦东新区曹路镇日新村北万家宅",121.67504212513,31.269511195913,2022-04-25
"浦东新区","上海市浦东新区曹路镇日新村南房宅",121.675610213535,31.2719155828286,2022-04-25
"浦东新区","上海市浦东新区曹路镇日新村杨薛家宅",121.674955438648,31.2654722113219,2022-04-25
"浦东新区","上海市浦东新区曹路镇五四村沈孙家宅",121.658040076404,31.2603987332248,2022-04-25
"浦东新区","上海市浦东新区曹路镇五四村唐朱家宅",121.668338969415,31.2583088385362,2022-04-25
"浦东新区","上海市浦东新区曹路镇新光村沈家旗杆",121.665433310412,31.2614243318905,2022-04-25
"浦东新区","上海市浦东新区曹路镇新华村强顾家宅",121.667109279002,31.2712149527223,2022-04-25
"浦东新区","上海市浦东新区曹路镇新华村新宅",121.668753447577,31.2703631553647,2022-04-25
"浦东新区","上海市浦东新区曹路镇新华村薛家行",121.671586972647,31.2693992314586,2022-04-25
"浦东新区","上海市浦东新区曹路镇新星村胡家宅",121.708279428999,31.2618387353821,2022-04-25
"浦东新区","上海市浦东新区曹路镇星火村",121.708317606984,31.2618230698832,2022-04-25
"浦东新区","上海市浦东新区曹路镇迅建村蔡家宅",121.697148794917,31.2892028145954,2022-04-25
"浦东新区","上海市浦东新区曹路镇迅建村撑圩村",121.699485287548,31.2867503457957,2022-04-25
"浦东新区","上海市浦东新区曹路镇迅建村葛家宅",121.697148794917,31.2892028145954,2022-04-25
"浦东新区","上海市浦东新区曹路镇永丰村大徐家宅",121.702955890886,31.2614800488169,2022-04-25
"浦东新区","上海市浦东新区曹路镇永利村冯家宅",121.702059022665,31.2701954030718,2022-04-25
"浦东新区","上海市浦东新区曹路镇众三村顾家宅",121.673574204096,31.2875780004637,2022-04-25
"浦东新区","上海市浦东新区曹路镇众三村南俞家圈",121.672454286617,31.2885500687241,2022-04-25
"浦东新区","上海市浦东新区草高支路170弄",121.588426070569,31.3579888528039,2022-04-25
"浦东新区","上海市浦东新区长岛路1201弄",121.596729737212,31.2693476089323,2022-04-25
"浦东新区","上海市浦东新区长岛路1398弄",121.605978421251,31.2697987842173,2022-04-25
"浦东新区","上海市浦东新区长岛路1560弄",121.608314285069,31.2706988133719,2022-04-25
"浦东新区","上海市浦东新区长岛路588弄",121.588731943595,31.266885513111,2022-04-25
"浦东新区","上海市浦东新区长岛路800弄",121.593834768045,31.2653075369301,2022-04-25
"浦东新区","上海市浦东新区长清路177弄",121.536884264815,31.1897022555378,2022-04-25
"浦东新区","上海市浦东新区长清路643弄",121.498775809487,31.1641831772803,2022-04-25
"浦东新区","上海市浦东新区长清路693弄",121.536884264815,31.1897022555378,2022-04-25
"浦东新区","上海市浦东新区长清路807弄",121.49922298597,31.1620532804187,2022-04-25
"浦东新区","上海市浦东新区长清路937弄",121.536884264815,31.1897022555378,2022-04-25
"浦东新区","上海市浦东新区昌里东路395弄",121.518966483452,31.1833023416904,2022-04-25
"浦东新区","上海市浦东新区昌里东路411弄",121.519301551407,31.1855112286687,2022-04-25
"浦东新区","上海市浦东新区昌里东路500弄",121.520657363913,31.1835177490782,2022-04-25
"浦东新区","上海市浦东新区昌里东路550弄",121.521399004942,31.1835358991941,2022-04-25
"浦东新区","上海市浦东新区昌里东路650弄",121.521399004942,31.1835358991941,2022-04-25
"浦东新区","上海市浦东新区昌里东路675弄",121.524150963872,31.1867623933045,2022-04-25
"浦东新区","上海市浦东新区昌里东路71弄",121.51070692361,31.1826643807287,2022-04-25
"浦东新区","上海市浦东新区昌里路167弄",121.504545446117,31.1810916262197,2022-04-25
"浦东新区","上海市浦东新区昌里路340弄",121.500968393576,31.1782390828587,2022-04-25
"浦东新区","上海市浦东新区昌邑路55弄",121.519121980136,31.2460588518643,2022-04-25
"浦东新区","上海市浦东新区陈春东路88弄",121.565995831138,31.1814471453478,2022-04-25
"浦东新区","上海市浦东新区陈春路620弄",121.552907609688,31.1780781941088,2022-04-25
"浦东新区","上海市浦东新区陈邵路103号工地生活区",121.639191186511,31.2932930058445,2022-04-25
"浦东新区","上海市浦东新区成山路1066弄",121.527222719563,31.1792172310837,2022-04-25
"浦东新区","上海市浦东新区成山路143号",121.497985120977,31.176820579878,2022-04-25
"浦东新区","上海市浦东新区成山路1488弄",121.533431537757,31.1819798422434,2022-04-25
"浦东新区","上海市浦东新区成山路1728弄",121.535534201464,31.1818249843163,2022-04-25
"浦东新区","上海市浦东新区成山路226弄",121.503720083014,31.1763904289944,2022-04-25
"浦东新区","上海市浦东新区成山路24弄",121.492308997952,31.1741468770644,2022-04-25
"浦东新区","上海市浦东新区成山路345号",121.508875458336,31.1778262400724,2022-04-25
"浦东新区","上海市浦东新区成山路475弄",121.513497240185,31.178313077688,2022-04-25
"浦东新区","上海市浦东新区成山路608弄",121.515115986714,31.1776118237191,2022-04-25
"浦东新区","上海市浦东新区城南路747弄",121.6992360976,31.1946632666523,2022-04-25
"浦东新区","上海市浦东新区川北公路3046号",121.619600775157,31.2110282845181,2022-04-25
"浦东新区","上海市浦东新区川环南路130弄",121.717212987466,31.1961566387291,2022-04-25
"浦东新区","上海市浦东新区川环南路918弄",121.702367590608,31.1925144464194,2022-04-25
"浦东新区","上海市浦东新区川环南路921弄",121.701443773221,31.1918384749188,2022-04-25
"浦东新区","上海市浦东新区川沙路1666弄",121.67243200864,31.2858133621136,2022-04-25
"浦东新区","上海市浦东新区川沙路389弄",121.675454896512,31.2852923658015,2022-04-25
"浦东新区","上海市浦东新区川沙路4850弄",121.652778790863,31.290487771739,2022-04-25
"浦东新区","上海市浦东新区川沙路5122弄",121.702663851765,31.1965324105794,2022-04-25
"浦东新区","上海市浦东新区川沙新镇陈桥村",121.707774401642,31.202328573802,2022-04-25
"浦东新区","上海市浦东新区川沙新镇城南村朱家宅",121.705982641471,31.1940629147939,2022-04-25
"浦东新区","上海市浦东新区川沙新镇高桥村项家宅",121.732741276172,31.1657237707348,2022-04-25
"浦东新区","上海市浦东新区川沙新镇果园村",121.707774401642,31.202328573802,2022-04-25
"浦东新区","上海市浦东新区川沙新镇和平村",121.736251135461,31.2055576639467,2022-04-25
"浦东新区","上海市浦东新区川沙新镇华路村李家宅",121.742779301263,31.2001365312709,2022-04-25
"浦东新区","上海市浦东新区川沙新镇黄楼村姚家宅",121.670267451684,31.1681474330854,2022-04-25
"浦东新区","上海市浦东新区川沙新镇黄楼村张家宅",121.657988244176,31.1753357824389,2022-04-25
"浦东新区","上海市浦东新区川沙新镇会龙村朱店",121.707774401642,31.202328573802,2022-04-25
"浦东新区","上海市浦东新区川沙新镇其成村",121.692090616251,31.1200929335103,2022-04-25
"浦东新区","上海市浦东新区川沙新镇吴店村东乔家宅",121.726846864907,31.1575593337312,2022-04-25
"浦东新区","上海市浦东新区川沙新镇吴店村西乔家宅",121.735381036744,31.1425908865954,2022-04-25
"浦东新区","上海市浦东新区川沙新镇新春村徐家宅",121.706816179154,31.1709792728473,2022-04-25
"浦东新区","上海市浦东新区川沙新镇新吉村新华",121.718959203546,31.1153715216884,2022-04-25
"浦东新区","上海市浦东新区川沙新镇药师村曹家宅",121.688302012763,31.209451836559,2022-04-25
"浦东新区","上海市浦东新区川沙新镇长丰村杨家宅",121.67899889141,31.1902861855662,2022-04-25
"浦东新区","上海市浦东新区川周公路2828弄",121.624521962232,31.1491248483126,2022-04-25
"浦东新区","上海市浦东新区川周公路2880号",121.622258412008,31.1488188868617,2022-04-25
"浦东新区","上海市浦东新区川周公路2928弄",121.620997999547,31.1479346835682,2022-04-25
"浦东新区","上海市浦东新区川周公路4011弄",121.593959991833,31.1314798283761,2022-04-25
"浦东新区","上海市浦东新区川周公路4058弄",121.591378261797,31.1321645808084,2022-04-25
"浦东新区","上海市浦东新区川周路8828弄",121.716261861592,31.1932060900366,2022-04-25
"浦东新区","上海市浦东新区创新西路199弄",121.660810450597,31.2075822554859,2022-04-25
"浦东新区","上海市浦东新区创新西路28弄",121.664299379367,31.210286275536,2022-04-25
"浦东新区","上海市浦东新区创新西路75弄",121.663731470623,31.2097267922427,2022-04-25
"浦东新区","上海市浦东新区创新中路199弄",121.668695686533,31.2141451212896,2022-04-25
"浦东新区","上海市浦东新区创新中路399弄",121.673244705635,31.2153254895784,2022-04-25
"浦东新区","上海市浦东新区创新中路593弄",121.675777028868,31.2168388376937,2022-04-25
"浦东新区","上海市浦东新区创业路66弄",121.584859707864,31.1200779398788,2022-04-25
"浦东新区","上海市浦东新区创业路798号",121.703206428293,31.2213490891708,2022-04-25
"浦东新区","上海市浦东新区春晖路276弄",121.591825168788,31.3464065285783,2022-04-25
"浦东新区","上海市浦东新区春源路58弄",121.65488316135,31.2166448161123,2022-04-25
"浦东新区","上海市浦东新区达秀路151号",121.660133757056,31.2432925734162,2022-04-25
"浦东新区","上海市浦东新区大同路1010弄",121.578601123546,31.3414126263765,2022-04-25
"浦东新区","上海市浦东新区大同路688弄",121.505741719564,30.8342823372086,2022-04-25
"浦东新区","上海市浦东新区大团镇赵桥村",121.745572222924,30.9940660494586,2022-04-25
"浦东新区","上海市浦东新区德平路100弄",121.568682662918,31.2539399811791,2022-04-25
"浦东新区","上海市浦东新区德平路1065弄",121.57423419097,31.2492630478328,2022-04-25
"浦东新区","上海市浦东新区德平路143弄",121.567548462381,31.2570902712305,2022-04-25
"浦东新区","上海市浦东新区德州路150弄",121.492570315024,31.1720443190957,2022-04-25
"浦东新区","上海市浦东新区德州路220弄",121.536884264815,31.1897022555378,2022-04-25
"浦东新区","上海市浦东新区德州路223弄",121.536884264815,31.1897022555378,2022-04-25
"浦东新区","上海市浦东新区德州路246号",121.49969738111,31.1738311101618,2022-04-25
"浦东新区","上海市浦东新区德州路255弄",121.497632266573,31.1762287646668,2022-04-25
"浦东新区","上海市浦东新区德州路300弄",121.536884264815,31.1897022555378,2022-04-25
"浦东新区","上海市浦东新区德州路421弄",121.489477988137,31.1738128809246,2022-04-25
"浦东新区","上海市浦东新区德州路465弄",121.536884264815,31.1897022555378,2022-04-25
"浦东新区","上海市浦东新区丁香路1299弄",121.569359985273,31.2360168859408,2022-04-25
"浦东新区","上海市浦东新区丁香路999弄",121.560513831933,31.2333260373034,2022-04-25
"浦东新区","上海市浦东新区东波路49弄",121.583378042756,31.2907238390316,2022-04-25
"浦东新区","上海市浦东新区东波路585弄",121.592860016736,31.2899795307181,2022-04-25
"浦东新区","上海市浦东新区东昌路490弄",121.519723575336,31.2375223348617,2022-04-25
"浦东新区","上海市浦东新区东昌路498弄",121.520026663615,31.2378698436508,2022-04-25
"浦东新区","上海市浦东新区东方路1800弄",121.528473609986,31.2090892428252,2022-04-25
"浦东新区","上海市浦东新区东方路2851弄",121.52612004955,31.201634526501,2022-04-25
"浦东新区","上海市浦东新区东方路2993弄",121.525265401688,31.2000803916984,2022-04-25
"浦东新区","上海市浦东新区东沟二村",121.583790275154,31.2995060437769,2022-04-25
"浦东新区","上海市浦东新区东建新村",121.526861421087,31.2227134169234,2022-04-25
"浦东新区","上海市浦东新区东靖路人民塘路交界口工地生活区",121.75028805736,31.2491627905408,2022-04-25
"浦东新区","上海市浦东新区东陆路1182弄",121.602356004282,31.2753682698756,2022-04-25
"浦东新区","上海市浦东新区东陆路1268弄",121.601560554753,31.2728788634835,2022-04-25
"浦东新区","上海市浦东新区东陆路2000弄",121.615923651382,31.2677111832149,2022-04-25
"浦东新区","上海市浦东新区东明路355弄",121.51669511797,31.1894556615896,2022-04-25
"浦东新区","上海市浦东新区东三街102弄",121.517106182571,31.207639780426,2022-04-25
"浦东新区","上海市浦东新区东三里桥路160弄",121.516139875334,31.2060282193702,2022-04-25
"浦东新区","上海市浦东新区东三里桥路170弄",121.517567192959,31.2063591665174,2022-04-25
"浦东新区","上海市浦东新区东三里桥路79弄",121.515301666463,31.2060957833369,2022-04-25
"浦东新区","上海市浦东新区东书房路390弄",121.541617795869,31.1696664870587,2022-04-25
"浦东新区","上海市浦东新区东书房路560弄",121.543073679609,31.1677333099084,2022-04-25
"浦东新区","上海市浦东新区东绣路1155弄",121.541281200795,31.2049419385272,2022-04-25
"浦东新区","上海市浦东新区东绣路266弄",121.544661075276,31.2179882123681,2022-04-25
"浦东新区","上海市浦东新区东绣路66弄",121.544462190436,31.2219475676683,2022-04-25
"浦东新区","上海市浦东新区杜鹃路58弄",121.529696185109,31.2072012517119,2022-04-25
"浦东新区","上海市浦东新区渡桥路288弄",121.584859707864,31.1200779398788,2022-04-25
"浦东新区","上海市浦东新区峨山路605弄",121.528446660821,31.2208930478396,2022-04-25
"浦东新区","上海市浦东新区峨山路679弄",121.527011348277,31.2202007594188,2022-04-25
"浦东新区","上海市浦东新区繁荣东路150弄",121.59321448809,31.1120169709024,2022-04-25
"浦东新区","上海市浦东新区繁荣东路159弄",121.591870173895,31.1128143261855,2022-04-25
"浦东新区","上海市浦东新区芳草路253弄",121.562086764881,31.2023366045818,2022-04-25
"浦东新区","上海市浦东新区芳草路258号",121.563049029743,31.1995335117371,2022-04-25
"浦东新区","上海市浦东新区芳草路352弄",121.561626023985,31.1992148959303,2022-04-25
"浦东新区","上海市浦东新区芳华路310弄",121.564018211558,31.2013345278281,2022-04-25
"浦东新区","上海市浦东新区芳华路329弄",121.56365017579,31.202246644365,2022-04-25
"浦东新区","上海市浦东新区芳华路455弄",121.566150609177,31.2026175270033,2022-04-25
"浦东新区","上海市浦东新区芳华路478弄",121.536884264815,31.1897022555378,2022-04-25
"浦东新区","上海市浦东新区芳华路573弄",121.569065790218,31.2028810744024,2022-04-25
"浦东新区","上海市浦东新区芳华路580弄",121.56905797496,31.2025178374774,2022-04-25
"浦东新区","上海市浦东新区芳华路630弄",121.556559041925,31.2002051033578,2022-04-25
"浦东新区","上海市浦东新区芳华路63号",121.558171590146,31.200731052684,2022-04-25
"浦东新区","上海市浦东新区芳华路713弄",121.536884264815,31.1897022555378,2022-04-25
"浦东新区","上海市浦东新区芳华路788弄",121.536884264815,31.1897022555378,2022-04-25
"浦东新区","上海市浦东新区芳华路916弄",121.574598004701,31.2028538934567,2022-04-25
"浦东新区","上海市浦东新区芳华路933弄",121.536884264815,31.1897022555378,2022-04-25
"浦东新区","上海市浦东新区芳芯路312弄",121.564077499721,31.1971826328678,2022-04-25
"浦东新区","上海市浦东新区芳芯路363弄",121.536884264815,31.1897022555378,2022-04-25
"浦东新区","上海市浦东新区芙蓉路42弄",121.674710560566,31.1709316127492,2022-04-25
"浦东新区","上海市浦东新区福山路40弄",121.530906490799,31.242456421864,2022-04-25
"浦东新区","上海市浦东新区港辉路308弄",121.86591084599,30.8736943675999,2022-04-25
"浦东新区","上海市浦东新区高宝路68弄",121.62729152795,31.2973706625996,2022-04-25
"浦东新区","上海市浦东新区高东二路118弄",121.632030269176,31.3299086703681,2022-04-25
"浦东新区","上海市浦东新区高东新路500弄",121.627889080775,31.3423616965753,2022-04-25
"浦东新区","上海市浦东新区高东镇革新村西钟文宅",121.647814664784,31.324078462952,2022-04-25
"浦东新区","上海市浦东新区高东镇竞赛村龙稍宅",121.65845033253,31.3075214254193,2022-04-25
"浦东新区","上海市浦东新区高东镇沙港村西沙港东",121.630698710919,31.3441564143981,2022-04-25
"浦东新区","上海市浦东新区高东镇珊黄村苍头宅",121.646532423499,31.3365476898601,2022-04-25
"浦东新区","上海市浦东新区高东镇先锋村卢家宅",121.591521541526,31.2903783011154,2022-04-25
"浦东新区","上海市浦东新区高东镇先锋村王朱家宅",121.63711090548,31.3105712595124,2022-04-25
"浦东新区","上海市浦东新区高东镇踊跃村东孙家沟",121.664114328432,31.3120800578898,2022-04-25
"浦东新区","上海市浦东新区高科东路500弄",121.660184241826,31.2166400292636,2022-04-25
"浦东新区","上海市浦东新区高科西路2757弄",121.560650913354,31.1958814887592,2022-04-25
"浦东新区","上海市浦东新区高桥镇陆凌村西凌家宅",121.5817386352,31.3535668406377,2022-04-25
"浦东新区","上海市浦东新区高桥镇南塘村龚家宅",121.5746809183,31.345394276907,2022-04-25
"浦东新区","上海市浦东新区高桥镇南塘村顾家宅",121.5746809183,31.345394276907,2022-04-25
"浦东新区","上海市浦东新区高桥镇南塘村姚家宅",121.5746809183,31.345394276907,2022-04-25
"浦东新区","上海市浦东新区高桥镇三岔港村三岔港",121.514471272849,31.3715312688423,2022-04-25
"浦东新区","上海市浦东新区高桥镇屯粮巷村潘家桥",121.570632165536,31.363690440703,2022-04-25
"浦东新区","上海市浦东新区高桥镇西浜头",121.615635834297,31.2925041992064,2022-04-25
"浦东新区","上海市浦东新区高桥镇新农村北项湾",121.560166996175,31.367679309467,2022-04-25
"浦东新区","上海市浦东新区高桥镇新农村沈家宅",121.558501268268,31.3625522632348,2022-04-25
"浦东新区","上海市浦东新区高青路2861弄",121.53503303682,31.1680806914771,2022-04-25
"浦东新区","上海市浦东新区高青路2878弄",121.534383741597,31.1661478678863,2022-04-25
"浦东新区","上海市浦东新区高青路4567弄",121.536884264815,31.1897022555378,2022-04-25
"浦东新区","上海市浦东新区龚华路425弄",121.652778790863,31.290487771739,2022-04-25
"浦东新区","上海市浦东新区拱为路2600弄",121.745418253359,31.0635577630424,2022-04-25
"浦东新区","上海市浦东新区顾唐路138弄",121.652778790863,31.290487771739,2022-04-25
"浦东新区","上海市浦东新区崮山路157号",121.558485997074,31.2530718191383,2022-04-25
"浦东新区","上海市浦东新区崮山路322弄",121.559286117792,31.251792753022,2022-04-25
"浦东新区","上海市浦东新区崮山路626弄",121.565388666444,31.2473383823345,2022-04-25
"浦东新区","上海市浦东新区崮山路717号",121.566756426413,31.2457458744099,2022-04-25
"浦东新区","上海市浦东新区崮山路95号",121.55737820672,31.2536873822811,2022-04-25
"浦东新区","上海市浦东新区崮山路968号",121.568139277915,31.2414287626101,2022-04-25
"浦东新区","上海市浦东新区光明路222弄",121.622302967962,31.3377020692766,2022-04-25
"浦东新区","上海市浦东新区光泽路429弄",121.624748694543,31.3361840469722,2022-04-25
"浦东新区","上海市浦东新区国展路1792号工地生活区",121.496166118091,31.1888280028394,2022-04-25
"浦东新区","上海市浦东新区海鸣路1号工地生活区",121.678332977535,31.2897858923213,2022-04-25
"浦东新区","上海市浦东新区海鸣路98弄",121.677548217842,31.2886278337477,2022-04-25
"浦东新区","上海市浦东新区海鹏路301弄",121.680730914264,31.2953639830489,2022-04-25
"浦东新区","上海市浦东新区海徐路505号工地生活区",121.615015374681,31.3488347620748,2022-04-25
"浦东新区","上海市浦东新区海阳路1000弄",121.511721469853,31.1638127605497,2022-04-25
"浦东新区","上海市浦东新区海阳路1080弄",121.513439479141,31.1641353592278,2022-04-25
"浦东新区","上海市浦东新区海阳路215弄",121.495604611376,31.1592622705933,2022-04-25
"浦东新区","上海市浦东新区航昌路199弄",121.615016362817,31.0849217326394,2022-04-25
"浦东新区","上海市浦东新区航昌路489弄",121.616375094816,31.0804408738662,2022-04-25
"浦东新区","上海市浦东新区航城七路450弄",121.765500501849,31.148175591932,2022-04-25
"浦东新区","上海市浦东新区航城三路675弄",121.760699148729,31.1595265579378,2022-04-25
"浦东新区","上海市浦东新区航城五路401弄",121.759354834533,31.152245366364,2022-04-25
"浦东新区","上海市浦东新区航三路航吉路交界口工地生活区",121.614290352304,31.045793267667,2022-04-25
"浦东新区","上海市浦东新区航头路1688弄",121.59236999108,31.0375558314797,2022-04-25
"浦东新区","上海市浦东新区航头镇果园村航西",121.642441899529,31.025361102765,2022-04-25
"浦东新区","上海市浦东新区航头镇鹤东村沿江",121.608037966294,31.0602733641974,2022-04-25
"浦东新区","上海市浦东新区航头镇梅园村沙北",121.591231748169,31.06555502677,2022-04-25
"浦东新区","上海市浦东新区航头镇沈庄村大桥",121.574932717826,31.0810149863606,2022-04-25
"浦东新区","上海市浦东新区合庆镇蔡路村包家宅",121.764207480898,31.2058888444051,2022-04-25
"浦东新区","上海市浦东新区合庆镇蔡路村西蔡家宅",121.737464297052,31.2197460249723,2022-04-25
"浦东新区","上海市浦东新区合庆镇蔡路村杨家宅",121.744404964744,31.2099848375333,2022-04-25
"浦东新区","上海市浦东新区合庆镇大星村尹家宅",121.728318558824,31.2272876144691,2022-04-25
"浦东新区","上海市浦东新区合庆镇东风村曹家宅",121.705700034558,31.2324508135927,2022-04-25
"浦东新区","上海市浦东新区合庆镇共一村包家宅",121.764207480898,31.2058888444051,2022-04-25
"浦东新区","上海市浦东新区合庆镇海塘村小蔡家宅",121.761254750687,31.2177921858054,2022-04-25
"浦东新区","上海市浦东新区合庆镇红星村姚家宅",121.704478967878,31.2409610095031,2022-04-25
"浦东新区","上海市浦东新区合庆镇华星村东宋家宅",121.709470851597,31.2084923036178,2022-04-25
"浦东新区","上海市浦东新区合庆镇勤奋村陈家宅",121.732136986056,31.2630338585862,2022-04-25
"浦东新区","上海市浦东新区合庆镇勤奋村徐家宅",121.740394030642,31.2551728670129,2022-04-25
"浦东新区","上海市浦东新区合庆镇勤奋村张家宅",121.732101682649,31.2614765761563,2022-04-25
"浦东新区","上海市浦东新区合庆镇勤俭村中陆家宅",121.718486333002,31.2103311895224,2022-04-25
"浦东新区","上海市浦东新区合庆镇庆丰村东新宅",121.723719504105,31.2470521913717,2022-04-25
"浦东新区","上海市浦东新区合庆镇庆星村凤家码头",121.725707094876,31.2404364439951,2022-04-25
"浦东新区","上海市浦东新区合庆镇庆星村顾家宅",121.725707094876,31.2404364439951,2022-04-25
"浦东新区","上海市浦东新区合庆镇奚家村卫家宅",121.717943669167,31.2536196211407,2022-04-25
"浦东新区","上海市浦东新区合庆镇营房村高路二宅",121.742081317882,31.2162274328676,2022-04-25
"浦东新区","上海市浦东新区合庆镇永丰村陈家宅",121.683246259522,31.2574924233498,2022-04-25
"浦东新区","上海市浦东新区合庆镇永红村秦家宅",121.716091812359,31.2408407518082,2022-04-25
"浦东新区","上海市浦东新区合庆镇永红村薛家宅",121.716091812359,31.2408407518082,2022-04-25
"浦东新区","上海市浦东新区和佳路105弄",121.520302084084,31.1332973749386,2022-04-25
"浦东新区","上海市浦东新区和炯路77弄",121.525530311983,31.1391594184198,2022-04-25
"浦东新区","上海市浦东新区和融路55弄",121.506367658844,31.1307994757948,2022-04-25
"浦东新区","上海市浦东新区菏泽路25弄",121.59678004232,31.2796925327225,2022-04-25
"浦东新区","上海市浦东新区菏泽路567弄",121.601772100444,31.2704060021067,2022-04-25
"浦东新区","上海市浦东新区菏泽路58弄",121.596685001597,31.2787130424234,2022-04-25
"浦东新区","上海市浦东新区鹤驰路99弄",121.599741665756,31.0849672715556,2022-04-25
"浦东新区","上海市浦东新区鹤沙路226弄",121.605521273577,31.0879060700157,2022-04-25
"浦东新区","上海市浦东新区鹤沙路588弄",121.601468029285,31.0880218851386,2022-04-25
"浦东新区","上海市浦东新区鹤永路750弄",121.609967885851,31.0777774939509,2022-04-25
"浦东新区","上海市浦东新区横桥路69弄",121.586170425434,31.1142408301623,2022-04-25
"浦东新区","上海市浦东新区虹盛路250弄",121.687377836054,31.2476231831513,2022-04-25
"浦东新区","上海市浦东新区后长街91弄",121.50316834377,31.1690344585391,2022-04-25
"浦东新区","上海市浦东新区沪二小区",121.589043475946,31.2748199780859,2022-04-25
"浦东新区","上海市浦东新区沪南公路3150弄",121.571774899975,31.1279297926786,2022-04-25
"浦东新区","上海市浦东新区沪南公路8595弄",121.659354566857,31.0356832137854,2022-04-25
"浦东新区","上海市浦东新区沪南路1351弄",121.536884264815,31.1897022555378,2022-04-25
"浦东新区","上海市浦东新区沪南路2727弄",121.582921973049,31.1481048184037,2022-04-25
"浦东新区","上海市浦东新区沪南路3150弄",121.572258906984,31.1285035199315,2022-04-25
"浦东新区","上海市浦东新区沪南路3158弄",121.572008728899,31.1277255406032,2022-04-25
"浦东新区","上海市浦东新区沪南路3468弄",121.571596496501,31.1222910203693,2022-04-25
"浦东新区","上海市浦东新区花木街道龙王庙村南杨家堂",121.558963805775,31.202723239483,2022-04-25
"浦东新区","上海市浦东新区花山路1001弄",121.588490748566,31.3561458336138,2022-04-25
"浦东新区","上海市浦东新区花山路609弄",121.581581431736,31.3543420185159,2022-04-25
"浦东新区","上海市浦东新区花山路796弄",121.584921331622,31.3547426723196,2022-04-25
"浦东新区","上海市浦东新区华东路998号",121.664323364124,31.2921913773087,2022-04-25
"浦东新区","上海市浦东新区华丰路50弄",121.514504959306,31.1974954638598,2022-04-25
"浦东新区","上海市浦东新区华鹏路300弄",121.53191420992,31.1787183489582,2022-04-25
"浦东新区","上海市浦东新区华夏东路2110弄",121.699235019633,31.2053828459045,2022-04-25
"浦东新区","上海市浦东新区华夏东路2345弄",121.704621978115,31.2064847964045,2022-04-25
"浦东新区","上海市浦东新区华夏东路3038弄",121.719336581691,31.2082751777159,2022-04-25
"浦东新区","上海市浦东新区华夏二路1255弄",121.69800191566,31.1828119771678,2022-04-25
"浦东新区","上海市浦东新区华夏二路1278弄",121.696026452013,31.1815117148297,2022-04-25
"浦东新区","上海市浦东新区华夏二路1455弄",121.699507026542,31.1786218780257,2022-04-25
"浦东新区","上海市浦东新区华夏二路1500弄",121.697079984715,31.1781718849987,2022-04-25
"浦东新区","上海市浦东新区华绣路179弄",121.531950321801,31.1907641544155,2022-04-25
"浦东新区","上海市浦东新区环林东路270弄",121.532781344229,31.1548928849131,2022-04-25
"浦东新区","上海市浦东新区环林东路271弄",121.533164112206,31.1552989527053,2022-04-25
"浦东新区","上海市浦东新区环林东路906弄",121.535471409909,31.1479283479325,2022-04-25
"浦东新区","上海市浦东新区环桥路1136弄",121.584859707864,31.1200779398788,2022-04-25
"浦东新区","上海市浦东新区环桥路1481弄",121.584859707864,31.1200779398788,2022-04-25
"浦东新区","上海市浦东新区环庆南路508弄",121.737905005735,31.233807954925,2022-04-25
"浦东新区","上海市浦东新区惠南镇城南村",121.747588200149,31.0293261852272,2022-04-25
"浦东新区","上海市浦东新区惠南镇黄路村富强",121.772434252589,31.035656061793,2022-04-25
"浦东新区","上海市浦东新区惠南镇惠东村",121.783071627116,31.0463207008159,2022-04-25
"浦东新区","上海市浦东新区惠南镇勤丰村",121.774606624804,31.0533759858684,2022-04-25
"浦东新区","上海市浦东新区惠南镇团结村",121.783774012194,31.0272369426051,2022-04-25
"浦东新区","上海市浦东新区惠南镇徐庙村",121.721202721558,31.0362185164271,2022-04-25
"浦东新区","上海市浦东新区惠南镇英雄村",121.759684602486,31.0341203756928,2022-04-25
"浦东新区","上海市浦东新区季景北路180弄",121.590926503956,31.3478491358925,2022-04-25
"浦东新区","上海市浦东新区季景北路286弄",121.589325004893,31.3486485701932,2022-04-25
"浦东新区","上海市浦东新区济阳路65弄",121.488308933346,31.1730161980026,2022-04-25
"浦东新区","上海市浦东新区佳林路959号",121.619505464942,31.2707878589949,2022-04-25
"浦东新区","上海市浦东新区建中路171弄",121.525530311983,31.1391594184198,2022-04-25
"浦东新区","上海市浦东新区江东路25号",121.555930138237,31.3688276760728,2022-04-25
"浦东新区","上海市浦东新区江高路39弄",121.485615543936,31.1556652311454,2022-04-25
"浦东新区","上海市浦东新区江晖路296弄",121.743787020384,31.179845869759,2022-04-25
"浦东新区","上海市浦东新区胶东路855弄",121.608226340959,31.2672301348097,2022-04-25
"浦东新区","上海市浦东新区胶南路160弄",121.516562528077,31.2051138231562,2022-04-25
"浦东新区","上海市浦东新区金丰路6号生活区",121.661781968006,31.2456428347475,2022-04-25
"浦东新区","上海市浦东新区金港路333号",121.619450308984,31.2603792860984,2022-04-25
"浦东新区","上海市浦东新区金高路2131弄",121.61704653327,31.2674719711318,2022-04-25
"浦东新区","上海市浦东新区金高路58弄",121.612339142906,31.3031778563809,2022-04-25
"浦东新区","上海市浦东新区金工路172弄",121.59656480832,31.2624665878972,2022-04-25
"浦东新区","上海市浦东新区金沪路1218弄",121.610691291278,31.246915347325,2022-04-25
"浦东新区","上海市浦东新区金葵路945弄",121.602138614349,31.2442502059109,2022-04-25
"浦东新区","上海市浦东新区金桥路1498弄",121.595704770625,31.2565196459679,2022-04-25
"浦东新区","上海市浦东新区金桥路226弄",121.621784825343,31.2606638156741,2022-04-25
"浦东新区","上海市浦东新区金桥路989弄",121.621784825343,31.2606638156741,2022-04-25
"浦东新区","上海市浦东新区金湘路201弄",121.619764626082,31.261871069581,2022-04-25
"浦东新区","上海市浦东新区金晓路289弄",121.684608090675,31.2812295286536,2022-04-25
"浦东新区","上海市浦东新区金晓路95号",121.683323513796,31.2846396697398,2022-04-25
"浦东新区","上海市浦东新区锦安东路270弄",121.550419033934,31.2080378983719,2022-04-25
"浦东新区","上海市浦东新区锦安东路280弄",121.550337467793,31.2080117999238,2022-04-25
"浦东新区","上海市浦东新区锦安东路289弄",121.550796501909,31.2077655630243,2022-04-25
"浦东新区","上海市浦东新区锦安东路567弄",121.546611420495,31.2050282334068,2022-04-25
"浦东新区","上海市浦东新区锦和路99弄",121.538124016249,31.212289840715,2022-04-25
"浦东新区","上海市浦东新区锦绣路2885弄",121.550447959371,31.1933237832389,2022-04-25
"浦东新区","上海市浦东新区锦绣路3841弄",121.553378142114,31.1742762577656,2022-04-25
"浦东新区","上海市浦东新区锦绣路4899弄",121.554664515604,31.1560634926233,2022-04-25
"浦东新区","上海市浦东新区京浦路160弄",121.574694572544,31.1599125196442,2022-04-25
"浦东新区","上海市浦东新区京浦路82弄",121.573340197326,31.1596915729849,2022-04-25
"浦东新区","上海市浦东新区泾东一村",121.563932423381,31.2503981319377,2022-04-25
"浦东新区","上海市浦东新区居家桥路151弄",121.56804217109,31.2667841172325,2022-04-25
"浦东新区","上海市浦东新区巨峰路997弄",121.623727321178,31.2870005408357,2022-04-25
"浦东新区","上海市浦东新区巨野路197弄",121.551977683824,31.2480848056137,2022-04-25
"浦东新区","上海市浦东新区巨野路61弄",121.552332604331,31.250494065864,2022-04-25
"浦东新区","上海市浦东新区康达路118弄",121.584859707864,31.1200779398788,2022-04-25
"浦东新区","上海市浦东新区康弘路508弄",121.606984613253,31.1269347261659,2022-04-25
"浦东新区","上海市浦东新区康桥东路1365弄",121.642050328157,31.1665394414955,2022-04-25
"浦东新区","上海市浦东新区康桥路90弄",121.584859707864,31.1200779398788,2022-04-25
"浦东新区","上海市浦东新区康桥镇百龙新村",121.622885968238,31.1472028375623,2022-04-25
"浦东新区","上海市浦东新区康桥镇叠桥村",121.622828746177,31.1338499732159,2022-04-25
"浦东新区","上海市浦东新区康桥镇花墙村",121.55274169266,31.1563281752622,2022-04-25
"浦东新区","上海市浦东新区康桥镇火箭村",121.614989413652,31.1451293459159,2022-04-25
"浦东新区","上海市浦东新区康桥镇人南村",121.633575534315,31.1452932272884,2022-04-25
"浦东新区","上海市浦东新区康桥镇太平村",121.560021740174,31.1293839649748,2022-04-25
"浦东新区","上海市浦东新区康桥镇新苗村",121.643903173102,31.1277161896651,2022-04-25
"浦东新区","上海市浦东新区康桥镇秀龙村",121.569139900423,31.1326056758834,2022-04-25
"浦东新区","上海市浦东新区康杉路151弄",121.567301338536,31.1577240432149,2022-04-25
"浦东新区","上海市浦东新区康杉路608弄",121.536884264815,31.1897022555378,2022-04-25
"浦东新区","上海市浦东新区康沈公路1300弄",121.578537793007,31.1439095371964,2022-04-25
"浦东新区","上海市浦东新区康沈路1238弄",121.581846287351,31.1254125343694,2022-04-25
"浦东新区","上海市浦东新区康沈路1491号",121.582641701729,31.1284233807076,2022-04-25
"浦东新区","上海市浦东新区康沈路2262弄",121.58731262089,31.1071241716612,2022-04-25
"浦东新区","上海市浦东新区康沈路2588弄",121.587931553386,31.1027454801627,2022-04-25
"浦东新区","上海市浦东新区康士路15弄",121.569516739584,31.1556683987021,2022-04-25
"浦东新区","上海市浦东新区康梧路189号工地生活区",121.557148959153,31.1422771769984,2022-04-25
"浦东新区","上海市浦东新区康悦路325弄",121.538534631698,31.36524316521,2022-04-25
"浦东新区","上海市浦东新区康泽路秀海路交界口工地生活区",121.56779935911,31.126095062976,2022-04-25
"浦东新区","上海市浦东新区科农路100弄",121.636263803384,31.1944164540822,2022-04-25
"浦东新区","上海市浦东新区莱阳路1443弄",121.590045356082,31.3010960155363,2022-04-25
"浦东新区","上海市浦东新区莱阳路301弄",121.585947196514,31.2803576852639,2022-04-25
"浦东新区","上海市浦东新区莱阳路451弄",121.58929185742,31.2821589973274,2022-04-25
"浦东新区","上海市浦东新区莱阳路880弄",121.590822300517,31.2883369089077,2022-04-25
"浦东新区","上海市浦东新区兰城路108弄",121.586831308797,31.2715814724312,2022-04-25
"浦东新区","上海市浦东新区兰城路115弄",121.585504152237,31.272452471814,2022-04-25
"浦东新区","上海市浦东新区兰谷路2955弄",121.600622274648,31.2946981659887,2022-04-25
"浦东新区","上海市浦东新区兰陵路23弄",121.523272241422,31.2010150687256,2022-04-25
"浦东新区","上海市浦东新区兰陵路24弄",121.522661573337,31.2007156086114,2022-04-25
"浦东新区","上海市浦东新区兰嵩路360弄",121.599493553774,31.3291411548124,2022-04-25
"浦东新区","上海市浦东新区蓝村路471弄",121.53360158699,31.2179022047027,2022-04-25
"浦东新区","上海市浦东新区蓝村路501弄",121.531969234115,31.218845395827,2022-04-25
"浦东新区","上海市浦东新区崂山路551弄",121.528755677916,31.2325728575384,2022-04-25
"浦东新区","上海市浦东新区崂山路644弄",121.531738321701,31.2287727465936,2022-04-25
"浦东新区","上海市浦东新区崂山路645弄",121.531348816432,31.2278054602837,2022-04-25
"浦东新区","上海市浦东新区崂山路80弄",121.523114678636,31.2441511781966,2022-04-25
"浦东新区","上海市浦东新区崂山三村",121.526396817478,31.2389325085635,2022-04-25
"浦东新区","上海市浦东新区崂山四村",121.524541996261,31.2411728108698,2022-04-25
"浦东新区","上海市浦东新区崂山一村",121.524413538573,31.2456614359234,2022-04-25
"浦东新区","上海市浦东新区老港镇牛肚村",121.835494131592,31.0588987083613,2022-04-25
"浦东新区","上海市浦东新区历城路100弄",121.4979155023,31.1798977733905,2022-04-25
"浦东新区","上海市浦东新区历城路22弄",121.536884264815,31.1897022555378,2022-04-25
"浦东新区","上海市浦东新区历城路81弄",121.499296647022,31.1810995815832,2022-04-25
"浦东新区","上海市浦东新区利津路158弄",121.58730282936,31.2846267083533,2022-04-25
"浦东新区","上海市浦东新区利津路185弄",121.587348373449,31.284879686517,2022-04-25
"浦东新区","上海市浦东新区利津路51弄",121.584990231655,31.2884149055528,2022-04-25
"浦东新区","上海市浦东新区利津路53弄",121.584910282464,31.2856925449248,2022-04-25
"浦东新区","上海市浦东新区连波路26弄",121.558484380125,31.2008978485061,2022-04-25
"浦东新区","上海市浦东新区莲溪路477弄",121.568933829139,31.188689385869,2022-04-25
"浦东新区","上海市浦东新区莲溪路780弄",121.56871715785,31.1834782049839,2022-04-25
"浦东新区","上海市浦东新区莲园路18弄",121.550383281374,31.1909158312077,2022-04-25
"浦东新区","上海市浦东新区莲园路8弄",121.550454606832,31.2273482924363,2022-04-25
"浦东新区","上海市浦东新区莲振路269号",121.574360941877,31.173909356805,2022-04-25
"浦东新区","上海市浦东新区莲中路337弄",121.564751767837,31.1877701093195,2022-04-25
"浦东新区","上海市浦东新区林鸣路326弄",121.532165645632,31.1385712292048,2022-04-25
"浦东新区","上海市浦东新区林浦路1240弄",121.525530311983,31.1391594184198,2022-04-25
"浦东新区","上海市浦东新区林展路267弄",121.513993014996,31.133678885242,2022-04-25
"浦东新区","上海市浦东新区临沂北路210弄",121.525542798429,31.2106243111584,2022-04-25
"浦东新区","上海市浦东新区临沂路101弄",121.521040491213,31.2013230220684,2022-04-25
"浦东新区","上海市浦东新区临沂路181弄",121.520668143579,31.1975792508032,2022-04-25
"浦东新区","上海市浦东新区临沂路280弄",121.516029653248,31.198943924921,2022-04-25
"浦东新区","上海市浦东新区临沂路301弄",121.516514468732,31.1967603750118,2022-04-25
"浦东新区","上海市浦东新区临沂路81弄",121.525886040965,31.2013416320549,2022-04-25
"浦东新区","上海市浦东新区临沂路98号",121.520733989373,31.2017990813495,2022-04-25
"浦东新区","上海市浦东新区灵山路785弄",121.5568321268,31.2383432470385,2022-04-25
"浦东新区","上海市浦东新区灵岩路56弄",121.500072962644,31.1725382931417,2022-04-25
"浦东新区","上海市浦东新区灵岩路79弄",121.500556789991,31.1724193379408,2022-04-25
"浦东新区","上海市浦东新区灵岩南路1180弄",121.50701093542,31.1460322738654,2022-04-25
"浦东新区","上海市浦东新区灵岩南路156弄",121.500710759556,31.1648391859701,2022-04-25
"浦东新区","上海市浦东新区灵岩南路380弄",121.503294286203,31.1590254851873,2022-04-25
"浦东新区","上海市浦东新区凌河路188弄",121.602161970292,31.2819038514981,2022-04-25
"浦东新区","上海市浦东新区凌河路38弄",121.600753606913,31.2825696826637,2022-04-25
"浦东新区","上海市浦东新区凌河路420弄",121.605932248348,31.2799170540613,2022-04-25
"浦东新区","上海市浦东新区凌河路618弄",121.608152859568,31.276965751274,2022-04-25
"浦东新区","上海市浦东新区凌环路51弄",121.547374766391,31.374080628981,2022-04-25
"浦东新区","上海市浦东新区凌兆路127弄",121.500027777877,31.1477960721254,2022-04-25
"浦东新区","上海市浦东新区凌兆路285弄",121.525530311983,31.1391594184198,2022-04-25
"浦东新区","上海市浦东新区凌兆路379弄",121.525530311983,31.1391594184198,2022-04-25
"浦东新区","上海市浦东新区凌兆路396弄",121.525530311983,31.1391594184198,2022-04-25
"浦东新区","上海市浦东新区凌兆路405弄",121.503617496525,31.1501844252866,2022-04-25
"浦东新区","上海市浦东新区凌兆路500弄",121.50674692343,31.1491084685835,2022-04-25
"浦东新区","上海市浦东新区凌兆路555弄",121.508150525789,31.1502543473656,2022-04-25
"浦东新区","上海市浦东新区凌兆路88弄",121.497951075199,31.1466177120683,2022-04-25
"浦东新区","上海市浦东新区柳埠路135弄",121.588934241996,31.2688910299805,2022-04-25
"浦东新区","上海市浦东新区龙居路147号",121.569253176748,31.2587749614111,2022-04-25
"浦东新区","上海市浦东新区龙居路180弄",121.568971737631,31.2585512381558,2022-04-25
"浦东新区","上海市浦东新区龙居路191弄",121.569897171968,31.2579176485215,2022-04-25
"浦东新区","上海市浦东新区龙阳路1188号",121.537174956478,31.2042222743912,2022-04-25
"浦东新区","上海市浦东新区龙阳路158号工地生活区",121.518246401755,31.2084501447872,2022-04-25
"浦东新区","上海市浦东新区龙阳路1880弄",121.559292495761,31.2066989150554,2022-04-25
"浦东新区","上海市浦东新区罗山路108弄",121.558879454888,31.2546415897529,2022-04-25
"浦东新区","上海市浦东新区罗山路1502弄",121.575171482939,31.2348882658017,2022-04-25
"浦东新区","上海市浦东新区罗山路4088弄",121.584759995952,31.1863358407189,2022-04-25
"浦东新区","上海市浦东新区苗圃路218弄",121.554079718717,31.2486647440626,2022-04-25
"浦东新区","上海市浦东新区苗桥路455号生活区",121.635618370875,31.1329179495431,2022-04-25
"浦东新区","上海市浦东新区妙川路1111弄",121.720690956908,31.1884085761446,2022-04-25
"浦东新区","上海市浦东新区民春路501弄",121.652778790863,31.290487771739,2022-04-25
"浦东新区","上海市浦东新区民春路516弄",121.652778790863,31.290487771739,2022-04-25
"浦东新区","上海市浦东新区民生路369弄",121.548666709375,31.2466026042849,2022-04-25
"浦东新区","上海市浦东新区民生路423号",121.549549653861,31.2461534009509,2022-04-25
"浦东新区","上海市浦东新区民雪路918弄",121.665106057715,31.2764061266504,2022-04-25
"浦东新区","上海市浦东新区民耀路227弄",121.660517423339,31.2798933674713,2022-04-25
"浦东新区","上海市浦东新区民耀路391弄",121.652778790863,31.290487771739,2022-04-25
"浦东新区","上海市浦东新区民雨路336弄",121.652778790863,31.290487771739,2022-04-25
"浦东新区","上海市浦东新区牟平路56弄",121.603134745329,31.2714599423713,2022-04-25
"浦东新区","上海市浦东新区牡丹路165弄",121.552244480561,31.2137752108178,2022-04-25
"浦东新区","上海市浦东新区南曹路901弄",121.670398694119,31.2084526156349,2022-04-25
"浦东新区","上海市浦东新区南码头路1136弄",121.519727887202,31.1898749404218,2022-04-25
"浦东新区","上海市浦东新区南码头路144弄",121.514083474361,31.2046377807221,2022-04-25
"浦东新区","上海市浦东新区南码头路1453弄",121.522881029373,31.1846493055372,2022-04-25
"浦东新区","上海市浦东新区南码头路1675弄",121.520848882648,31.1809040184718,2022-04-25
"浦东新区","上海市浦东新区南码头路450弄",121.516319536436,31.2003681163043,2022-04-25
"浦东新区","上海市浦东新区南码头路56号",121.512973887395,31.2060730818495,2022-04-25
"浦东新区","上海市浦东新区南桥路459弄",121.707911842385,31.195454514332,2022-04-25
"浦东新区","上海市浦东新区南泉北路101弄",121.522040215415,31.244123854865,2022-04-25
"浦东新区","上海市浦东新区南泉路1111弄",121.529533610488,31.2193315893455,2022-04-25
"浦东新区","上海市浦东新区南泉路1211弄",121.529722254645,31.2192635716987,2022-04-25
"浦东新区","上海市浦东新区南泉路1250弄",121.527931123289,31.2177477149724,2022-04-25
"浦东新区","上海市浦东新区南泉路1300弄",121.528930308507,31.217418043381,2022-04-25
"浦东新区","上海市浦东新区南泉路1320弄",121.526560398911,31.2157341523422,2022-04-25
"浦东新区","上海市浦东新区南团公路3301弄",121.753795760715,30.9700143647737,2022-04-25
"浦东新区","上海市浦东新区泥城路180弄",121.828489684209,30.9028223096947,2022-04-25
"浦东新区","上海市浦东新区年家浜东路129弄",121.598925375539,31.1203651370632,2022-04-25
"浦东新区","上海市浦东新区宁阳路14弄",121.522733437777,31.2174477679163,2022-04-25
"浦东新区","上海市浦东新区宁阳路3弄",121.550454606832,31.2273482924363,2022-04-25
"浦东新区","上海市浦东新区农科路21弄",121.550454606832,31.2273482924363,2022-04-25
"浦东新区","上海市浦东新区鹏飞路333弄",121.536884264815,31.1897022555378,2022-04-25
"浦东新区","上海市浦东新区鹏岳路152弄",121.560933340606,31.1772149667974,2022-04-25
"浦东新区","上海市浦东新区鹏岳路70弄",121.558803637903,31.1809368440621,2022-04-25
"浦东新区","上海市浦东新区平度路388弄",121.598954121316,31.2590625055881,2022-04-25
"浦东新区","上海市浦东新区浦城路580弄",121.521080555639,31.230158967011,2022-04-25
"浦东新区","上海市浦东新区浦电路138弄",121.528464716762,31.2248821568414,2022-04-25
"浦东新区","上海市浦东新区浦电路149弄",121.527706996064,31.2244778572583,2022-04-25
"浦东新区","上海市浦东新区浦电路218号",121.530503780439,31.2254074271682,2022-04-25
"浦东新区","上海市浦东新区浦电路221号",121.530044566662,31.2249883073877,2022-04-25
"浦东新区","上海市浦东新区浦电路29弄",121.521798301741,31.2219827721666,2022-04-25
"浦东新区","上海市浦东新区浦电路300号",121.531610582658,31.2256760828096,2022-04-25
"浦东新区","上海市浦东新区浦电路305弄",121.531913940428,31.2253816423621,2022-04-25
"浦东新区","上海市浦东新区浦电路311号",121.533171747803,31.2257702665013,2022-04-25
"浦东新区","上海市浦东新区浦电路330弄",121.534528817937,31.2266271793415,2022-04-25
"浦东新区","上海市浦东新区浦电路331弄",121.535182335196,31.225922581402,2022-04-25
"浦东新区","上海市浦东新区浦电路48弄",121.523018290455,31.2247743849636,2022-04-25
"浦东新区","上海市浦东新区浦东大道136弄",121.520173536566,31.2440242095398,2022-04-25
"浦东新区","上海市浦东新区浦东大道140弄",121.521669035579,31.2440488314387,2022-04-25
"浦东新区","上海市浦东新区浦东大道1558号工地生活区",121.545713601876,31.2490147892796,2022-04-25
"浦东新区","上海市浦东新区浦东大道1615弄",121.547795712353,31.2519762055034,2022-04-25
"浦东新区","上海市浦东新区浦东大道1623弄",121.549043907859,31.2517675929144,2022-04-25
"浦东新区","上海市浦东新区浦东大道1695弄",121.550783925632,31.2536836006242,2022-04-25
"浦东新区","上海市浦东新区浦东大道1851弄",121.552497443392,31.2531016867014,2022-04-25
"浦东新区","上海市浦东新区浦东大道2250弄",121.559305700852,31.2578700326592,2022-04-25
"浦东新区","上海市浦东新区浦东大道2388弄",121.56421098792,31.2612704542229,2022-04-25
"浦东新区","上海市浦东新区浦东大道2516号",121.565109023938,31.2637733657284,2022-04-25
"浦东新区","上海市浦东新区浦东大道2567弄",121.569413703942,31.2670251058868,2022-04-25
"浦东新区","上海市浦东新区浦东大道2639弄",121.573829414507,31.2700964028423,2022-04-25
"浦东新区","上海市浦东新区浦东大道2742弄",121.577979316472,31.2729270889842,2022-04-25
"浦东新区","上海市浦东新区浦东大道2894号",121.582823967917,31.2789444329845,2022-04-25
"浦东新区","上海市浦东新区浦东大道290弄",121.523437799128,31.2448877473747,2022-04-25
"浦东新区","上海市浦东新区浦东大道2970弄",121.585274365688,31.2829352319847,2022-04-25
"浦东新区","上海市浦东新区浦东大道3036弄",121.584040992222,31.2856868358072,2022-04-25
"浦东新区","上海市浦东新区浦东大道709号",121.531872259053,31.246929008584,2022-04-25
"浦东新区","上海市浦东新区浦东南路1288号",121.523559878847,31.2308961867454,2022-04-25
"浦东新区","上海市浦东新区浦东南路1533号",121.527644653661,31.2273723011377,2022-04-25
"浦东新区","上海市浦东新区浦东南路1650弄",121.524288314785,31.2245473379296,2022-04-25
"浦东新区","上海市浦东新区浦东南路1700弄",121.525060767693,31.2237849777418,2022-04-25
"浦东新区","上海市浦东新区浦东南路2108号",121.522886149714,31.2157862677185,2022-04-25
"浦东新区","上海市浦东新区浦东南路2192弄",121.519879611003,31.2122755567109,2022-04-25
"浦东新区","上海市浦东新区浦东南路2351弄",121.519461719279,31.2055986658343,2022-04-25
"浦东新区","上海市浦东新区浦东南路2362号",121.518109140673,31.2052909581985,2022-04-25
"浦东新区","上海市浦东新区浦东南路2366号",121.517813149008,31.2049444866844,2022-04-25
"浦东新区","上海市浦东新区浦东南路3405弄",121.515403264816,31.2003488111383,2022-04-25
"浦东新区","上海市浦东新区浦东南路3666弄",121.510436084499,31.1946220283019,2022-04-25
"浦东新区","上海市浦东新区浦东南路3905弄",121.508197686829,31.1889342827717,2022-04-25
"浦东新区","上海市浦东新区浦东南路4250弄",121.513775535232,31.2014589289388,2022-04-25
"浦东新区","上海市浦东新区浦建路207弄",121.530780009383,31.2145855992917,2022-04-25
"浦东新区","上海市浦东新区浦建路47号",121.525878674859,31.2161560158293,2022-04-25
"浦东新区","上海市浦东新区浦建路83弄",121.525390176323,31.2156239764809,2022-04-25
"浦东新区","上海市浦东新区浦明路233弄",121.517192869053,31.2325821208295,2022-04-25
"浦东新区","上海市浦东新区浦三路12弄",121.517827791387,31.2027220039836,2022-04-25
"浦东新区","上海市浦东新区浦三路277弄",121.521689337283,31.1993452459115,2022-04-25
"浦东新区","上海市浦东新区浦三路2801弄",121.536884264815,31.1897022555378,2022-04-25
"浦东新区","上海市浦东新区浦三路603号",121.522910763285,31.1947278270295,2022-04-25
"浦东新区","上海市浦东新区浦三路775弄",121.526729010855,31.1896008532192,2022-04-25
"浦东新区","上海市浦东新区浦三路821弄",121.526233505536,31.1880266704801,2022-04-25
"浦东新区","上海市浦东新区浦三路秀浦路交界口工地生活区",121.616024890413,31.1357172383185,2022-04-25
"浦东新区","上海市浦东新区栖山路1636弄",121.573774617871,31.2647932169634,2022-04-25
"浦东新区","上海市浦东新区栖山路1861弄",121.577100953344,31.2677848758461,2022-04-25
"浦东新区","上海市浦东新区栖山路400弄",121.557578978001,31.2520178816585,2022-04-25
"浦东新区","上海市浦东新区栖山路401弄",121.556033443371,31.2539878305727,2022-04-25
"浦东新区","上海市浦东新区栖霞路190弄",121.526081152921,31.2441861427874,2022-04-25
"浦东新区","上海市浦东新区齐河路259弄",121.510827925362,31.1867545156535,2022-04-25
"浦东新区","上海市浦东新区千汇路581弄",121.771476030101,31.1174959081212,2022-04-25
"浦东新区","上海市浦东新区勤奋路川南奉公路交界口工地生活区",121.781922245216,31.0424512421693,2022-04-25
"浦东新区","上海市浦东新区青桐路18弄",121.627538741626,31.2237784928285,2022-04-25
"浦东新区","上海市浦东新区青桐路199弄",121.629029659281,31.2245494995497,2022-04-25
"浦东新区","上海市浦东新区清溪路260弄",121.580223283635,31.3489553432852,2022-04-25
"浦东新区","上海市浦东新区清溪路400弄",121.577475636572,31.3476508374997,2022-04-25
"浦东新区","上海市浦东新区庆利路185弄",121.731212180533,31.2414790883826,2022-04-25
"浦东新区","上海市浦东新区庆利路425弄",121.732244782717,31.2375488882221,2022-04-25
"浦东新区","上海市浦东新区秋霞路300弄",121.593594201829,31.340699641535,2022-04-25
"浦东新区","上海市浦东新区乳山路161弄",121.528018079262,31.2415971840306,2022-04-25
"浦东新区","上海市浦东新区瑞安路211弄",121.597322259526,31.0967757195941,2022-04-25
"浦东新区","上海市浦东新区瑞浦路8弄",121.550454606832,31.2273482924363,2022-04-25
"浦东新区","上海市浦东新区瑞阳路693弄",121.5976750241,31.0945438710696,2022-04-25
"浦东新区","上海市浦东新区三彩路166弄",121.525530311983,31.1391594184198,2022-04-25
"浦东新区","上海市浦东新区三彩路52弄",121.525530311983,31.1391594184198,2022-04-25
"浦东新区","上海市浦东新区三林路1300弄",121.525630203555,31.1490867577116,2022-04-25
"浦东新区","上海市浦东新区三林路1466弄",121.527799521531,31.1515703407127,2022-04-25
"浦东新区","上海市浦东新区三林路168号",121.50263852318,31.1415921892231,2022-04-25
"浦东新区","上海市浦东新区三林路184号",121.502530996011,31.1424148693693,2022-04-25
"浦东新区","上海市浦东新区三林路235号",121.502736528311,31.1436912572177,2022-04-25
"浦东新区","上海市浦东新区三林路359弄",121.536884264815,31.1897022555378,2022-04-25
"浦东新区","上海市浦东新区三林路788弄",121.514306433788,31.1473404454447,2022-04-25
"浦东新区","上海市浦东新区三林路88弄",121.536884264815,31.1897022555378,2022-04-25
"浦东新区","上海市浦东新区三林镇红旗村东桥队毛家塘",121.507890556175,31.1336601072747,2022-04-25
"浦东新区","上海市浦东新区三林镇胡巷村陈家宅",121.52500489309,31.1587157705195,2022-04-25
"浦东新区","上海市浦东新区三林镇胡巷村金家宅",121.52500489309,31.1587157705195,2022-04-25
"浦东新区","上海市浦东新区三林镇联丰村顾家队顾家宅",121.520244592531,31.1570592548077,2022-04-25
"浦东新区","上海市浦东新区三林镇临江村临江队王家渡",121.481034545157,31.1308233546774,2022-04-25
"浦东新区","上海市浦东新区三林镇临江村王家渡队王家渡",121.481034545157,31.1308233546774,2022-04-25
"浦东新区","上海市浦东新区三林镇临江村王家宅队王家宅",121.484029855049,31.1268779245209,2022-04-25
"浦东新区","上海市浦东新区三林镇临江村益民队小陈家宅",121.524726687873,31.1243504097577,2022-04-25
"浦东新区","上海市浦东新区三林镇临江村筠西队庞家宅",121.482806722267,31.124007039641,2022-04-25
"浦东新区","上海市浦东新区三林镇临江村张塘队塘湾宅",121.49501181957,31.1315686973293,2022-04-25
"浦东新区","上海市浦东新区三林镇临江村张塘队张家宅",121.485179506441,31.1293456345277,2022-04-25
"浦东新区","上海市浦东新区三林镇临江村周南队庞信隆",121.479922892088,31.1219352770893,2022-04-25
"浦东新区","上海市浦东新区三林镇临江村周南队周家宅",121.478736410171,31.1240123722048,2022-04-25
"浦东新区","上海市浦东新区三林镇南阜村曹家队蚌壳滩",121.526167659742,31.1360516018922,2022-04-25
"浦东新区","上海市浦东新区三林镇南阜村东汤家宅",121.526167659742,31.1360516018922,2022-04-25
"浦东新区","上海市浦东新区三林镇南阜村红光队顾家宅",121.526167659742,31.1360516018922,2022-04-25
"浦东新区","上海市浦东新区三林镇南阜村红光队南孙家宅",121.526784975288,31.1394910652598,2022-04-25
"浦东新区","上海市浦东新区三林镇三林村镇前队金家宅",121.593249522005,31.1310947543661,2022-04-25
"浦东新区","上海市浦东新区三林镇天花庵村北陈队大陈家宅",121.531939542135,31.1285359001772,2022-04-25
"浦东新区","上海市浦东新区三林镇天花庵村东瞿队大瞿家宅",121.532611205165,31.1270776188598,2022-04-25
"浦东新区","上海市浦东新区三林镇天花庵村乐耕队",121.528534964252,31.1325218308858,2022-04-25
"浦东新区","上海市浦东新区三林镇天花庵村芦家队芦家油车",121.533159710509,31.1300725193346,2022-04-25
"浦东新区","上海市浦东新区三林镇天花庵村闵北队闵家宅",121.539890174712,31.126238497919,2022-04-25
"浦东新区","上海市浦东新区三林镇天花庵村闵西队闵家宅",121.539890174712,31.126238497919,2022-04-25
"浦东新区","上海市浦东新区三林镇天花庵村南陈队大陈家宅",121.531939542135,31.1285359001772,2022-04-25
"浦东新区","上海市浦东新区三林镇天花庵村南王家队南王家宅",121.55380142367,31.1628451123625,2022-04-25
"浦东新区","上海市浦东新区三林镇天花庵村卫家队",121.531269675716,31.1327837206808,2022-04-25
"浦东新区","上海市浦东新区三林镇天花庵村西瞿队大瞿家宅",121.532611205165,31.1270776188598,2022-04-25
"浦东新区","上海市浦东新区三林镇西林村洪家队洪家新宅",121.504634198701,31.1395246780499,2022-04-25
"浦东新区","上海市浦东新区三林镇西林村圈门队西林街",121.505050473475,31.1424654028824,2022-04-25
"浦东新区","上海市浦东新区三林镇西林村任桥队西林街",121.505050473475,31.1424654028824,2022-04-25
"浦东新区","上海市浦东新区三林镇西林村万家队西林街",121.505050473475,31.1424654028824,2022-04-25
"浦东新区","上海市浦东新区三林镇新春村陈桥队陈家桥",121.482444895587,31.1340229536591,2022-04-25
"浦东新区","上海市浦东新区三林镇新任村",121.502813063941,31.1618677203956,2022-04-25
"浦东新区","上海市浦东新区三林镇懿德村康家队康家宅",121.522822549684,31.1249738516842,2022-04-25
"浦东新区","上海市浦东新区三林镇懿德村钱家队钱家宅",121.523370965198,31.1281353580724,2022-04-25
"浦东新区","上海市浦东新区三林镇懿德村吴家队吴家宅",121.522180979889,31.1256048631317,2022-04-25
"浦东新区","上海市浦东新区三林镇中林村三林桥队三林桥",121.505046161608,31.1424974692412,2022-04-25
"浦东新区","上海市浦东新区三舒路181弄",121.525530311983,31.1391594184198,2022-04-25
"浦东新区","上海市浦东新区三舒路192弄",121.510630657472,31.1278552944324,2022-04-25
"浦东新区","上海市浦东新区三舒路288弄",121.525530311983,31.1391594184198,2022-04-25
"浦东新区","上海市浦东新区三舒路33弄",121.511249500138,31.1314993022756,2022-04-25
"浦东新区","上海市浦东新区三舒路62弄",121.509892699496,31.1304092986302,2022-04-25
"浦东新区","上海市浦东新区三旋路506弄",121.525530311983,31.1391594184198,2022-04-25
"浦东新区","上海市浦东新区上川路620号",121.654460957761,31.2797095840184,2022-04-25
"浦东新区","上海市浦东新区上南路1000弄",121.50066746123,31.1805938353858,2022-04-25
"浦东新区","上海市浦东新区上南路1251弄",121.502606274012,31.1785212361064,2022-04-25
"浦东新区","上海市浦东新区上南路1500弄",121.502331302696,31.1749569131774,2022-04-25
"浦东新区","上海市浦东新区上南路1551弄",121.504524605429,31.1745415069555,2022-04-25
"浦东新区","上海市浦东新区上南路3333弄",121.510000496157,31.1650199506295,2022-04-25
"浦东新区","上海市浦东新区上南路3500弄",121.525530311983,31.1391594184198,2022-04-25
"浦东新区","上海市浦东新区上南路3521号",121.511585466399,31.1615953281232,2022-04-25
"浦东新区","上海市浦东新区上南路3651弄",121.513459421523,31.1605853221933,2022-04-25
"浦东新区","上海市浦东新区上南路3848弄",121.511836003805,31.1560752357101,2022-04-25
"浦东新区","上海市浦东新区上南路3880弄",121.512285965035,31.1550669472926,2022-04-25
"浦东新区","上海市浦东新区上南路4071弄",121.515375686837,31.1527025144341,2022-04-25
"浦东新区","上海市浦东新区上南路4185弄",121.51939174128,31.1519459822317,2022-04-25
"浦东新区","上海市浦东新区上南路4265弄",121.519804782154,31.1518099263142,2022-04-25
"浦东新区","上海市浦东新区上南路5588号",121.534100685531,31.1291441675857,2022-04-25
"浦东新区","上海市浦东新区上南路6555弄",121.584859707864,31.1200779398788,2022-04-25
"浦东新区","上海市浦东新区上南路6733弄",121.584859707864,31.1200779398788,2022-04-25
"浦东新区","上海市浦东新区上南路6852号",121.584859707864,31.1200779398788,2022-04-25
"浦东新区","上海市浦东新区上南路7718弄",121.584859707864,31.1200779398788,2022-04-25
"浦东新区","上海市浦东新区上南路929弄",121.507678825566,31.1860937173936,2022-04-25
"浦东新区","上海市浦东新区上浦路165弄",121.49894576889,31.1519805176887,2022-04-25
"浦东新区","上海市浦东新区上浦路36弄",121.496318404934,31.15038414733,2022-04-25
"浦东新区","上海市浦东新区申江路轲桥路交界口工地生活区",121.636677742563,31.2908116312254,2022-04-25
"浦东新区","上海市浦东新区沈家弄路877弄",121.552906531721,31.2444312032937,2022-04-25
"浦东新区","上海市浦东新区沈家弄路901弄",121.552898267311,31.2449719550083,2022-04-25
"浦东新区","上海市浦东新区盛夏路1107弄",121.640893669982,31.2039764136165,2022-04-25
"浦东新区","上海市浦东新区施湾二路1026弄",121.755632525991,31.1472254760431,2022-04-25
"浦东新区","上海市浦东新区施湾二路766弄",121.753094902756,31.1521468594324,2022-04-25
"浦东新区","上海市浦东新区世博家园大道站路94弄",121.545610314708,31.1654593463491,2022-04-25
"浦东新区","上海市浦东新区世纪大道杨高南路交界口工地生活区",121.541837162075,31.2239095034302,2022-04-25
"浦东新区","上海市浦东新区书院镇四灶村",121.888128636169,30.9748749635322,2022-04-25
"浦东新区","上海市浦东新区书院镇洼港村",121.883607374706,30.9913838986033,2022-04-25
"浦东新区","上海市浦东新区曙光路25弄",121.715513932424,31.1988983640303,2022-04-25
"浦东新区","上海市浦东新区双桥路1108弄",121.5896261169,31.2815848989426,2022-04-25
"浦东新区","上海市浦东新区水洞港路69弄",121.672470006963,31.3016768591264,2022-04-25
"浦东新区","上海市浦东新区思浦路16弄",121.500437405189,31.1636002434294,2022-04-25
"浦东新区","上海市浦东新区孙环路177弄",121.644806267509,31.190250417896,2022-04-25
"浦东新区","上海市浦东新区孙建路111弄",121.63269609322,31.1875765681358,2022-04-25
"浦东新区","上海市浦东新区孙建路665弄",121.64188773486,31.1889728978036,2022-04-25
"浦东新区","上海市浦东新区孙桥路238弄",121.636439152619,31.187480878632,2022-04-25
"浦东新区","上海市浦东新区台儿庄路363弄",121.600337960954,31.264978881782,2022-04-25
"浦东新区","上海市浦东新区台儿庄路663弄",121.600337960954,31.264978881782,2022-04-25
"浦东新区","上海市浦东新区唐兴路191弄",121.636263803384,31.1944164540822,2022-04-25
"浦东新区","上海市浦东新区唐镇大众村包家宅",121.654887203725,31.2451490146246,2022-04-25
"浦东新区","上海市浦东新区唐镇大众村中心新村",121.654636127335,31.2345319459938,2022-04-25
"浦东新区","上海市浦东新区唐镇虹二村盛家宅",121.664209009833,31.2534517616121,2022-04-25
"浦东新区","上海市浦东新区唐镇虹二村朱家宅",121.668338969415,31.2583088385362,2022-04-25
"浦东新区","上海市浦东新区唐镇虹三村顾家宅",121.679576681514,31.2599663423934,2022-04-25
"浦东新区","上海市浦东新区唐镇虹四村卫家宅",121.662704527764,31.2466238294749,2022-04-25
"浦东新区","上海市浦东新区唐镇虹四村吴张家宅",121.658368227407,31.2467905435275,2022-04-25
"浦东新区","上海市浦东新区唐镇路127弄",121.656604943521,31.2133554984813,2022-04-25
"浦东新区","上海市浦东新区唐镇路366弄",121.66105398122,31.2154456256526,2022-04-25
"浦东新区","上海市浦东新区唐镇吕三村百胜新村",121.645558660326,31.222123744433,2022-04-25
"浦东新区","上海市浦东新区唐镇吕三村三林新村",121.648444197285,31.2220812829293,2022-04-25
"浦东新区","上海市浦东新区唐镇民丰村龚家宅",121.644742190448,31.2076757624511,2022-04-25
"浦东新区","上海市浦东新区唐镇民丰村顾家宅",121.648615953299,31.2142128338184,2022-04-25
"浦东新区","上海市浦东新区唐镇民丰村江北宅",121.648615953299,31.2142128338184,2022-04-25
"浦东新区","上海市浦东新区唐镇暮二村曹家宅",121.682574057509,31.2244915217944,2022-04-25
"浦东新区","上海市浦东新区唐镇暮二村费家宅",121.682574057509,31.2244915217944,2022-04-25
"浦东新区","上海市浦东新区唐镇前进村东窑新村",121.648552173608,31.2141666626809,2022-04-25
"浦东新区","上海市浦东新区唐镇前进村顾家宅",121.648552173608,31.2141666626809,2022-04-25
"浦东新区","上海市浦东新区唐镇前进村西李家宅",121.648552173608,31.2141666626809,2022-04-25
"浦东新区","上海市浦东新区唐镇唐四村费家宅",121.666776995794,31.2184358524245,2022-04-25
"浦东新区","上海市浦东新区唐镇唐四村龚家宅",121.667689494531,31.2210198162809,2022-04-25
"浦东新区","上海市浦东新区唐镇唐四村黄家东宅",121.673744882143,31.2241561610778,2022-04-25
"浦东新区","上海市浦东新区唐镇唐镇村赵家宅",121.657245255689,31.2051588405069,2022-04-25
"浦东新区","上海市浦东新区唐镇小湾村北街",121.697839941295,31.2397379836963,2022-04-25
"浦东新区","上海市浦东新区唐镇小湾村北张家宅",121.691947606014,31.2362337931142,2022-04-25
"浦东新区","上海市浦东新区唐镇小湾村东张家宅",121.691947606014,31.2362337931142,2022-04-25
"浦东新区","上海市浦东新区唐镇小湾村南街",121.661543557723,31.2142274263638,2022-04-25
"浦东新区","上海市浦东新区唐镇小湾村唐家宅",121.696076936782,31.2397902271145,2022-04-25
"浦东新区","上海市浦东新区唐镇小湾村张家宅",121.691947606014,31.2362337931142,2022-04-25
"浦东新区","上海市浦东新区唐镇新虹村东包家宅",121.654887203725,31.2451490146246,2022-04-25
"浦东新区","上海市浦东新区唐镇新虹村陆家宅",121.655033627523,31.2487133679639,2022-04-25
"浦东新区","上海市浦东新区唐镇新虹村缪家宅",121.655033627523,31.2487133679639,2022-04-25
"浦东新区","上海市浦东新区唐镇新虹村瞿家宅",121.655033627523,31.2487133679639,2022-04-25
"浦东新区","上海市浦东新区唐镇新虹村赵家宅",121.655033627523,31.2487133679639,2022-04-25
"浦东新区","上海市浦东新区唐镇新镇村谢家宅",121.648514804098,31.2218474355031,2022-04-25
"浦东新区","上海市浦东新区塘南路159弄",121.516400833085,31.2080020709147,2022-04-25
"浦东新区","上海市浦东新区塘桥路551号",121.527653007903,31.2169058534111,2022-04-25
"浦东新区","上海市浦东新区听达路185弄",121.774859587635,31.0609104552718,2022-04-25
"浦东新区","上海市浦东新区听谐路73弄",121.758974042827,31.0636258162458,2022-04-25
"浦东新区","上海市浦东新区万德路67弄",121.567109550309,31.2545921971755,2022-04-25
"浦东新区","上海市浦东新区万祥镇新路村果园",121.839406970732,30.9797782704016,2022-04-25
"浦东新区","上海市浦东新区王桥街41弄",121.70667209095,31.2088406151349,2022-04-25
"浦东新区","上海市浦东新区微山二村",121.519896858468,31.2144186734285,2022-04-25
"浦东新区","上海市浦东新区潍坊路154弄",121.532304344003,31.2313464668942,2022-04-25
"浦东新区","上海市浦东新区潍坊路168弄",121.53400923803,31.2319187124804,2022-04-25
"浦东新区","上海市浦东新区潍坊路208弄",121.53681994614,31.2319107614326,2022-04-25
"浦东新区","上海市浦东新区潍坊路328号工地生活区",121.541579887377,31.2342464105756,2022-04-25
"浦东新区","上海市浦东新区潍坊路333弄",121.526092202079,31.2293004653799,2022-04-25
"浦东新区","上海市浦东新区潍坊路335弄",121.538270619708,31.2337883478814,2022-04-25
"浦东新区","上海市浦东新区潍坊路355弄",121.538217979006,31.2351453926189,2022-04-25
"浦东新区","上海市浦东新区潍坊路375弄",121.541472090715,31.2347481618797,2022-04-25
"浦东新区","上海市浦东新区潍坊路606号",121.528018797906,31.2292048956976,2022-04-25
"浦东新区","上海市浦东新区潍坊路89弄",121.526387025948,31.2297083723614,2022-04-25
"浦东新区","上海市浦东新区潍坊西路1弄",121.550454606832,31.2273482924363,2022-04-25
"浦东新区","上海市浦东新区五莲路100弄",121.585797359155,31.2816781004793,2022-04-25
"浦东新区","上海市浦东新区五莲路1047弄",121.601390415689,31.2777458097831,2022-04-25
"浦东新区","上海市浦东新区五莲路108弄",121.588773624971,31.2771578731139,2022-04-25
"浦东新区","上海市浦东新区五莲路1168号",121.602929392689,31.2784563440545,2022-04-25
"浦东新区","上海市浦东新区五莲路1424弄",121.606921013223,31.281810881647,2022-04-25
"浦东新区","上海市浦东新区五莲路201弄",121.587086158071,31.2826666637015,2022-04-25
"浦东新区","上海市浦东新区五莲路759弄",121.597702871571,31.2763872229612,2022-04-25
"浦东新区","上海市浦东新区五星路151弄",121.536884264815,31.1897022555378,2022-04-25
"浦东新区","上海市浦东新区五星路239弄",121.569954483859,31.1817814232373,2022-04-25
"浦东新区","上海市浦东新区西三里桥路8弄",121.513220382427,31.2049394675868,2022-04-25
"浦东新区","上海市浦东新区西三里桥路9弄",121.550454606832,31.2273482924363,2022-04-25
"浦东新区","上海市浦东新区西泰林路750弄",121.544512854867,31.1490233248509,2022-04-25
"浦东新区","上海市浦东新区西泰林路850弄",121.546822039011,31.1487391512895,2022-04-25
"浦东新区","上海市浦东新区西泰林路901弄",121.54507097208,31.1494599367676,2022-04-25
"浦东新区","上海市浦东新区西营南路68弄",121.525530311983,31.1391594184198,2022-04-25
"浦东新区","上海市浦东新区霞玉路436弄",121.696086997804,31.2622910273004,2022-04-25
"浦东新区","上海市浦东新区下南路1071弄",121.541526977182,31.1913899354429,2022-04-25
"浦东新区","上海市浦东新区下南路276弄",121.536884264815,31.1897022555378,2022-04-25
"浦东新区","上海市浦东新区下南路309弄",121.529696185109,31.2072012517119,2022-04-25
"浦东新区","上海市浦东新区下南路320弄",121.547891741212,31.1755488136572,2022-04-25
"浦东新区","上海市浦东新区下南路339弄",121.550641274717,31.1767910741702,2022-04-25
"浦东新区","上海市浦东新区下南路370弄",121.536884264815,31.1897022555378,2022-04-25
"浦东新区","上海市浦东新区下南路500弄",121.543720818899,31.1779675877605,2022-04-25
"浦东新区","上海市浦东新区下南路501弄",121.536884264815,31.1897022555378,2022-04-25
"浦东新区","上海市浦东新区下南路526弄",121.544402003967,31.1780418917603,2022-04-25
"浦东新区","上海市浦东新区下南路971弄",121.543223247477,31.1887076122136,2022-04-25
"浦东新区","上海市浦东新区香楠路65弄",121.62168313716,31.22342205351,2022-04-25
"浦东新区","上海市浦东新区小南码头路4弄",121.550454606832,31.2273482924363,2022-04-25
"浦东新区","上海市浦东新区歇浦路288号",121.555977029785,31.2567798774502,2022-04-25
"浦东新区","上海市浦东新区新场镇坦西村",121.653310677555,31.0918883120652,2022-04-25
"浦东新区","上海市浦东新区新陈路303弄",121.536884264815,31.1897022555378,2022-04-25
"浦东新区","上海市浦东新区新川路742弄",121.698304195464,31.1972881970345,2022-04-25
"浦东新区","上海市浦东新区新德路330弄",121.705758604077,31.2052590677383,2022-04-25
"浦东新区","上海市浦东新区新德西路207弄",121.680140008899,31.1975838841804,2022-04-25
"浦东新区","上海市浦东新区新德西路508弄",121.676387607123,31.198096102614,2022-04-25
"浦东新区","上海市浦东新区新金桥路230号",121.606037799245,31.2552516631071,2022-04-25
"浦东新区","上海市浦东新区新龙路203弄",121.63662186796,31.3203509429906,2022-04-25
"浦东新区","上海市浦东新区新浦路199弄",121.545245782332,31.1712264561122,2022-04-25
"浦东新区","上海市浦东新区新浦路251弄",121.541342016078,31.1742258958661,2022-04-25
"浦东新区","上海市浦东新区新浦路346弄",121.541876328195,31.1775466336355,2022-04-25
"浦东新区","上海市浦东新区新浦路380弄",121.536884264815,31.1897022555378,2022-04-25
"浦东新区","上海市浦东新区新浦路543弄",121.536926664835,31.1758010055361,2022-04-25
"浦东新区","上海市浦东新区新浦路587弄",121.532965137536,31.1927229594364,2022-04-25
"浦东新区","上海市浦东新区新浦路629弄",121.542012690971,31.1775770659788,2022-04-25
"浦东新区","上海市浦东新区新雅路90弄",121.690563856207,31.2428221281336,2022-04-25
"浦东新区","上海市浦东新区新元南路正茂路交界口工地生活区",121.82788341782,30.8836711316312,2022-04-25
"浦东新区","上海市浦东新区新园路32弄",121.635502758956,31.324576801349,2022-04-25
"浦东新区","上海市浦东新区行南路561号",121.588814677533,31.3332848771946,2022-04-25
"浦东新区","上海市浦东新区行南路585号",121.587818995706,31.3322990093756,2022-04-25
"浦东新区","上海市浦东新区秀康路958弄",121.584859707864,31.1200779398788,2022-04-25
"浦东新区","上海市浦东新区秀浦路886弄",121.574563240278,31.1321064686189,2022-04-25
"浦东新区","上海市浦东新区秀沿路2501弄",121.607210087936,31.1446754834221,2022-04-25
"浦东新区","上海市浦东新区秀沿路2875弄",121.616066481959,31.1449302308223,2022-04-25
"浦东新区","上海市浦东新区秀沿路867弄",121.584859707864,31.1200779398788,2022-04-25
"浦东新区","上海市浦东新区秀沿西路68弄",121.543756032475,31.1375878662796,2022-04-25
"浦东新区","上海市浦东新区雪野二路246号工地生活区",121.481050175673,31.1830080769437,2022-04-25
"浦东新区","上海市浦东新区雪野路34弄",121.503822310181,31.1865529402405,2022-04-25
"浦东新区","上海市浦东新区雪野路洪山路交界口工地生活区",121.50614865196,31.1806564745329,2022-04-25
"浦东新区","上海市浦东新区严民路280弄",121.535971137264,31.193933020819,2022-04-25
"浦东新区","上海市浦东新区严民路40弄",121.535360828501,31.1982091563279,2022-04-25
"浦东新区","上海市浦东新区严桥路240弄",121.534920658801,31.1938866852314,2022-04-25
"浦东新区","上海市浦东新区严桥路58弄",121.532464961028,31.1967998362783,2022-04-25
"浦东新区","上海市浦东新区严杨路165弄",121.535772517227,31.2010332805955,2022-04-25
"浦东新区","上海市浦东新区严杨路166弄",121.536194994997,31.2003668807737,2022-04-25
"浦东新区","上海市浦东新区严杨路30弄",121.532512930542,31.1982761081556,2022-04-25
"浦东新区","上海市浦东新区严镇路75弄",121.534643980704,31.1975138429377,2022-04-25
"浦东新区","上海市浦东新区盐朝公路67号",121.770019517547,31.0943397010565,2022-04-25
"浦东新区","上海市浦东新区杨高南路2030弄",121.52893228478,31.1967108746521,2022-04-25
"浦东新区","上海市浦东新区杨高南路3288弄",121.525582413702,31.1746251599369,2022-04-25
"浦东新区","上海市浦东新区杨高南路5055弄",121.537526104102,31.1561531881371,2022-04-25
"浦东新区","上海市浦东新区杨高南路5135弄",121.538543614753,31.1545496264648,2022-04-25
"浦东新区","上海市浦东新区杨高中路10弄",121.606373585845,31.2634200112248,2022-04-25
"浦东新区","上海市浦东新区杨南路1899弄",121.525480006874,31.1614217413702,2022-04-25
"浦东新区","上海市浦东新区杨南路694弄",121.507554859406,31.1553909666812,2022-04-25
"浦东新区","上海市浦东新区杨南路826弄",121.509042992314,31.156750615242,2022-04-25
"浦东新区","上海市浦东新区杨思北街118弄",121.499143935085,31.1698540400458,2022-04-25
"浦东新区","上海市浦东新区杨思路1121弄",121.512446312569,31.1707936532361,2022-04-25
"浦东新区","上海市浦东新区杨思路427号",121.499000206204,31.1657900505253,2022-04-25
"浦东新区","上海市浦东新区杨思路430弄",121.499450167434,31.1653666470015,2022-04-25
"浦东新区","上海市浦东新区杨思路502弄",121.501390507335,31.1651814797804,2022-04-25
"浦东新区","上海市浦东新区杨思路855弄",121.506597265732,31.1689656319057,2022-04-25
"浦东新区","上海市浦东新区杨思路860弄",121.536884264815,31.1897022555378,2022-04-25
"浦东新区","上海市浦东新区杨思新村",121.600645630591,31.2244171774298,2022-04-25
"浦东新区","上海市浦东新区杨新路20弄",121.502908553817,31.1704943282868,2022-04-25
"浦东新区","上海市浦东新区杨新路77弄",121.500168003367,31.1692430237866,2022-04-25
"浦东新区","上海市浦东新区杨新路80弄",121.500333510246,31.1696131563215,2022-04-25
"浦东新区","上海市浦东新区杨新路93弄",121.500194952532,31.1693279946805,2022-04-25
"浦东新区","上海市浦东新区洋泾镇路89弄",121.555696938127,31.2473205533115,2022-04-25
"浦东新区","上海市浦东新区耀华路414弄",121.492226982658,31.1790527910542,2022-04-25
"浦东新区","上海市浦东新区耀华路500弄",121.488759343729,31.1767943182538,2022-04-25
"浦东新区","上海市浦东新区耀华路528号",121.488226558731,31.1776669726407,2022-04-25
"浦东新区","上海市浦东新区耀华路550弄",121.487451231245,31.1759876966065,2022-04-25
"浦东新区","上海市浦东新区耀华路579弄",121.48605966618,31.17881049444,2022-04-25
"浦东新区","上海市浦东新区耀华路87弄",121.496691830535,31.1842585026529,2022-04-25
"浦东新区","上海市浦东新区耀华路8号",121.500771664669,31.1838975105567,2022-04-25
"浦东新区","上海市浦东新区耀江路355号工地生活区",121.478564384666,31.1732787031137,2022-04-25
"浦东新区","上海市浦东新区益丰路55弄",121.628839488005,31.2071079243307,2022-04-25
"浦东新区","上海市浦东新区益江路511弄",121.63543170299,31.202213517362,2022-04-25
"浦东新区","上海市浦东新区殷北路351弄",121.633779629326,31.1844662617014,2022-04-25
"浦东新区","上海市浦东新区银峰路676弄",121.652778790863,31.290487771739,2022-04-25
"浦东新区","上海市浦东新区银山路181号",121.58653495781,31.2500969003129,2022-04-25
"浦东新区","上海市浦东新区银山路342弄",121.589446545629,31.2504821802502,2022-04-25
"浦东新区","上海市浦东新区永春东路70号",121.747580923875,30.9780993303596,2022-04-25
"浦东新区","上海市浦东新区永宁东路531弄",121.7535454928,30.9733617426988,2022-04-25
"浦东新区","上海市浦东新区永泰路1299弄",121.533145517282,31.1492555769921,2022-04-25
"浦东新区","上海市浦东新区永泰路133弄",121.509215736463,31.1415938891426,2022-04-25
"浦东新区","上海市浦东新区永泰路136弄",121.511141254324,31.1406678921009,2022-04-25
"浦东新区","上海市浦东新区永泰路1650弄",121.543420425536,31.1503996769566,2022-04-25
"浦东新区","上海市浦东新区永泰路2079弄",121.525530311983,31.1391594184198,2022-04-25
"浦东新区","上海市浦东新区永泰路59弄",121.507846629035,31.1402600610679,2022-04-25
"浦东新区","上海市浦东新区永泰路630弄",121.52411305538,31.1453658573196,2022-04-25
"浦东新区","上海市浦东新区羽山路1445弄",121.567132277439,31.2467778856191,2022-04-25
"浦东新区","上海市浦东新区羽山路383弄",121.550383281374,31.2391094252368,2022-04-25
"浦东新区","上海市浦东新区玉泉街77弄",121.501992641519,31.1689911232573,2022-04-25
"浦东新区","上海市浦东新区御桥路1679弄",121.578016236828,31.1656276726803,2022-04-25
"浦东新区","上海市浦东新区御桥路288弄",121.542864464256,31.155924815928,2022-04-25
"浦东新区","上海市浦东新区御青路56弄",121.578469072636,31.1650319243446,2022-04-25
"浦东新区","上海市浦东新区御山路360弄",121.574682445419,31.1620356669102,2022-04-25
"浦东新区","上海市浦东新区御山路390弄",121.575043564234,31.1608544727634,2022-04-25
"浦东新区","上海市浦东新区御水路150弄",121.578864955874,31.1674418544666,2022-04-25
"浦东新区","上海市浦东新区御水路199弄",121.580638210951,31.1665548139514,2022-04-25
"浦东新区","上海市浦东新区源深路600弄",121.540367174938,31.2377605429358,2022-04-25
"浦东新区","上海市浦东新区云汉路978弄",121.814302296137,30.9166158663587,2022-04-25
"浦东新区","上海市浦东新区云山路1039弄",121.578964667785,31.2560144614311,2022-04-25
"浦东新区","上海市浦东新区云山路999弄",121.578509226892,31.2581962432747,2022-04-25
"浦东新区","上海市浦东新区云台路183弄",121.510618530348,31.1833989622759,2022-04-25
"浦东新区","上海市浦东新区云台路529弄",121.513630638553,31.1744192328881,2022-04-25
"浦东新区","上海市浦东新区云台路702号",121.513551497838,31.1709835985601,2022-04-25
"浦东新区","上海市浦东新区云雅路400弄",121.683422327402,31.2496682436451,2022-04-25
"浦东新区","上海市浦东新区运盐河路1255弄",121.722547125584,31.1878365279896,2022-04-25
"浦东新区","上海市浦东新区韵涛路36弄",121.584859707864,31.1200779398788,2022-04-25
"浦东新区","上海市浦东新区枣庄路1029弄",121.591822294211,31.2533881678545,2022-04-25
"浦东新区","上海市浦东新区枣庄路118弄",121.576826700672,31.2654180401154,2022-04-25
"浦东新区","上海市浦东新区枣庄路552弄",121.585578981086,31.2573668619355,2022-04-25
"浦东新区","上海市浦东新区张江路1616弄",121.635852020138,31.1933188407452,2022-04-25
"浦东新区","上海市浦东新区张江镇新丰村龚家宅",121.651728671721,31.166540677472,2022-04-25
"浦东新区","上海市浦东新区张江镇新丰村薛家宅",121.656602877418,31.1702414269269,2022-04-25
"浦东新区","上海市浦东新区张江镇中心村小桥宅",121.664786799937,31.1927150050595,2022-04-25
"浦东新区","上海市浦东新区张杨路1000弄",121.536220866196,31.2355781298217,2022-04-25
"浦东新区","上海市浦东新区张杨路1050弄",121.537039761499,31.2368178189678,2022-04-25
"浦东新区","上海市浦东新区张杨路1318号",121.538165158642,31.237703345265,2022-04-25
"浦东新区","上海市浦东新区张杨路310弄",121.519739385513,31.2308058679906,2022-04-25
"浦东新区","上海市浦东新区张杨路370弄",121.521538421957,31.2321643454895,2022-04-25
"浦东新区","上海市浦东新区张杨路628弄",121.52760369093,31.2338303409147,2022-04-25
"浦东新区","上海市浦东新区招远路19弄",121.521229943845,31.2416451169276,2022-04-25
"浦东新区","上海市浦东新区赵高公路1606号",121.645187210998,31.3045936729159,2022-04-25
"浦东新区","上海市浦东新区赵高公路610号",121.632972950979,31.3220401216688,2022-04-25
"浦东新区","上海市浦东新区赵高公路950968号",121.639170540353,31.3138972629159,2022-04-25
"浦东新区","上海市浦东新区赵高公路958号",121.637129320743,31.3168728490792,2022-04-25
"浦东新区","上海市浦东新区浙桥路277号",121.60792001878,31.2583458814987,2022-04-25
"浦东新区","上海市浦东新区振桥路申轮路交界口工地生活区",121.638268821282,31.2910059618071,2022-04-25
"浦东新区","上海市浦东新区振兴东路12弄",121.50271020796,31.1683855859142,2022-04-25
"浦东新区","上海市浦东新区中科路2635弄",121.644202488498,31.1969291857144,2022-04-25
"浦东新区","上海市浦东新区中林街131弄",121.507724010333,31.1436218711216,2022-04-25
"浦东新区","上海市浦东新区众三家园",121.674869470811,31.287070746539,2022-04-25
"浦东新区","上海市浦东新区周东路191弄",121.593915615541,31.1186181360998,2022-04-25
"浦东新区","上海市浦东新区周东路782弄",121.59005002727,31.1317982106719,2022-04-25
"浦东新区","上海市浦东新区周康路869弄",121.581217079021,31.1074874688241,2022-04-25
"浦东新区","上海市浦东新区周浦镇果园村",121.655344890382,31.1190312393745,2022-04-25
"浦东新区","上海市浦东新区周浦镇里仁村",121.575105367653,31.1138505842326,2022-04-25
"浦东新区","上海市浦东新区周浦镇沈西村梅林",121.56865355782,31.0925725798678,2022-04-25
"浦东新区","上海市浦东新区周浦镇瓦南村",121.659544468641,31.1047808712322,2022-04-25
"浦东新区","上海市浦东新区周市路148号",121.591025676885,31.1183045782953,2022-04-25
"浦东新区","上海市浦东新区周市路66号",121.589299852339,31.1163489339985,2022-04-25
"浦东新区","上海市浦东新区周泰路68弄",121.60959760432,31.1055740364609,2022-04-25
"浦东新区","上海市浦东新区周星路500弄",121.585699803177,31.1080593111742,2022-04-25
"浦东新区","上海市浦东新区周秀路168弄",121.613096863604,31.1040554140853,2022-04-25
"浦东新区","上海市浦东新区周阳路399弄",121.609315427857,31.0977638395217,2022-04-25
"浦东新区","上海市浦东新区周祝公路1218号",121.645873606238,31.1122038661462,2022-04-25
"浦东新区","上海市浦东新区周祝公路周泰北路交界口工地生活区",121.608663636081,31.109520206494,2022-04-25
"浦东新区","上海市浦东新区竹柏路500弄",121.910085019444,30.90890287624,2022-04-25
"浦东新区","上海市浦东新区祝家港路155弄",121.592181436754,31.1164185721122,2022-04-25
"浦东新区","上海市浦东新区祝家港路255弄",121.594791104091,31.1163357174362,2022-04-25
"浦东新区","上海市浦东新区祝潘公路301弄",121.766842749942,31.1140887975279,2022-04-25
"浦东新区","上海市浦东新区祝桥镇邓镇二村南朱家宅",121.767960241996,31.1471819761588,2022-04-25
"浦东新区","上海市浦东新区祝桥镇卫民村",121.747808195169,31.1040113531087,2022-04-25
"浦东新区","上海市浦东新区祝桥镇义泓村",121.843812620276,31.0819638207255,2022-04-25
"浦东新区","上海市浦东新区祝桥镇中圩村陈家宅",121.759719187248,31.161101373698,2022-04-25
"浦东新区","上海市浦东新区祝桥镇祝东村华星",121.780510917429,31.1328372731514,2022-04-25
"浦东新区","上海市浦东新区祝桥镇祝桥村一灶",121.764900972752,31.1238153762798,2022-04-25
"浦东新区","上海市浦东新区梓康路580弄",121.567316070746,31.1288750806472,2022-04-25
"浦东新区","上海市浦东新区紫薇路750弄",121.636263803384,31.1944164540822,2022-04-25
"浦东新区","上海市浦东新区紫叶路115弄",121.55858804458,31.189245596706,2022-04-25
"浦东新区","上海市浦东新区紫叶路51弄",121.557614011916,31.1902708942297,2022-04-25
"浦东新区","上海市浦东新区紫叶路65弄",121.536884264815,31.1897022555378,2022-04-25
"黄浦区","上海市黄浦区安澜路13弄",121.493293091638,31.2216881753438,2022-04-25
"黄浦区","上海市黄浦区白渡路258弄",121.507839532422,31.2254460271641,2022-04-25
"黄浦区","上海市黄浦区白河路37号",121.478321303195,31.2412743889061,2022-04-25
"黄浦区","上海市黄浦区半淞园路178号",121.504942856474,31.2105758990964,2022-04-25
"黄浦区","上海市黄浦区半淞园路628号",121.50154258756,31.2042940990732,2022-04-25
"黄浦区","上海市黄浦区保屯路211弄",121.498305816045,31.209535149529,2022-04-25
"黄浦区","上海市黄浦区保屯路36弄",121.496053404809,31.2124820954762,2022-04-25
"黄浦区","上海市黄浦区保屯路50弄",121.496314991373,31.2118891156666,2022-04-25
"黄浦区","上海市黄浦区保屯路82号",121.496748333951,31.2108852880312,2022-04-25
"黄浦区","上海市黄浦区保屯路99弄",121.496778786508,31.2130922893987,2022-04-25
"黄浦区","上海市黄浦区北海路267弄",121.484519341722,31.2360802599392,2022-04-25
"黄浦区","上海市黄浦区北京东路288弄",121.490646324283,31.2464802699138,2022-04-25
"黄浦区","上海市黄浦区北京东路316弄",121.477099248379,31.2054004512698,2022-04-25
"黄浦区","上海市黄浦区北京东路345号",121.489809552701,31.245917375379,2022-04-25
"黄浦区","上海市黄浦区北京东路375号",121.489350877907,31.2458471387465,2022-04-25
"黄浦区","上海市黄浦区北京东路395号",121.48906279133,31.2457714992372,2022-04-25
"黄浦区","上海市黄浦区北京东路431弄",121.488688467424,31.2454462486496,2022-04-25
"黄浦区","上海市黄浦区北京东路432号",121.488092980702,31.2459944040648,2022-04-25
"黄浦区","上海市黄浦区北京西路206号",121.476306942919,31.242105997039,2022-04-25
"黄浦区","上海市黄浦区北京西路218弄",121.476082007219,31.242234743581,2022-04-25
"黄浦区","上海市黄浦区北京西路240弄",121.475833086762,31.2420176187645,2022-04-25
"黄浦区","上海市黄浦区北京西路256号",121.475433161149,31.2417952447631,2022-04-25
"黄浦区","上海市黄浦区北京西路257号",121.475502151013,31.2416025099093,2022-04-25
"黄浦区","上海市黄浦区北京西路260号",121.475364889931,31.2417551077818,2022-04-25
"黄浦区","上海市黄浦区北京西路355弄",121.473665834889,31.2408216093623,2022-04-25
"黄浦区","上海市黄浦区长乐路169弄",121.468800612247,31.2272269364624,2022-04-25
"黄浦区","上海市黄浦区长乐路272弄",121.47152041184,31.2276961478101,2022-04-25
"黄浦区","上海市黄浦区长乐路274号",121.471196842195,31.2276760762968,2022-04-25
"黄浦区","上海市黄浦区长乐路85号",121.474718918438,31.227938472394,2022-04-25
"黄浦区","上海市黄浦区重庆北路155号",121.47654517354,31.2322159885511,2022-04-25
"黄浦区","上海市黄浦区重庆北路177弄",121.476319968349,31.2325548713123,2022-04-25
"黄浦区","上海市黄浦区重庆北路205号",121.4764000972,31.2326118405489,2022-04-25
"黄浦区","上海市黄浦区重庆北路212号",121.476441509084,31.2331334393856,2022-04-25
"黄浦区","上海市黄浦区重庆北路216弄",121.476485975207,31.233229391023,2022-04-25
"黄浦区","上海市黄浦区重庆北路235号",121.475467027267,31.233620838719,2022-04-25
"黄浦区","上海市黄浦区重庆北路318弄",121.47528332379,31.2349013112801,2022-04-25
"黄浦区","上海市黄浦区重庆北路364号",121.474951669396,31.2353725683212,2022-04-25
"黄浦区","上海市黄浦区重庆南路169弄",121.478156104811,31.2231556302522,2022-04-25
"黄浦区","上海市黄浦区重庆南路181号",121.477707221548,31.2219111279105,2022-04-25
"黄浦区","上海市黄浦区重庆南路205弄",121.477585501151,31.2205009292658,2022-04-25
"黄浦区","上海市黄浦区重庆南路26弄",121.491585592524,31.2372471520636,2022-04-25
"黄浦区","上海市黄浦区重庆南路283号",121.479915436153,31.2153682629798,2022-04-25
"黄浦区","上海市黄浦区重庆南路30弄",121.477818162278,31.2253379471355,2022-04-25
"黄浦区","上海市黄浦区曹家街38号",121.492665086256,31.2247411887299,2022-04-25
"黄浦区","上海市黄浦区曹家弄3号",121.491585592524,31.2372471520636,2022-04-25
"黄浦区","上海市黄浦区曹市弄15弄",121.491202555055,31.2273683640199,2022-04-25
"黄浦区","上海市黄浦区曹市弄42弄",121.495654826654,31.2249117246057,2022-04-25
"黄浦区","上海市黄浦区曹市弄46号",121.495654826654,31.2249117246057,2022-04-25
"黄浦区","上海市黄浦区成都北路262号",121.474760779475,31.2350561586549,2022-04-25
"黄浦区","上海市黄浦区成都北路262弄",121.474451223396,31.2349910085444,2022-04-25
"黄浦区","上海市黄浦区成都南路108弄",121.473771655278,31.2277003165085,2022-04-25
"黄浦区","上海市黄浦区成都南路132弄",121.474190714799,31.2275981061468,2022-04-25
"黄浦区","上海市黄浦区成都南路89号",121.474276233483,31.2277529656089,2022-04-25
"黄浦区","上海市黄浦区打浦路15号",121.478033755601,31.2101591837096,2022-04-25
"黄浦区","上海市黄浦区打浦路303弄",121.478195181101,31.2059046737052,2022-04-25
"黄浦区","上海市黄浦区打浦路316弄",121.477142906027,31.2052986798579,2022-04-25
"黄浦区","上海市黄浦区打浦路339弄",121.478552257541,31.2052967494431,2022-04-25
"黄浦区","上海市黄浦区打浦路38弄",121.476392910756,31.2106707928914,2022-04-25
"黄浦区","上海市黄浦区打浦路457弄",121.480652855146,31.2030750472854,2022-04-25
"黄浦区","上海市黄浦区打浦路470弄",121.479363247756,31.2030630784288,2022-04-25
"黄浦区","上海市黄浦区打浦路500弄",121.479751585228,31.2021083448416,2022-04-25
"黄浦区","上海市黄浦区打浦路58号",121.476443754848,31.2102904450098,2022-04-25
"黄浦区","上海市黄浦区打浦路80弄",121.476874312679,31.209469750012,2022-04-25
"黄浦区","上海市黄浦区打浦路90弄",121.477225280642,31.2085608695874,2022-04-25
"黄浦区","上海市黄浦区打浦路92号",121.477142456874,31.2087272653975,2022-04-25
"黄浦区","上海市黄浦区打浦路93号",121.478478259625,31.2037895659458,2022-04-25
"黄浦区","上海市黄浦区大夫坊36号",121.491585592524,31.2372471520636,2022-04-25
"黄浦区","上海市黄浦区大沽路139弄",121.478150894639,31.2320037809305,2022-04-25
"黄浦区","上海市黄浦区大沽路155号",121.477789596163,31.232309856883,2022-04-25
"黄浦区","上海市黄浦区大沽路161号",121.477686021538,31.2322605297039,2022-04-25
"黄浦区","上海市黄浦区大沽路169号",121.477601221498,31.2321001968934,2022-04-25
"黄浦区","上海市黄浦区大沽路171号",121.477528907904,31.2320995793376,2022-04-25
"黄浦区","上海市黄浦区大沽路183弄",121.477665540172,31.2319429515929,2022-04-25
"黄浦区","上海市黄浦区大沽路197号",121.477107782281,31.2319145439699,2022-04-25
"黄浦区","上海市黄浦区大吉路173弄",121.490317185144,31.2201454039175,2022-04-25
"黄浦区","上海市黄浦区大吉路320号",121.488214611268,31.2188451964595,2022-04-25
"黄浦区","上海市黄浦区大吉路57号",121.493029977954,31.2210478411933,2022-04-25
"黄浦区","上海市黄浦区大林路31弄",121.494257961586,31.2193829306693,2022-04-25
"黄浦区","上海市黄浦区大林路43弄",121.49331950182,31.219241105019,2022-04-25
"黄浦区","上海市黄浦区大林路78号",121.493589532456,31.218933751035,2022-04-25
"黄浦区","上海市黄浦区淡水路190号",121.479658790268,31.223670410874,2022-04-25
"黄浦区","上海市黄浦区淡水路205弄",121.479829558146,31.2235619427871,2022-04-25
"黄浦区","上海市黄浦区淡水路209号",121.479804540337,31.2234569486473,2022-04-25
"黄浦区","上海市黄浦区淡水路211号",121.47994606837,31.2234610403329,2022-04-25
"黄浦区","上海市黄浦区淡水路213号",121.479936905654,31.2233381352837,2022-04-25
"黄浦区","上海市黄浦区淡水路214弄",121.479010483182,31.2233875443681,2022-04-25
"黄浦区","上海市黄浦区淡水路217号",121.479843571712,31.2232029549837,2022-04-25
"黄浦区","上海市黄浦区淡水路223弄",121.479911483608,31.2228435797927,2022-04-25
"黄浦区","上海市黄浦区淡水路225弄",121.479878246304,31.2227551833205,2022-04-25
"黄浦区","上海市黄浦区淡水路227弄",121.479884264951,31.2227210599438,2022-04-25
"黄浦区","上海市黄浦区淡水路232号",121.479694542828,31.2230056269078,2022-04-25
"黄浦区","上海市黄浦区淡水路266弄",121.47956931904,31.222047854132,2022-04-25
"黄浦区","上海市黄浦区淡水路361号",121.480791553516,31.2183124775416,2022-04-25
"黄浦区","上海市黄浦区淡水路460弄",121.480455677086,31.217062274703,2022-04-25
"黄浦区","上海市黄浦区定兴路36号",121.47746629601,31.2411076650195,2022-04-25
"黄浦区","上海市黄浦区定兴路6号",121.478092594612,31.2413157610837,2022-04-25
"黄浦区","上海市黄浦区东街162弄",121.50389713903,31.228933857077,2022-04-25
"黄浦区","上海市黄浦区东街167弄",121.50389713903,31.228933857077,2022-04-25
"黄浦区","上海市黄浦区东姚家弄44号",121.504263198526,31.2283963321358,2022-04-25
"黄浦区","上海市黄浦区多稼路2号",121.512277880286,31.2153107427875,2022-04-25
"黄浦区","上海市黄浦区方浜西路63弄",121.488941789578,31.2268514421722,2022-04-25
"黄浦区","上海市黄浦区方斜路269号",121.491635897633,31.2214829596933,2022-04-25
"黄浦区","上海市黄浦区方斜路401弄",121.490010862965,31.2204078211292,2022-04-25
"黄浦区","上海市黄浦区方斜路407号",121.489952383277,31.2203563259592,2022-04-25
"黄浦区","上海市黄浦区方斜路543号",121.489789161166,31.2177602223963,2022-04-25
"黄浦区","上海市黄浦区丰记码头街95弄",121.510829901634,31.2155497022811,2022-04-25
"黄浦区","上海市黄浦区凤阳路145号",121.478536737992,31.2405654516406,2022-04-25
"黄浦区","上海市黄浦区凤阳路228弄",121.478205960767,31.2405736834601,2022-04-25
"黄浦区","上海市黄浦区凤阳路358弄",121.475650191761,31.240041088235,2022-04-25
"黄浦区","上海市黄浦区凤阳路428号",121.475019760954,31.2393771924622,2022-04-25
"黄浦区","上海市黄浦区福建中路195弄",121.488057048481,31.2395095706142,2022-04-25
"黄浦区","上海市黄浦区福建中路225号",121.487760697493,31.2401062348282,2022-04-25
"黄浦区","上海市黄浦区福州路105号",121.494982804302,31.2408287105927,2022-04-25
"黄浦区","上海市黄浦区福州路37号",121.495999955631,31.2410068586735,2022-04-25
"黄浦区","上海市黄浦区福州路614弄",121.485855032185,31.2389698679587,2022-04-25
"黄浦区","上海市黄浦区福州路646号",121.484994275845,31.2383369947022,2022-04-25
"黄浦区","上海市黄浦区抚安街10号",121.503848720363,31.2267292363659,2022-04-25
"黄浦区","上海市黄浦区抚安街9弄",121.491585592524,31.2372471520636,2022-04-25
"黄浦区","上海市黄浦区复兴东路314号",121.505120181982,31.2264107130909,2022-04-25
"黄浦区","上海市黄浦区复兴东路330号",121.504685491946,31.2265609425748,2022-04-25
"黄浦区","上海市黄浦区复兴东路338号",121.50448732575,31.2265650341247,2022-04-25
"黄浦区","上海市黄浦区复兴东路346号",121.504371264678,31.226603324847,2022-04-25
"黄浦区","上海市黄浦区复兴东路354号",121.504317815501,31.2266762006947,2022-04-25
"黄浦区","上海市黄浦区复兴东路368号",121.504128183207,31.2268379323784,2022-04-25
"黄浦区","上海市黄浦区复兴东路404弄",121.503635193144,31.2268925119336,2022-04-25
"黄浦区","上海市黄浦区复兴东路663弄",121.498122382059,31.2279773029395,2022-04-25
"黄浦区","上海市黄浦区复兴东路699号",121.497438861397,31.2278910728592,2022-04-25
"黄浦区","上海市黄浦区复兴中路305号",121.482764412077,31.22207541552,2022-04-25
"黄浦区","上海市黄浦区复兴中路388号",121.48104006225,31.222400502895,2022-04-25
"黄浦区","上海市黄浦区复兴中路408弄",121.480135790494,31.2225478951959,2022-04-25
"黄浦区","上海市黄浦区复兴中路455号",121.479438166435,31.2213271634153,2022-04-25
"黄浦区","上海市黄浦区复兴中路485弄",121.478455959191,31.2213538757787,2022-04-25
"黄浦区","上海市黄浦区复兴中路582号",121.471268796466,31.2209745749446,2022-04-25
"黄浦区","上海市黄浦区复兴中路583弄",121.472276066435,31.2209352010675,2022-04-25
"黄浦区","上海市黄浦区复兴中路598弄",121.470635850404,31.2210468375465,2022-04-25
"黄浦区","上海市黄浦区复兴中路616弄",121.470347673996,31.2209954199316,2022-04-25
"黄浦区","上海市黄浦区富润路177弄",121.482843373132,31.198472793352,2022-04-25
"黄浦区","上海市黄浦区高家横弄11号",121.491585592524,31.2372471520636,2022-04-25
"黄浦区","上海市黄浦区高家横弄15号",121.491585592524,31.2372471520636,2022-04-25
"黄浦区","上海市黄浦区高家横弄18弄",121.471987979858,31.2162274328676,2022-04-25
"黄浦区","上海市黄浦区高家弄37弄",121.491585592524,31.2372471520636,2022-04-25
"黄浦区","上海市黄浦区高家弄45弄",121.491585592524,31.2372471520636,2022-04-25
"黄浦区","上海市黄浦区高家弄66弄",121.484578540055,31.2354982364646,2022-04-25
"黄浦区","上海市黄浦区高家弄74号",121.491585592524,31.2372471520636,2022-04-25
"黄浦区","上海市黄浦区高家弄75号",121.491585592524,31.2372471520636,2022-04-25
"黄浦区","上海市黄浦区牯岭路181号",121.477071221247,31.2416641048317,2022-04-25
"黄浦区","上海市黄浦区光启路111号",121.500877215567,31.2296260037028,2022-04-25
"黄浦区","上海市黄浦区光启路121号",121.500954469841,31.229406456521,2022-04-25
"黄浦区","上海市黄浦区光启路129号",121.500787744338,31.2293297229611,2022-04-25
"黄浦区","上海市黄浦区光启路215号",121.500806518923,31.228077968931,2022-04-25
"黄浦区","上海市黄浦区光启南路154弄",121.500580505257,31.2250675921171,2022-04-25
"黄浦区","上海市黄浦区光启南路94号",121.501014835971,31.2261630577934,2022-04-25
"黄浦区","上海市黄浦区广东路131弄",121.495264782402,31.239207763592,2022-04-25
"黄浦区","上海市黄浦区广东路138号",121.494688699078,31.2390723746523,2022-04-25
"黄浦区","上海市黄浦区广东路140号",121.494948848354,31.2393149785254,2022-04-25
"黄浦区","上海市黄浦区广东路154号",121.494732266895,31.2392483647979,2022-04-25
"黄浦区","上海市黄浦区广东路159号",121.494795417773,31.2391096568029,2022-04-25
"黄浦区","上海市黄浦区广东路339号",121.491338019526,31.23804382913,2022-04-25
"黄浦区","上海市黄浦区广东路543号",121.487577892322,31.237774668671,2022-04-25
"黄浦区","上海市黄浦区广东路544号",121.487356370183,31.2378067796239,2022-04-25
"黄浦区","上海市黄浦区广东路546号",121.487329331188,31.2377941976893,2022-04-25
"黄浦区","上海市黄浦区广东路579号",121.487118409054,31.2375735890157,2022-04-25
"黄浦区","上海市黄浦区广西北路228弄",121.485099557251,31.2391192282015,2022-04-25
"黄浦区","上海市黄浦区广西北路433号",121.483240424167,31.2422795115217,2022-04-25
"黄浦区","上海市黄浦区广西北路515号",121.482805015487,31.2434991981024,2022-04-25
"黄浦区","上海市黄浦区贵州路107号",121.482730276468,31.2418617794903,2022-04-25
"黄浦区","上海市黄浦区贵州路118号",121.482836905332,31.2421085441845,2022-04-25
"黄浦区","上海市黄浦区贵州路131弄",121.482535972986,31.2422948715516,2022-04-25
"黄浦区","上海市黄浦区贵州路136号",121.482705303575,31.2423747591036,2022-04-25
"黄浦区","上海市黄浦区贵州路155号",121.482487913642,31.2425820033043,2022-04-25
"黄浦区","上海市黄浦区贵州路157号",121.482478840756,31.2426131863771,2022-04-25
"黄浦区","上海市黄浦区贵州路159号",121.482498872969,31.2426561788639,2022-04-25
"黄浦区","上海市黄浦区贵州路161号",121.482452700066,31.2426906037133,2022-04-25
"黄浦区","上海市黄浦区贵州路165号",121.482465006851,31.2427787497948,2022-04-25
"黄浦区","上海市黄浦区贵州路167号",121.482425481409,31.2427831493781,2022-04-25
"黄浦区","上海市黄浦区贵州路171号",121.482407425468,31.2428454381935,2022-04-25
"黄浦区","上海市黄浦区贵州路198弄",121.482585828942,31.2434445510501,2022-04-25
"黄浦区","上海市黄浦区贵州路67号",121.482874993486,31.2413278794234,2022-04-25
"黄浦区","上海市黄浦区国货路190号",121.501712100708,31.2142294772339,2022-04-25
"黄浦区","上海市黄浦区国货路236号",121.501919699111,31.2143285703991,2022-04-25
"黄浦区","上海市黄浦区国货路370号",121.499162530009,31.2143034002143,2022-04-25
"黄浦区","上海市黄浦区国货路8号",121.504192412051,31.2134020560684,2022-04-25
"黄浦区","上海市黄浦区海潮路222弄",121.503655584679,31.2138987460993,2022-04-25
"黄浦区","上海市黄浦区海潮路230弄",121.504837036085,31.2152778520308,2022-04-25
"黄浦区","上海市黄浦区海潮路240弄",121.503726910136,31.213442050793,2022-04-25
"黄浦区","上海市黄浦区海潮路93弄",121.505912038289,31.2149615288345,2022-04-25
"黄浦区","上海市黄浦区海南西弄105号",121.503012397933,31.2167046517006,2022-04-25
"黄浦区","上海市黄浦区海南西弄51弄",121.503684959269,31.2165869106679,2022-04-25
"黄浦区","上海市黄浦区海南西弄64号",121.503164031904,31.2165138725496,2022-04-25
"黄浦区","上海市黄浦区汉口路126号",121.494292636179,31.2423316121154,2022-04-25
"黄浦区","上海市黄浦区汉口路271号",121.491736328189,31.2414888910989,2022-04-25
"黄浦区","上海市黄浦区汉口路558号",121.486326103594,31.2400464142022,2022-04-25
"黄浦区","上海市黄浦区汉口路618号",121.484771046926,31.2397655269062,2022-04-25
"黄浦区","上海市黄浦区汉口路678号",121.484266828043,31.2396475833219,2022-04-25
"黄浦区","上海市黄浦区合肥路343号",121.480147558296,31.2198585893246,2022-04-25
"黄浦区","上海市黄浦区合肥路349弄",121.479810873391,31.2198448469075,2022-04-25
"黄浦区","上海市黄浦区合肥路381号",121.479088006947,31.2190668529595,2022-04-25
"黄浦区","上海市黄浦区和顺街27号",121.503619854577,31.2262140865726,2022-04-25
"黄浦区","上海市黄浦区和顺街45号",121.503311533668,31.2262275964565,2022-04-25
"黄浦区","上海市黄浦区和顺街53弄",121.503228350578,31.22633544386,2022-04-25
"黄浦区","上海市黄浦区和顺街5号",121.504037184859,31.2261961763235,2022-04-25
"黄浦区","上海市黄浦区河南南路1001弄",121.49979358963,31.219506535756,2022-04-25
"黄浦区","上海市黄浦区河南南路398弄",121.495698843624,31.2285718019843,2022-04-25
"黄浦区","上海市黄浦区河南南路555弄",121.497580883498,31.2262373235718,2022-04-25
"黄浦区","上海市黄浦区河南南路582弄",121.497028156118,31.226081535208,2022-04-25
"黄浦区","上海市黄浦区河南南路600弄",121.497305552859,31.2256173337539,2022-04-25
"黄浦区","上海市黄浦区河南南路612弄",121.496863586548,31.2259670483512,2022-04-25
"黄浦区","上海市黄浦区河南南路703弄",121.499019968925,31.2223378273207,2022-04-25
"黄浦区","上海市黄浦区河南南路790弄",121.498540094122,31.2220411374899,2022-04-25
"黄浦区","上海市黄浦区河南中路166弄",121.492936733842,31.2395675390638,2022-04-25
"黄浦区","上海市黄浦区河南中路192号",121.492742071038,31.2399719278209,2022-04-25
"黄浦区","上海市黄浦区河南中路531弄",121.490259513931,31.2453609608736,2022-04-25
"黄浦区","上海市黄浦区河南中路541弄",121.490336768204,31.2453628132786,2022-04-25
"黄浦区","上海市黄浦区湖北路180号",121.487481683802,31.2393957176959,2022-04-25
"黄浦区","上海市黄浦区淮海东路89弄",121.488370916426,31.2308558135008,2022-04-25
"黄浦区","上海市黄浦区淮海中路526弄",121.475825002013,31.2273074544703,2022-04-25
"黄浦区","上海市黄浦区淮海中路593弄",121.474224760577,31.2263526592894,2022-04-25
"黄浦区","上海市黄浦区淮海中路622弄",121.473340468633,31.2263662463526,2022-04-25
"黄浦区","上海市黄浦区淮海中路670弄",121.472274179993,31.2258990355263,2022-04-25
"黄浦区","上海市黄浦区淮海中路697弄",121.471974235783,31.2249414467614,2022-04-25
"黄浦区","上海市黄浦区淮海中路833弄",121.468989885218,31.224196151208,2022-04-25
"黄浦区","上海市黄浦区淮海中路927弄",121.467196957251,31.2226196933692,2022-04-25
"黄浦区","上海市黄浦区黄陂南路574号",121.483053576621,31.2220984219385,2022-04-25
"黄浦区","上海市黄浦区黄陂南路596弄",121.482998420663,31.2218577034941,2022-04-25
"黄浦区","上海市黄浦区黄陂南路783号",121.484188226311,31.2182709407797,2022-04-25
"黄浦区","上海市黄浦区黄陂南路847弄",121.485153365751,31.2169059306181,2022-04-25
"黄浦区","上海市黄浦区黄河路107弄",121.476632399005,31.2404605265254,2022-04-25
"黄浦区","上海市黄浦区黄河路125弄",121.476317992077,31.2410275448238,2022-04-25
"黄浦区","上海市黄浦区黄河路132弄",121.477042924623,31.2412370304314,2022-04-25
"黄浦区","上海市黄浦区黄河路215弄",121.434456955312,31.2533728868238,2022-04-25
"黄浦区","上海市黄浦区黄河路217号",121.476173544551,31.2425130763269,2022-04-25
"黄浦区","上海市黄浦区黄河路223弄",121.476039876691,31.2425346111887,2022-04-25
"黄浦区","上海市黄浦区黄河路229号",121.476119286898,31.2426601153383,2022-04-25
"黄浦区","上海市黄浦区黄河路231弄",121.476035115672,31.2426605012672,2022-04-25
"黄浦区","上海市黄浦区黄河路253弄",121.475294193287,31.242852770827,2022-04-25
"黄浦区","上海市黄浦区黄河路275号",121.475724122304,31.2432075924172,2022-04-25
"黄浦区","上海市黄浦区黄河路281弄",121.475632764634,31.2434464806782,2022-04-25
"黄浦区","上海市黄浦区黄家路55弄",121.503348004872,31.2215087455735,2022-04-25
"黄浦区","上海市黄浦区黄家路88弄",121.50359063719,31.2212345193213,2022-04-25
"黄浦区","上海市黄浦区黄家阙路36号",121.493555666338,31.2210765609295,2022-04-25
"黄浦区","上海市黄浦区黄家阙路68弄",121.493950022457,31.2207148614576,2022-04-25
"黄浦区","上海市黄浦区黄家阙路72弄",121.493993590274,31.220593342474,2022-04-25
"黄浦区","上海市黄浦区黄家阙路76弄",121.494053776744,31.2203405763063,2022-04-25
"黄浦区","上海市黄浦区黄家阙路99号",121.494346983662,31.2205128186895,2022-04-25
"黄浦区","上海市黄浦区徽宁路359号",121.496519355877,31.2161001174824,2022-04-25
"黄浦区","上海市黄浦区徽宁路4号",121.502298155223,31.2172362216669,2022-04-25
"黄浦区","上海市黄浦区徽宁路501弄",121.494252481922,31.2157492851063,2022-04-25
"黄浦区","上海市黄浦区徽宁路503号",121.494662199065,31.2151672123817,2022-04-25
"黄浦区","上海市黄浦区徽宁路509号",121.494416422678,31.2151442814681,2022-04-25
"黄浦区","上海市黄浦区徽宁路527弄",121.494342042982,31.2148970596117,2022-04-25
"黄浦区","上海市黄浦区徽宁路6弄",121.491585592524,31.2372471520636,2022-04-25
"黄浦区","上海市黄浦区会稽路38弄",121.488238775686,31.2287334531946,2022-04-25
"黄浦区","上海市黄浦区火腿弄21号",121.491585592524,31.2372471520636,2022-04-25
"黄浦区","上海市黄浦区建国东路111号",121.485578893071,31.2189181555535,2022-04-25
"黄浦区","上海市黄浦区建国东路115弄",121.477432699384,31.2143144411244,2022-04-25
"黄浦区","上海市黄浦区建国东路119号",121.485438218428,31.2188695161638,2022-04-25
"黄浦区","上海市黄浦区建国东路143弄",121.485327098036,31.2182331870898,2022-04-25
"黄浦区","上海市黄浦区建国东路187号",121.484295843311,31.2184631060532,2022-04-25
"黄浦区","上海市黄浦区建国东路45号",121.486737168195,31.2193079646066,2022-04-25
"黄浦区","上海市黄浦区建国东路61弄",121.486442404214,31.219232432313,2022-04-25
"黄浦区","上海市黄浦区建国东路63号",121.486422761267,31.2192311455613,2022-04-25
"黄浦区","上海市黄浦区建国东路65号",121.486370479886,31.2192139288219,2022-04-25
"黄浦区","上海市黄浦区建国东路75弄",121.48630256799,31.2190675478067,2022-04-25
"黄浦区","上海市黄浦区建国东路87弄",121.486093936535,31.2191215528545,2022-04-25
"黄浦区","上海市黄浦区建国西路135号",121.470629023282,31.2132008468278,2022-04-25
"黄浦区","上海市黄浦区建国西路176号",121.469016115739,31.2129284492852,2022-04-25
"黄浦区","上海市黄浦区建国西路178号",121.468985034368,31.2129157095848,2022-04-25
"黄浦区","上海市黄浦区建国西路56弄",121.471644557661,31.2152090593544,2022-04-25
"黄浦区","上海市黄浦区建国西路91弄",121.478096367495,31.2181663267346,2022-04-25
"黄浦区","上海市黄浦区建国中路103弄",121.475834883374,31.2154260147615,2022-04-25
"黄浦区","上海市黄浦区建国中路151号",121.474556235311,31.2150071591199,2022-04-25
"黄浦区","上海市黄浦区建国中路153号",121.474439635255,31.2149683231931,2022-04-25
"黄浦区","上海市黄浦区建国中路155弄",121.474450414922,31.2147902799509,2022-04-25
"黄浦区","上海市黄浦区建国中路167号",121.473990302839,31.2148067254163,2022-04-25
"黄浦区","上海市黄浦区江滨路99号",121.479935019213,31.197853855228,2022-04-25
"黄浦区","上海市黄浦区江西中路135弄",121.494035091989,31.2399062408178,2022-04-25
"黄浦区","上海市黄浦区江西中路141号",121.494076234381,31.2399277762798,2022-04-25
"黄浦区","上海市黄浦区江西中路147号",121.493987391966,31.2400644761759,2022-04-25
"黄浦区","上海市黄浦区江西中路24弄",121.495056285693,31.2383518922436,2022-04-25
"黄浦区","上海市黄浦区江西中路304号",121.493110016975,31.2440498348388,2022-04-25
"黄浦区","上海市黄浦区江西中路34弄",121.494850663561,31.2384770932491,2022-04-25
"黄浦区","上海市黄浦区江西中路412弄",121.492185570774,31.2467273311509,2022-04-25
"黄浦区","上海市黄浦区江西中路44弄",121.494733344862,31.2385833827505,2022-04-25
"黄浦区","上海市黄浦区江西中路451号",121.491606253551,31.2473839196508,2022-04-25
"黄浦区","上海市黄浦区江西中路452号",121.491936021504,31.2475258570077,2022-04-25
"黄浦区","上海市黄浦区江西中路460弄",121.491700395969,31.2476486531008,2022-04-25
"黄浦区","上海市黄浦区江西中路469弄",121.49146252467,31.2478007780183,2022-04-25
"黄浦区","上海市黄浦区江西中路473号",121.491468183994,31.2478163686858,2022-04-25
"黄浦区","上海市黄浦区江西中路481号",121.491411051764,31.2481271781348,2022-04-25
"黄浦区","上海市黄浦区江阴街18号",121.50135214969,31.219733440609,2022-04-25
"黄浦区","上海市黄浦区江阴街308弄",121.496799357704,31.2189849381664,2022-04-25
"黄浦区","上海市黄浦区江阴街310号",121.496723989872,31.2191662160478,2022-04-25
"黄浦区","上海市黄浦区江阴街355弄",121.497645651325,31.2195476087406,2022-04-25
"黄浦区","上海市黄浦区江阴街401弄",121.494666061779,31.2185822344276,2022-04-25
"黄浦区","上海市黄浦区江阴街406号",121.494729931301,31.2181041758997,2022-04-25
"黄浦区","上海市黄浦区江阴街472号",121.493676488429,31.2184510619576,2022-04-25
"黄浦区","上海市黄浦区江阴路120号",121.474823121878,31.2356090064632,2022-04-25
"黄浦区","上海市黄浦区江阴路156号",121.474178857166,31.2354429672036,2022-04-25
"黄浦区","上海市黄浦区江阴路72号",121.475855993553,31.2359048813636,2022-04-25
"黄浦区","上海市黄浦区江阴路88弄",121.475551737477,31.2358600331803,2022-04-25
"黄浦区","上海市黄浦区金陵东路59号",121.497854327695,31.2370649057313,2022-04-25
"黄浦区","上海市黄浦区金陵东路63号",121.497718773394,31.2370229141499,2022-04-25
"黄浦区","上海市黄浦区金陵东路67号",121.497575763157,31.2369573022663,2022-04-25
"黄浦区","上海市黄浦区金陵东路69号",121.497463474968,31.2369573794568,2022-04-25
"黄浦区","上海市黄浦区金坛路17号",121.504845749649,31.2247220429897,2022-04-25
"黄浦区","上海市黄浦区金坛路35弄",121.504583354609,31.2247265978234,2022-04-25
"黄浦区","上海市黄浦区进贤路122弄",121.466289039872,31.2279825523958,2022-04-25
"黄浦区","上海市黄浦区进贤路138弄",121.466170463544,31.2278474560023,2022-04-25
"黄浦区","上海市黄浦区进贤路154号",121.465814914224,31.2278022179664,2022-04-25
"黄浦区","上海市黄浦区静修路104弄",121.493245481446,31.2257681049094,2022-04-25
"黄浦区","上海市黄浦区静修路114弄",121.493029798293,31.2257417798045,2022-04-25
"黄浦区","上海市黄浦区静修路126弄",121.486533342675,31.2255124191199,2022-04-25
"黄浦区","上海市黄浦区静修路80号",121.493891273277,31.2255081731241,2022-04-25
"黄浦区","上海市黄浦区九江路202号",121.492738208324,31.242706735533,2022-04-25
"黄浦区","上海市黄浦区九江路210号",121.492644964212,31.2428068453759,2022-04-25
"黄浦区","上海市黄浦区九江路218弄",121.492635082852,31.2429358996953,2022-04-25
"黄浦区","上海市黄浦区九江路558号",121.486566904751,31.241018798929,2022-04-25
"黄浦区","上海市黄浦区九江路619号",121.485146628459,31.2401623504,2022-04-25
"黄浦区","上海市黄浦区九江路700号",121.483544859905,31.2403321634795,2022-04-25
"黄浦区","上海市黄浦区局门后路15号",121.487110953118,31.2147352300854,2022-04-25
"黄浦区","上海市黄浦区局门后路1号",121.487196471803,31.2154017713709,2022-04-25
"黄浦区","上海市黄浦区局门后路3号",121.48678037669,31.2154162093145,2022-04-25
"黄浦区","上海市黄浦区局门后路7号",121.486890778438,31.2151895256222,2022-04-25
"黄浦区","上海市黄浦区局门后路9号",121.487192968411,31.2150331784097,2022-04-25
"黄浦区","上海市黄浦区局门路162号",121.487093525991,31.2126923398897,2022-04-25
"黄浦区","上海市黄浦区局门路165号",121.487113468373,31.2131704260531,2022-04-25
"黄浦区","上海市黄浦区局门路1弄",121.491585592524,31.2372471520636,2022-04-25
"黄浦区","上海市黄浦区局门路221号",121.487382510874,31.2123536168361,2022-04-25
"黄浦区","上海市黄浦区局门路241弄",121.487610410982,31.2120270919029,2022-04-25
"黄浦区","上海市黄浦区局门路295弄",121.489189093085,31.2109224269886,2022-04-25
"黄浦区","上海市黄浦区局门路434弄",121.487727639851,31.2084105340004,2022-04-25
"黄浦区","上海市黄浦区局门路573弄",121.489437564389,31.2068876293927,2022-04-25
"黄浦区","上海市黄浦区局门路599弄",121.4896578289,31.2063988553875,2022-04-25
"黄浦区","上海市黄浦区局门路699号",121.489916017011,31.2058603446385,2022-04-25
"黄浦区","上海市黄浦区巨鹿路1号",121.475904771542,31.2295066577952,2022-04-25
"黄浦区","上海市黄浦区巨鹿路260弄",121.468550973146,31.2291308638652,2022-04-25
"黄浦区","上海市黄浦区巨鹿路367号",121.466125009286,31.2289298428278,2022-04-25
"黄浦区","上海市黄浦区巨鹿路383弄",121.46518663935,31.2286273068965,2022-04-25
"黄浦区","上海市黄浦区巨鹿路385号",121.466217265261,31.2289134770408,2022-04-25
"黄浦区","上海市黄浦区巨鹿路391弄",121.465008325706,31.2286652107884,2022-04-25
"黄浦区","上海市黄浦区聚奎新村",121.502708501179,31.2294960046602,2022-04-25
"黄浦区","上海市黄浦区老道前街16弄",121.493712330819,31.2239868976447,2022-04-25
"黄浦区","上海市黄浦区老道前街20号",121.493745657954,31.2239319689893,2022-04-25
"黄浦区","上海市黄浦区老道前街22号",121.49376299525,31.223901937708,2022-04-25
"黄浦区","上海市黄浦区老道前街28号",121.493776290172,31.2237631297583,2022-04-25
"黄浦区","上海市黄浦区老道前街62号",121.494009490282,31.223253599368,2022-04-25
"黄浦区","上海市黄浦区老道前街68弄",121.49419660732,31.2232790759534,2022-04-25
"黄浦区","上海市黄浦区丽园路1032弄",121.478540259467,31.2113407564771,2022-04-25
"黄浦区","上海市黄浦区丽园路17号",121.496554749114,31.2168387604866,2022-04-25
"黄浦区","上海市黄浦区丽园路25号",121.496425033798,31.2168358266177,2022-04-25
"黄浦区","上海市黄浦区丽园路333弄",121.490709205669,31.215059429318,2022-04-25
"黄浦区","上海市黄浦区丽园路41号",121.496154374348,31.2167038024215,2022-04-25
"黄浦区","上海市黄浦区丽园路43弄",121.495718606345,31.2169136513198,2022-04-25
"黄浦区","上海市黄浦区丽园路45弄",121.495746633477,31.216842312012,2022-04-25
"黄浦区","上海市黄浦区丽园路488弄",121.489286020249,31.2131418583115,2022-04-25
"黄浦区","上海市黄浦区丽园路502号",121.488570879233,31.2136336855106,2022-04-25
"黄浦区","上海市黄浦区丽园路546号",121.487932812829,31.2131853276014,2022-04-25
"黄浦区","上海市黄浦区丽园路570号",121.487422485469,31.2129463620731,2022-04-25
"黄浦区","上海市黄浦区丽园路574弄",121.487358256625,31.2129483695405,2022-04-25
"黄浦区","上海市黄浦区丽园路68弄",121.495323980735,31.21622256879,2022-04-25
"黄浦区","上海市黄浦区丽园路694弄",121.486385661249,31.2123970864919,2022-04-25
"黄浦区","上海市黄浦区丽园路710弄",121.486006396663,31.2123440426996,2022-04-25
"黄浦区","上海市黄浦区丽园路842弄",121.483621395534,31.2113782080457,2022-04-25
"黄浦区","上海市黄浦区丽园路866弄",121.482159493147,31.2122576437947,2022-04-25
"黄浦区","上海市黄浦区丽园路881号",121.48205403208,31.2125598465868,2022-04-25
"黄浦区","上海市黄浦区丽园路881弄",121.438654018316,31.2233352788203,2022-04-25
"黄浦区","上海市黄浦区丽园路883号",121.48180780654,31.2126339687374,2022-04-25
"黄浦区","上海市黄浦区丽园路885号",121.481914076082,31.2125746710216,2022-04-25
"黄浦区","上海市黄浦区丽园路887号",121.481490614864,31.2125579935323,2022-04-25
"黄浦区","上海市黄浦区林荫路260弄",121.486546188444,31.2091485427482,2022-04-25
"黄浦区","上海市黄浦区灵济街46号",121.501883856721,31.2269755777869,2022-04-25
"黄浦区","上海市黄浦区柳江街24弄",121.496079276007,31.2251014830374,2022-04-25
"黄浦区","上海市黄浦区龙华东路18号",121.49963701498,31.2016298933241,2022-04-25
"黄浦区","上海市黄浦区龙华东路39号",121.492922091462,31.2027595322718,2022-04-25
"黄浦区","上海市黄浦区龙华东路72号",121.493112483232,31.201493916502,2022-04-25
"黄浦区","上海市黄浦区龙华东路888弄",121.477730128338,31.1990606070333,2022-04-25
"黄浦区","上海市黄浦区龙华东路98号",121.487640713821,31.2012293714807,2022-04-25
"黄浦区","上海市黄浦区鲁班路168号",121.479473380011,31.2119183014795,2022-04-25
"黄浦区","上海市黄浦区鲁班路168弄",121.480692470419,31.2107777316744,2022-04-25
"黄浦区","上海市黄浦区鲁班路299弄",121.481672881052,31.2101452082309,2022-04-25
"黄浦区","上海市黄浦区鲁班路400弄",121.482126615165,31.2064886571851,2022-04-25
"黄浦区","上海市黄浦区鲁班路509弄",121.483254078411,31.2067494139374,2022-04-25
"黄浦区","上海市黄浦区鲁班路738弄",121.484940916498,31.1998880342562,2022-04-25
"黄浦区","上海市黄浦区鲁班路88弄",121.479933042941,31.2123967776489,2022-04-25
"黄浦区","上海市黄浦区陆家浜路1018弄",121.495901681008,31.2176779204279,2022-04-25
"黄浦区","上海市黄浦区陆家浜路1034弄",121.496036516665,31.2171361616686,2022-04-25
"黄浦区","上海市黄浦区陆家浜路1060弄",121.494868000858,31.2173551199827,2022-04-25
"黄浦区","上海市黄浦区陆家浜路1088号",121.494590244794,31.2176036478577,2022-04-25
"黄浦区","上海市黄浦区陆家浜路1300号",121.49057401069,31.2171658862935,2022-04-25
"黄浦区","上海市黄浦区陆家浜路1382弄",121.490136356245,31.2163227069723,2022-04-25
"黄浦区","上海市黄浦区陆家浜路1398号",121.488726375917,31.2168924193886,2022-04-25
"黄浦区","上海市黄浦区陆家浜路305弄",121.507385528817,31.2171620259531,2022-04-25
"黄浦区","上海市黄浦区陆家浜路413弄",121.505863709453,31.2173034687199,2022-04-25
"黄浦区","上海市黄浦区陆家浜路468弄",121.504498105416,31.2161071433814,2022-04-25
"黄浦区","上海市黄浦区陆家浜路688弄",121.501678953234,31.2180530654927,2022-04-25
"黄浦区","上海市黄浦区陆家浜路842弄",121.498984036705,31.2180609405119,2022-04-25
"黄浦区","上海市黄浦区马当路278弄",121.480389561801,31.2236803698593,2022-04-25
"黄浦区","上海市黄浦区马当路290号",121.481188065569,31.223545962069,2022-04-25
"黄浦区","上海市黄浦区马当路296号",121.481183035058,31.223433865361,2022-04-25
"黄浦区","上海市黄浦区马当路306弄",121.480125639642,31.2230886190092,2022-04-25
"黄浦区","上海市黄浦区马当路314号",121.48126810459,31.2231044454016,2022-04-25
"黄浦区","上海市黄浦区马当路318弄",121.481149977415,31.2230443050963,2022-04-25
"黄浦区","上海市黄浦区马当路357弄",121.482270074555,31.2192363183031,2022-04-25
"黄浦区","上海市黄浦区马当路588弄",121.482317774578,31.2161137832415,2022-04-25
"黄浦区","上海市黄浦区马当路590号",121.482470666176,31.2163120523366,2022-04-25
"黄浦区","上海市黄浦区茂名南路131弄",121.468066966137,31.2235148498419,2022-04-25
"黄浦区","上海市黄浦区茂名南路133弄",121.468066966137,31.2235148498419,2022-04-25
"黄浦区","上海市黄浦区茂名南路159弄",121.4685696579,31.2220690848938,2022-04-25
"黄浦区","上海市黄浦区茂名南路169弄",121.469133524269,31.2212484931447,2022-04-25
"黄浦区","上海市黄浦区茂名南路96号",121.468009384754,31.2224378817589,2022-04-25
"黄浦区","上海市黄浦区蒙自路345弄",121.485623179532,31.21018620811,2022-04-25
"黄浦区","上海市黄浦区蒙自路395弄",121.486172313691,31.2085568544645,2022-04-25
"黄浦区","上海市黄浦区蒙自路430弄",121.485474959123,31.2089738858361,2022-04-25
"黄浦区","上海市黄浦区蒙自路490弄",121.485480618448,31.2072328582784,2022-04-25
"黄浦区","上海市黄浦区蒙自路601弄",121.487528126197,31.2051225486478,2022-04-25
"黄浦区","上海市黄浦区蒙自西路72弄",121.48209804905,31.2132159800014,2022-04-25
"黄浦区","上海市黄浦区梦花街113号",121.494196786981,31.2245916511308,2022-04-25
"黄浦区","上海市黄浦区梦花街13弄",121.492488659054,31.2236649295716,2022-04-25
"黄浦区","上海市黄浦区梦花街182弄",121.493363967942,31.2240204415512,2022-04-25
"黄浦区","上海市黄浦区梦花街196号",121.493159244117,31.2240069313487,2022-04-25
"黄浦区","上海市黄浦区梦花街198弄",121.493182330568,31.2239496480682,2022-04-25
"黄浦区","上海市黄浦区梦花街3弄",121.491585592524,31.2372471520636,2022-04-25
"黄浦区","上海市黄浦区梦花街57弄",121.495054893319,31.2250398772096,2022-04-25
"黄浦区","上海市黄浦区梦花街65号",121.49500696872,31.2250018946489,2022-04-25
"黄浦区","上海市黄浦区梦花街73弄",121.494698310947,31.224742037936,2022-04-25
"黄浦区","上海市黄浦区梦花街79号",121.494692382131,31.2248291201234,2022-04-25
"黄浦区","上海市黄浦区梦花街99号",121.494415524372,31.2246921663631,2022-04-25
"黄浦区","上海市黄浦区梦花街9号",121.495938062381,31.2253889763646,2022-04-25
"黄浦区","上海市黄浦区面筋弄11号",121.504791132674,31.2258243834812,2022-04-25
"黄浦区","上海市黄浦区面筋弄12弄",121.504795534371,31.2263274151385,2022-04-25
"黄浦区","上海市黄浦区面筋弄24号",121.504795534371,31.2263274151385,2022-04-25
"黄浦区","上海市黄浦区面筋弄38号",121.504795534371,31.2263274151385,2022-04-25
"黄浦区","上海市黄浦区面筋弄44号",121.504795534371,31.2263274151385,2022-04-25
"黄浦区","上海市黄浦区面筋弄48号",121.504795534371,31.2263274151385,2022-04-25
"黄浦区","上海市黄浦区苗江路758号",121.500508820477,31.2036201305573,2022-04-25
"黄浦区","上海市黄浦区南昌路127弄",121.470186517988,31.2228167134501,2022-04-25
"黄浦区","上海市黄浦区南昌路136弄",121.474628099751,31.2251238711102,2022-04-25
"黄浦区","上海市黄浦区南昌路152号",121.473944668919,31.224768208921,2022-04-25
"黄浦区","上海市黄浦区南昌路24弄",121.477915179274,31.2253040563008,2022-04-25
"黄浦区","上海市黄浦区南昌路272弄",121.46975317541,31.2238096049679,2022-04-25
"黄浦区","上海市黄浦区南昌路278弄",121.469575131258,31.2236126641786,2022-04-25
"黄浦区","上海市黄浦区南昌路280号",121.469465448155,31.2232416330906,2022-04-25
"黄浦区","上海市黄浦区南昌路282号",121.469274737895,31.2234240607528,2022-04-25
"黄浦区","上海市黄浦区南昌路290号",121.469041897107,31.2231804120477,2022-04-25
"黄浦区","上海市黄浦区南昌路302号",121.468673681679,31.2229444829126,2022-04-25
"黄浦区","上海市黄浦区南昌路312号",121.468504800243,31.2227574221841,2022-04-25
"黄浦区","上海市黄浦区南昌路74弄",121.477767497848,31.2253373295349,2022-04-25
"黄浦区","上海市黄浦区南车站路20弄",121.49632424392,31.2175142427522,2022-04-25
"黄浦区","上海市黄浦区南车站路30弄",121.496219681159,31.2172356812197,2022-04-25
"黄浦区","上海市黄浦区南车站路438号",121.499896535442,31.2110261997977,2022-04-25
"黄浦区","上海市黄浦区南车站路450弄",121.50015381014,31.2106206821849,2022-04-25
"黄浦区","上海市黄浦区南车站路555号",121.501598644722,31.2095445695266,2022-04-25
"黄浦区","上海市黄浦区南车站路90号",121.496743393271,31.2166219627679,2022-04-25
"黄浦区","上海市黄浦区南京东路414号",121.488954545516,31.2425498939908,2022-04-25
"黄浦区","上海市黄浦区南京东路627号",121.485360964154,31.2409938912336,2022-04-25
"黄浦区","上海市黄浦区南京东路720号",121.483315792,31.2412792516816,2022-04-25
"黄浦区","上海市黄浦区南京西路479弄",121.474402984391,31.2367738975098,2022-04-25
"黄浦区","上海市黄浦区南京西路88号",121.479483261372,31.2405916681445,2022-04-25
"黄浦区","上海市黄浦区南塘浜路93弄",121.48067306702,31.2097893347034,2022-04-25
"黄浦区","上海市黄浦区南张家弄48弄",121.491585592524,31.2372471520636,2022-04-25
"黄浦区","上海市黄浦区宁安路123弄",121.492682962535,31.2217788792634,2022-04-25
"黄浦区","上海市黄浦区宁波路120弄",121.491211897432,31.2454927130886,2022-04-25
"黄浦区","上海市黄浦区宁波路222号",121.48941322031,31.2448524743105,2022-04-25
"黄浦区","上海市黄浦区宁波路266号",121.488618579255,31.2446284089986,2022-04-25
"黄浦区","上海市黄浦区宁波路284弄",121.488411789327,31.2445556243191,2022-04-25
"黄浦区","上海市黄浦区宁波路540号",121.483899960073,31.2428860378203,2022-04-25
"黄浦区","上海市黄浦区宁波路542弄",121.483778778659,31.2427559028324,2022-04-25
"黄浦区","上海市黄浦区宁波路551号",121.483581331108,31.2426557157492,2022-04-25
"黄浦区","上海市黄浦区宁波路556号",121.483436164938,31.2428629593274,2022-04-25
"黄浦区","上海市黄浦区宁波路557号",121.483546387024,31.2425165496921,2022-04-25
"黄浦区","上海市黄浦区宁波路559号",121.48351970735,31.2425105291924,2022-04-25
"黄浦区","上海市黄浦区宁波路561号",121.483345975065,31.2423719032213,2022-04-25
"黄浦区","上海市黄浦区宁波路587弄",121.48300129524,31.2423587044126,2022-04-25
"黄浦区","上海市黄浦区宁波路620弄",121.482230728774,31.2425626296574,2022-04-25
"黄浦区","上海市黄浦区宁波路626弄",121.515804627718,31.2641064236965,2022-04-25
"黄浦区","上海市黄浦区宁波路634号",121.482217703344,31.2424598952312,2022-04-25
"黄浦区","上海市黄浦区宁波路645号",121.482013787993,31.2422146751868,2022-04-25
"黄浦区","上海市黄浦区宁波路74弄",121.491935302859,31.245651788011,2022-04-25
"黄浦区","上海市黄浦区宁海东路257号",121.487178326031,31.2340194637172,2022-04-25
"黄浦区","上海市黄浦区凝和路26弄",121.499780833692,31.2244535390112,2022-04-25
"黄浦区","上海市黄浦区牛庄路692号",121.483394753054,31.2435320789405,2022-04-25
"黄浦区","上海市黄浦区牛庄路748号",121.482427817003,31.2432236469624,2022-04-25
"黄浦区","上海市黄浦区牌楼路29号",121.492932691467,31.2197669474376,2022-04-25
"黄浦区","上海市黄浦区牌楼路41弄",121.493170203444,31.2194087943331,2022-04-25
"黄浦区","上海市黄浦区蓬莱路180号",121.497844266673,31.2237971755537,2022-04-25
"黄浦区","上海市黄浦区蓬莱路190弄",121.496810496693,31.2233668543172,2022-04-25
"黄浦区","上海市黄浦区蓬莱路198号",121.497566061457,31.2236596026717,2022-04-25
"黄浦区","上海市黄浦区蓬莱路209号",121.497330525752,31.2237374989019,2022-04-25
"黄浦区","上海市黄浦区蓬莱路212弄",121.497783271729,31.223701445848,2022-04-25
"黄浦区","上海市黄浦区蓬莱路221号",121.49712634091,31.223627950072,2022-04-25
"黄浦区","上海市黄浦区蓬莱路252弄",121.496682577988,31.223207201084,2022-04-25
"黄浦区","上海市黄浦区蓬莱路285弄",121.496084126857,31.2231081510931,2022-04-25
"黄浦区","上海市黄浦区蓬莱路291号",121.495933660684,31.2230207584965,2022-04-25
"黄浦区","上海市黄浦区蓬莱路303弄",121.495558797795,31.2232214834201,2022-04-25
"黄浦区","上海市黄浦区蓬莱路348号",121.495197319658,31.2224472232557,2022-04-25
"黄浦区","上海市黄浦区蓬莱路388弄",121.49458135157,31.2220738714649,2022-04-25
"黄浦区","上海市黄浦区蓬莱路391弄",121.494309703983,31.2222519780571,2022-04-25
"黄浦区","上海市黄浦区蓬莱路397号",121.494217358177,31.222181028831,2022-04-25
"黄浦区","上海市黄浦区蓬莱路401号",121.494229395471,31.2221228952031,2022-04-25
"黄浦区","上海市黄浦区蓬莱路402弄",121.494301349742,31.221763979083,2022-04-25
"黄浦区","上海市黄浦区蓬莱路405弄",121.493879146152,31.2220148113367,2022-04-25
"黄浦区","上海市黄浦区蓬莱路421弄",121.493672715546,31.2220803564963,2022-04-25
"黄浦区","上海市黄浦区平望街36弄",121.48569944567,31.2377620095423,2022-04-25
"黄浦区","上海市黄浦区普育东路101弄",121.502876214818,31.2152174750717,2022-04-25
"黄浦区","上海市黄浦区普育东路200弄",121.502308755228,31.2136236482467,2022-04-25
"黄浦区","上海市黄浦区普育东路26号",121.502612651982,31.2167004053053,2022-04-25
"黄浦区","上海市黄浦区普育东路71弄",121.503539343946,31.2153491925307,2022-04-25
"黄浦区","上海市黄浦区普育西路112弄",121.496556006742,31.2171298307083,2022-04-25
"黄浦区","上海市黄浦区普育西路208号",121.500317840726,31.2151372554968,2022-04-25
"黄浦区","上海市黄浦区普育西支路93号",121.498907411245,31.2177470201154,2022-04-25
"黄浦区","上海市黄浦区普育西支路95号",121.498859082408,31.2177384502128,2022-04-25
"黄浦区","上海市黄浦区乔家路8号",121.504291225657,31.2221337035828,2022-04-25
"黄浦区","上海市黄浦区青岛路27号",121.475137169484,31.243478666869,2022-04-25
"黄浦区","上海市黄浦区青岛路31号",121.47507788132,31.2434078109235,2022-04-25
"黄浦区","上海市黄浦区青岛路41号",121.475042398253,31.2433855815963,2022-04-25
"黄浦区","上海市黄浦区青岛路49号",121.474806862548,31.243362271671,2022-04-25
"黄浦区","上海市黄浦区青岛路51号",121.474733291327,31.2433363374427,2022-04-25
"黄浦区","上海市黄浦区青岛路61号",121.474592616684,31.2432460306988,2022-04-25
"黄浦区","上海市黄浦区青岛路66弄",121.484578540055,31.2354982364646,2022-04-25
"黄浦区","上海市黄浦区青岛路77号",121.474323304692,31.2431880645291,2022-04-25
"黄浦区","上海市黄浦区瞿溪路1003弄",121.483856931239,31.2057716302849,2022-04-25
"黄浦区","上海市黄浦区瞿溪路1046号",121.481974262551,31.2049234836898,2022-04-25
"黄浦区","上海市黄浦区瞿溪路1053弄",121.482156079586,31.2058100067291,2022-04-25
"黄浦区","上海市黄浦区瞿溪路1072弄",121.481430608056,31.2047559228658,2022-04-25
"黄浦区","上海市黄浦区瞿溪路110号",121.502091814447,31.2127597446274,2022-04-25
"黄浦区","上海市黄浦区瞿溪路1111弄",121.480162649829,31.2049094302128,2022-04-25
"黄浦区","上海市黄浦区瞿溪路112号",121.501975843206,31.2127422950665,2022-04-25
"黄浦区","上海市黄浦区瞿溪路1145弄",121.479453976612,31.2046405605389,2022-04-25
"黄浦区","上海市黄浦区瞿溪路114号",121.501800763462,31.2126111916244,2022-04-25
