"district","address","lng","lat","date"
"浦东新区","上海市浦东新区三三公路5020弄",121.879902942444,30.9812557067702,2022-03-18
"浦东新区","上海市浦东新区上南路3520弄",121.506977518455,31.1596914184766,2022-03-18
"浦东新区","上海市浦东新区北艾路1077弄",121.540540368241,31.1863061063091,2022-03-18
"浦东新区","上海市浦东新区蔡伦路1433弄",121.598575844865,31.1966656215702,2022-03-18
"浦东新区","上海市浦东新区齐爱路168弄",121.636263803384,31.1944164540822,2022-03-18
"浦东新区","上海市浦东新区定水路50弄",121.556696662329,31.2486790996932,2022-03-18
"浦东新区","上海市浦东新区新德路835弄",121.694507417395,31.2019665702439,2022-03-18
"浦东新区","上海市浦东新区华夏东路1668弄",121.687788990486,31.2033819900195,2022-03-18
"浦东新区","上海市浦东新区芳芯路251弄",121.563004024637,31.1984666927966,2022-03-18
"浦东新区","上海市浦东新区浦三路635弄",121.525132182981,31.1951443021741,2022-03-18
"浦东新区","上海市浦东新区江东支路南项湾",121.559824831607,31.3670772168427,2022-03-18
"浦东新区","上海市浦东新区观海路1118弄",121.791006269855,31.0645880678107,2022-03-18
"浦东新区","上海市浦东新区芦云路200弄",121.865041915071,30.8791243095893,2022-03-18
"浦东新区","上海市浦东新区杨莲路南新村吴家宅",121.549849598071,31.1721417237226,2022-03-18
"浦东新区","上海市浦东新区玉兰路81弄",121.554407959551,31.2099256153527,2022-03-18
"浦东新区","上海市浦东新区博华路999弄",121.557113925239,31.1768062904657,2022-03-18
"浦东新区","上海市浦东新区永泰路595弄",121.521072740381,31.1462686284638,2022-03-18
"浦东新区","上海市浦东新区博山路200弄",121.558865980305,31.2503079863726,2022-03-18
"浦东新区","上海市浦东新区瑞和路101弄",121.584859707864,31.1200779398788,2022-03-18
"浦东新区","上海市浦东新区南林路734弄",121.532150284608,31.1444111542546,2022-03-18
"浦东新区","上海市浦东新区华安路24弄",121.521983622168,31.2173589031085,2022-03-18
"浦东新区","上海市浦东新区锦安东路88弄",121.547408003695,31.2108588815286,2022-03-18
"浦东新区","上海市浦东新区浦东大道501弄",121.525107120257,31.2485129292745,2022-03-18
"浦东新区","上海市浦东新区人民西路1533弄",121.733696893574,31.053280159611,2022-03-18
"浦东新区","上海市浦东新区栖山路1636弄",121.573774617871,31.2647932169634,2022-03-18
"浦东新区","上海市浦东新区枣庄路399弄",121.584712206099,31.261941757194,2022-03-18
"浦东新区","上海市浦东新区枣庄路210弄",121.577389219582,31.2643915592667,2022-03-18
"浦东新区","上海市浦东新区金桥路1221弄",121.5896261169,31.2815848989426,2022-03-18
"浦东新区","上海市浦东新区云山路835弄",121.579012277977,31.2595660530424,2022-03-18
"浦东新区","上海市浦东新区博山东路811弄",121.57981814785,31.2654428107137,2022-03-18
"浦东新区","上海市浦东新区龙居路191弄",121.569897171968,31.2579176485215,2022-03-18
"浦东新区","上海市浦东新区拱为路2600弄",121.745418253359,31.0635577630424,2022-03-18
"浦东新区","上海市浦东新区拱乐路2400弄",121.749606962122,31.067545829755,2022-03-18
"浦东新区","上海市浦东新区城南路818号",121.698376442583,31.1952747535777,2022-03-18
"浦东新区","上海市浦东新区听谐路73弄",121.758974042827,31.0636258162458,2022-03-18
"浦东新区","上海市浦东新区迎薰路215弄",121.744216974697,31.0422106180488,2022-03-18
"浦东新区","上海市浦东新区听悦路1205弄",121.744821509009,31.0698826341759,2022-03-18
"浦东新区","上海市浦东新区拱鸣路60弄",121.751365035836,31.0657498248022,2022-03-18
"浦东新区","上海市浦东新区新德路1058弄",121.689090994492,31.2013948365188,2022-03-18
"浦东新区","上海市浦东新区秀浦路10号",121.59228510121,31.1362949362244,2022-03-18
"浦东新区","上海市浦东新区南园路455弄",121.753216174,31.0309930745967,2022-03-18
"浦东新区","上海市浦东新区彩虹雅苑东苑10号",121.746597279341,31.0599627826697,2022-03-18
"浦东新区","上海市浦东新区行泰路150弄",121.614337782835,31.2952456467756,2022-03-18
"浦东新区","上海市浦东新区东波路58弄",121.583778687013,31.2898925863562,2022-03-18
"浦东新区","上海市浦东新区柳埠路135弄",121.588934241996,31.2688910299805,2022-03-18
"浦东新区","上海市浦东新区柳杉路12号",121.602138614349,31.2442502059109,2022-03-18
"浦东新区","上海市浦东新区联勤村李家宅",121.55718596934,31.1732310110799,2022-03-18
"浦东新区","上海市浦东新区世博大道94弄",121.499466816029,31.1873645662758,2022-03-18
"浦东新区","上海市浦东新区上南路51号",121.584859707864,31.1200779398788,2022-03-18
"浦东新区","上海市浦东新区成山路1728弄",121.535534201464,31.1818249843163,2022-03-18
"浦东新区","上海市浦东新区崂山路551弄",121.528755677916,31.2325728575384,2022-03-18
"浦东新区","上海市浦东新区栖山路1700弄",121.575841349358,31.2653833149665,2022-03-18
"浦东新区","上海市浦东新区鹤驰路99弄",121.599741665756,31.0849672715556,2022-03-18
"浦东新区","上海市浦东新区亦园路75弄",121.720312410967,31.0752706964044,2022-03-18
"浦东新区","上海市浦东新区栖山路1555弄",121.572285586658,31.2644229665686,2022-03-18
"浦东新区","上海市浦东新区龙居路1号",121.56481258312,31.2625043237362,2022-03-18
"浦东新区","上海市浦东新区龙居路150弄",121.568293966124,31.2579189604655,2022-03-18
"浦东新区","上海市浦东新区东波路585弄",121.592860016736,31.2899795307181,2022-03-18
"浦东新区","上海市浦东新区高科西路3060弄",121.570701963874,31.1958678972719,2022-03-18
"浦东新区","上海市浦东新区绿林路333号",121.555348036267,31.1763985392376,2022-03-18
"浦东新区","上海市浦东新区灵岩南路1399弄",121.509104975394,31.1431208679889,2022-03-18
"黄浦区","上海市黄浦区鲁班路721弄",121.484686336716,31.2025081078975,2022-03-18
"黄浦区","上海市黄浦区淡水路225弄",121.479878246304,31.2227551833205,2022-03-18
"黄浦区","上海市黄浦区河南南路368弄",121.495119526401,31.229784565236,2022-03-18
"黄浦区","上海市黄浦区斜土路486弄",121.483998234695,31.2084093757901,2022-03-18
"黄浦区","上海市黄浦区淮海东路89弄",121.488370916426,31.2308558135008,2022-03-18
"黄浦区","上海市黄浦区广东路138号",121.494688699078,31.2390723746523,2022-03-18
"黄浦区","上海市黄浦区五里桥路39弄",121.489821320503,31.2101848182838,2022-03-18
"黄浦区","上海市黄浦区河南南路398弄",121.495698843624,31.2285718019843,2022-03-18
"黄浦区","上海市黄浦区新昌路477弄",121.473272736398,31.2445516879245,2022-03-18
"黄浦区","上海市黄浦区中山南路1887弄",121.499093540146,31.2077535947672,2022-03-18
"黄浦区","上海市黄浦区斜土路80弄",121.490479149628,31.2107099394492,2022-03-18
"静安区","上海市静安区茂名北路93号",121.466311407679,31.2314462029207,2022-03-18
"静安区","上海市静安区临汾路300弄",121.468559956201,31.3181868863255,2022-03-18
"静安区","上海市静安区中山北路197弄",121.476573919317,31.2714033054513,2022-03-18
"静安区","上海市静安区万荣路948号",121.448443572102,31.2931571488599,2022-03-18
"静安区","上海市静安区沪太路1329弄",121.43027983469,31.28821169754,2022-03-18
"静安区","上海市静安区海防路100弄",121.456160375755,31.2473811411033,2022-03-18
"静安区","上海市静安区平型关路801弄",121.465598512426,31.2848164999036,2022-03-18
"静安区","上海市静安区长宁路209弄",121.434612631657,31.2324453328046,2022-03-18
"静安区","上海市静安区万荣路959号",121.448759685811,31.2943335884431,2022-03-18
"徐汇区","上海市徐汇区虹漕南路99弄",121.420123143442,31.1688923249195,2022-03-18
"徐汇区","上海市徐汇区龙南五村",121.460453018465,31.1614279215894,2022-03-18
"徐汇区","上海市徐汇区罗秀路930弄",121.432818895214,31.1375055711784,2022-03-18
"徐汇区","上海市徐汇区龙华路2518弄",121.458866161782,31.1848288735099,2022-03-18
"徐汇区","上海市徐汇区桂林西街47弄",121.423043983808,31.1604233988607,2022-03-18
"徐汇区","上海市徐汇区大木桥路450弄",121.468767374943,31.2018242548954,2022-03-18
"徐汇区","上海市徐汇区湖南路4弄",121.443396352764,31.1945567728227,2022-03-18
"徐汇区","上海市徐汇区虹梅南路698弄",121.427865009818,31.1340556802045,2022-03-18
"徐汇区","上海市徐汇区龙吴路2588弄",121.462948960325,31.1201446383344,2022-03-18
"徐汇区","上海市徐汇区田林十三村",121.431878818498,31.1799641976388,2022-03-18
"徐汇区","上海市徐汇区汇成二村",121.441477841686,31.1525364827155,2022-03-18
"徐汇区","上海市徐汇区老沪闵路1068弄",121.444108978525,31.136352968549,2022-03-18
"徐汇区","上海市徐汇区华济路1号北二",121.466660040047,31.1221698374958,2022-03-18
"徐汇区","上海市徐汇区漕溪路251弄",121.442230352212,31.1763865669736,2022-03-18
"徐汇区","上海市徐汇区龙吴路1717弄",121.45670573703,31.1382707196565,2022-03-18
"徐汇区","上海市徐汇区东安一村",121.463765520033,31.1953510331687,2022-03-18
"徐汇区","上海市徐汇区龙州路425弄",121.433107303322,31.1354737615493,2022-03-18
"徐汇区","上海市徐汇区百色路451弄",121.449392182721,31.1484761470419,2022-03-18
"徐汇区","上海市徐汇区日晖一村",121.471642132236,31.2008991612498,2022-03-18
"徐汇区","上海市徐汇区老沪闵路901号",121.441368158583,31.1389243595355,2022-03-18
"徐汇区","上海市徐汇区罗秀路1175弄",121.428828981461,31.1354273834691,2022-03-18
"徐汇区","上海市徐汇区罗秀路887号",121.439491418712,31.1375816072181,2022-03-18
"徐汇区","上海市徐汇区梅陇十一村",121.433632041362,31.1387218313397,2022-03-18
"徐汇区","上海市徐汇区凯旋南路31号",121.451173432716,31.1739965635002,2022-03-18
"徐汇区","上海市徐汇区龙吴路555弄",121.456033085864,31.1632289746332,2022-03-18
"徐汇区","上海市徐汇区龙吴路2418弄",121.469078008989,31.1253760301988,2022-03-18
"徐汇区","上海市徐汇区天钥桥南路1191号",121.462057841259,31.1594286766842,2022-03-18
"徐汇区","上海市徐汇区龙华西路21弄",121.454790729344,31.1750608803076,2022-03-18
"徐汇区","上海市徐汇区梅陇六村",121.426003900463,31.138609864973,2022-03-18
"徐汇区","上海市徐汇区江南一村",121.469375258282,31.1981778812363,2022-03-18
"长宁区","上海市长宁区华山路1038弄",121.44243714214,31.218821262776,2022-03-18
"长宁区","上海市长宁区万航渡路1455号",121.427602884271,31.2312281267187,2022-03-18
"长宁区","上海市长宁区天山路938弄",121.413482869112,31.2168726543865,2022-03-18
"长宁区","上海市长宁区天山路288弄",121.389700320566,31.221589191298,2022-03-18
"长宁区","上海市长宁区茅台路900弄",121.404493076721,31.2159162085971,2022-03-18
"长宁区","上海市长宁区金钟路255弄",121.373102778811,31.2250967738214,2022-03-18
"普陀区","上海市普陀区普陀区真光路798弄",121.382947308895,31.2420191624906,2022-03-18
"普陀区","上海市普陀区普陀区定边路377弄",121.371116355837,31.2661373879637,2022-03-18
"普陀区","上海市普陀区普陀区平利路21弄",121.436136786615,31.2760292095137,2022-03-18
"普陀区","上海市普陀区普陀区镇坪路48弄",121.435173174295,31.256892242896,2022-03-18
"普陀区","上海市普陀区普陀区管弄路311弄",121.430192968548,31.2604335373971,2022-03-18
"普陀区","上海市普陀区普陀区车站新村",121.410093742084,31.2661193310269,2022-03-18
"普陀区","上海市普陀区普陀区新村路1717弄",121.415449080212,31.2753065428436,2022-03-18
"普陀区","上海市普陀区普陀区黄陵路200弄",121.435022887783,31.2692043157615,2022-03-18
"普陀区","上海市普陀区普陀区志丹路500弄",121.437807634864,31.2774103314127,2022-03-18
"普陀区","上海市普陀区普陀区金汤路353弄",121.385829791615,31.2562354124742,2022-03-18
"普陀区","上海市普陀区普陀区新村路1881弄",121.410487110067,31.2763031207876,2022-03-18
"普陀区","上海市普陀区普陀区西康路1288弄",121.443934078442,31.249768577575,2022-03-18
"普陀区","上海市普陀区普陀区昌化路994弄",121.451138488632,31.2523540686302,2022-03-18
"虹口区","上海市虹口区逸仙路810弄",121.491535287416,31.3155940396828,2022-03-18
"虹口区","上海市虹口区榆林路69弄",121.52213390868,31.2601223058348,2022-03-18
"虹口区","上海市虹口区天宝路882弄",121.507612800111,31.2644611646243,2022-03-18
"虹口区","上海市虹口区广中路680弄",121.469993921287,31.2828728927336,2022-03-18
"虹口区","上海市虹口区四达路220弄",121.49326901705,31.2736838788592,2022-03-18
"虹口区","上海市虹口区曲阳路610弄",121.497629391996,31.2885472914007,2022-03-18
"虹口区","上海市虹口区车站北路732弄",121.472886465029,31.3033777921135,2022-03-18
"虹口区","上海市虹口区四川北路1906弄",121.491894250298,31.2679382026318,2022-03-18
"虹口区","上海市虹口区万安路1323弄",121.472085895158,31.3079036146411,2022-03-18
"虹口区","上海市虹口区场中路115弄",121.488699875904,31.3141859485243,2022-03-18
"虹口区","上海市虹口区欧阳路289弄",121.49508359418,31.2740076423124,2022-03-18
"虹口区","上海市虹口区东大名路888弄",121.511162993317,31.2558348756194,2022-03-18
"虹口区","上海市虹口区吴家湾路101弄",121.491288522892,31.2990773823836,2022-03-18
"虹口区","上海市虹口区广灵二村",121.484946845314,31.2917500305005,2022-03-18
"杨浦区","上海市杨浦区国权后路15弄",121.512183198885,31.2947762344613,2022-03-18
"杨浦区","上海市杨浦区政通路9弄",121.532519937325,31.2655241446571,2022-03-18
"杨浦区","上海市杨浦区长阳路2087弄",121.547326347724,31.2789915751725,2022-03-18
"杨浦区","上海市杨浦区控江路2028号",121.516455360229,31.2789572408481,2022-03-18
"杨浦区","上海市杨浦区国顺路398号",121.515708958181,31.2986738665034,2022-03-18
"杨浦区","上海市杨浦区凤城三村",121.528297991259,31.2878228700411,2022-03-18
"杨浦区","上海市杨浦区凤城二村",121.525134338914,31.2841340200324,2022-03-18
"宝山区","上海市宝山区大华路301弄",121.423029521089,31.2762931674061,2022-03-18
"宝山区","上海市宝山区顾陈路319号",121.399862491478,31.3466200953906,2022-03-18
"宝山区","上海市宝山区顾村镇盛宅村",121.41693550634,31.3550239075946,2022-03-18
"宝山区","上海市宝山区大华二路80号",121.421380052511,31.2786770812902,2022-03-18
"宝山区","上海市宝山区呼玛二村",121.45330969305,31.3472565524271,2022-03-18
"宝山区","上海市宝山区虎林路135弄",121.464830012062,31.3426499085214,2022-03-18
"宝山区","上海市宝山区华灵路1681弄",121.415674375234,31.2867437109505,2022-03-18
"宝山区","上海市宝山区菊泉街400弄",121.381547269814,31.3598062676864,2022-03-18
"宝山区","上海市宝山区大华路455弄",121.421637956023,31.2769128984094,2022-03-18
"宝山区","上海市宝山区菊太路1609弄",121.355684994295,31.3517448581139,2022-03-18
"宝山区","上海市宝山区沙浦路311弄",121.392129877648,31.3601256208655,2022-03-18
"宝山区","上海市宝山区华灵路1900弄",121.411514052926,31.2848785292534,2022-03-18
"宝山区","上海市宝山区十二房路",121.390374948004,31.3686865398212,2022-03-18
"宝山区","上海市宝山区泰和西路3463弄",121.412466256766,31.3564017785614,2022-03-18
"宝山区","上海市宝山区永顺路81弄",121.355972002905,31.4183699913323,2022-03-18
"宝山区","上海市宝山区友谊路2699号",121.442395281103,31.3931588011498,2022-03-18
"宝山区","上海市宝山区新沪路864号",121.425661825725,31.2773171256165,2022-03-18
"宝山区","上海市宝山区长江路868号",121.490436839438,31.3520878558129,2022-03-18
"宝山区","上海市宝山区长临路1318弄",121.436997363294,31.3343227838632,2022-03-18
"闵行区","上海市闵行区七莘路2465弄30支弄",121.354847324407,31.1523355290885,2022-03-18
"闵行区","上海市闵行区华漕新村",121.33488778445,31.2331684852887,2022-03-18
"闵行区","上海市闵行区春申路1580弄",121.438496186037,31.1219717557149,2022-03-18
"闵行区","上海市闵行区都会路258号",121.438184923178,31.0426901776821,2022-03-18
"闵行区","上海市闵行区北翟路3318弄",121.320943477849,31.2298324269897,2022-03-18
"闵行区","上海市闵行区东川路800号",121.443283974745,31.0320288411515,2022-03-18
"闵行区","上海市闵行区东风村",121.551063478307,31.1088679852405,2022-03-18
"闵行区","上海市闵行区剑川路198弄",121.468834969891,31.0463976706466,2022-03-18
"闵行区","上海市闵行区剑川路201弄",121.470496882542,31.0451264499539,2022-03-18
"闵行区","上海市闵行区剑川路综合服务中心工地宿舍",121.452967887803,31.0406535211443,2022-03-18
"闵行区","上海市闵行区华宁路1399弄",121.39689880194,31.0293617714221,2022-03-18
"闵行区","上海市闵行区普乐路460号",121.430861487508,31.1222330566419,2022-03-18
"闵行区","上海市闵行区莲花南路1108弄",121.416033158455,31.1112943521733,2022-03-18
"闵行区","上海市闵行区梅陇二村",121.417055519956,31.1407047498012,2022-03-18
"闵行区","上海市闵行区金平路558弄",121.414039010053,31.0210269631615,2022-03-18
"闵行区","上海市闵行区银春路2200弄",121.392444015085,31.030873862853,2022-03-18
"闵行区","上海市闵行区民建村",121.461712173298,31.1019195151607,2022-03-18
"闵行区","上海市闵行区银都路2688弄",121.413185529988,31.1037732688777,2022-03-18
"闵行区","上海市闵行区申北路135弄",121.390954534719,31.0965876340912,2022-03-18
"闵行区","上海市闵行区普乐路425弄",121.430913140075,31.1209862095661,2022-03-18
"闵行区","上海市闵行区名都路58弄",121.396267562658,31.112666155887,2022-03-18
"闵行区","上海市闵行区北翟路2000弄",121.337604529804,31.2322896319708,2022-03-18
"闵行区","上海市闵行区江汉路200弄",121.504991724294,31.107835227921,2022-03-18
"闵行区","上海市闵行区沪闵路6780弄",121.399565781168,31.1300511904538,2022-03-18
"嘉定区","上海市嘉定区温宿路6弄",121.272595058352,31.3801553396772,2022-03-18
"嘉定区","上海市嘉定区崇教路267号",121.278988747819,31.3250704329038,2022-03-18
"嘉定区","上海市嘉定区城中路213弄",121.251319770315,31.396716884237,2022-03-18
"嘉定区","上海市嘉定区温宿路39弄",121.254382003968,31.3933957643301,2022-03-18
"嘉定区","上海市嘉定区温宿路45号",121.254113141129,31.3935471892656,2022-03-18
"嘉定区","上海市嘉定区建华路64号",121.357127313621,31.2772800130179,2022-03-18
"嘉定区","上海市嘉定区靖远路742弄",121.339029960987,31.2611868786333,2022-03-18
"嘉定区","上海市嘉定区靖远路1099弄",121.330747404524,31.2608195464392,2022-03-18
"嘉定区","上海市嘉定区金园一路1118弄",121.319776040008,31.2538058483937,2022-03-18
"嘉定区","上海市嘉定区海波路333弄",121.346781978216,31.2726868871639,2022-03-18
"嘉定区","上海市嘉定区海川路58弄",121.354659219233,31.2718661222192,2022-03-18
"嘉定区","上海市嘉定区华江支路328弄",121.346255301695,31.2649744832432,2022-03-18
"嘉定区","上海市嘉定区临夏路98弄",121.343514391923,31.2646046965727,2022-03-18
"嘉定区","上海市嘉定区芳林路1357弄",121.333913033141,31.3111741030555,2022-03-18
"嘉定区","上海市嘉定区澄浏中路1855弄",121.290641998081,31.3742965987756,2022-03-18
"嘉定区","上海市嘉定区南新路478弄",121.221050018698,31.4338789299325,2022-03-18
"嘉定区","上海市嘉定区沈徐路128弄",121.27408166414,31.3249114932369,2022-03-18
"嘉定区","上海市嘉定区娄塘人民街101号",121.313509460771,31.2968927754665,2022-03-18
"嘉定区","上海市嘉定区娄塘小东街48号",121.223535270722,31.4388227328811,2022-03-18
"嘉定区","上海市嘉定区星华公路2173号",121.291518043581,31.2780928604262,2022-03-18
"嘉定区","上海市嘉定区嘉定工业区娄东村",121.246467483527,31.3615193081338,2022-03-18
"嘉定区","上海市嘉定区三里村",121.206127726888,31.4592926068563,2022-03-18
"嘉定区","上海市嘉定区娄南村",121.222467904115,31.43057793372,2022-03-18
"嘉定区","上海市嘉定区战斗村",121.24095503151,31.4277378615032,2022-03-18
"嘉定区","上海市嘉定区安亭镇联群村",121.252875815119,31.2823137664263,2022-03-18
"嘉定区","上海市嘉定区江桥镇五四村",121.333613088931,31.2531504626494,2022-03-18
"嘉定区","上海市嘉定区南翔镇新丰村",121.308205326056,31.3267401698831,2022-03-18
"嘉定区","上海市嘉定区华亭镇唐行石村",121.248062694197,31.4674750258459,2022-03-18
"嘉定区","上海市嘉定区真新街道丰庄二村",121.371065960898,31.2513348534403,2022-03-18
"金山区","上海市金山区龙轩路1998弄",121.325385508765,30.7515654344969,2022-03-18
"金山区","上海市金山区板桥东路1200弄",121.362011939662,30.7442020254162,2022-03-18
"金山区","上海市金山区北泰路318弄",121.321863342691,30.7357075609362,2022-03-18
"金山区","上海市金山区板桥西路1709号",121.32191697153,30.7330354055175,2022-03-18
"金山区","上海市金山区板桥西路1709号",121.32191697153,30.7330354055175,2022-03-18
"金山区","上海市金山区龙轩路1998弄",121.325385508765,30.7515654344969,2022-03-18
"金山区","上海市金山区枫阳路211号",121.027031389567,30.8992875207669,2022-03-18
"金山区","上海市金山区贵泾村",121.107065020673,30.8719945604938,2022-03-18
"金山区","上海市金山区西静路1429弄",121.316913050517,30.7499962768473,2022-03-18
"金山区","上海市金山区蒙山路1517弄",121.345995332081,30.7407929391561,2022-03-18
"金山区","上海市金山区海盛路500弄",121.358574214306,30.7593412444114,2022-03-18
"金山区","上海市金山区贵泾村",121.107065020673,30.8719945604938,2022-03-18
"金山区","上海市金山区龙宇路999弄",121.363904040558,30.7488522900226,2022-03-18
"金山区","上海市金山区金龙新街436弄",121.176890038472,30.8927888357624,2022-03-18
"金山区","上海市金山区金龙新街436弄",121.176890038472,30.8927888357624,2022-03-18
"金山区","上海市金山区金龙新街436弄",121.176890038472,30.8927888357624,2022-03-18
"金山区","上海市金山区干巷和溪园",121.247707234706,30.8356866171425,2022-03-18
"松江区","上海市松江区外婆泾路299弄",121.265097727283,31.1202329851394,2022-03-18
"松江区","上海市松江区古楼公路759弄",121.261445380193,31.1100312826077,2022-03-18
"松江区","上海市松江区龙源路555号",121.20701498324,31.0617705755211,2022-03-18
"松江区","上海市松江区金白花路50弄",121.212990960646,31.127747874658,2022-03-18
"松江区","上海市松江区申浜路279弄",121.330855560507,31.0682018946693,2022-03-18
"松江区","上海市松江区欣浪路888弄",121.283894843362,30.9891250191632,2022-03-18
"松江区","上海市松江区大官塘路248弄",121.234479596241,31.0371351764645,2022-03-18
"青浦区","上海市青浦区龙联路58弄",121.303675620522,31.2042845888757,2022-03-18
"青浦区","上海市青浦区新府中路1655号",121.237475085795,31.2420105176245,2022-03-18
"青浦区","上海市青浦区盈港东路8300弄",121.14859548101,31.170199328131,2022-03-18
"青浦区","上海市青浦区北青公路3488号",121.258212199001,31.207713365969,2022-03-18
"青浦区","上海市青浦区华纪路189弄",121.244040441445,31.2577046503107,2022-03-18
"青浦区","上海市青浦区新凤南路233弄",121.240589690659,31.2081381997365,2022-03-18
"青浦区","上海市青浦区华盈路1085号",121.155588519914,31.1691134816486,2022-03-18
"青浦区","上海市青浦区青松路129弄",121.123041384168,31.1515345689306,2022-03-18
"青浦区","上海市青浦区莫家圩水塘上",120.975843426353,31.0239580860294,2022-03-18
"青浦区","上海市青浦区外青松公路6161号",121.136641729589,31.160961854664,2022-03-18
"青浦区","上海市青浦区沪青平公路2095号",121.269348043256,31.1641918293325,2022-03-18
"奉贤区","上海市奉贤区金汇镇秀韵路105弄",121.526251527403,30.9409634664458,2022-03-18
"奉贤区","上海市奉贤区西渡街道扶兰路18弄",121.445772011515,30.9933288273689,2022-03-18
"奉贤区","上海市奉贤区四团镇横桥村",121.78253596754,30.9264929334995,2022-03-18
"奉贤区","上海市奉贤区奉城镇头桥东路456号",121.654377415348,30.9520461246094,2022-03-18
"奉贤区","上海市奉贤区西渡街道西闸路1118弄",121.49997783209,31.0102610399675,2022-03-18
"奉贤区","上海市奉贤区西渡街道南渡村",121.457826955507,31.0055991007156,2022-03-18
"崇明区","上海市崇明区资料各区卫健委新闻办",121.403556862718,31.628569984404,2022-03-18
"崇明区","上海市崇明区编辑林欣",121.403556862718,31.628569984404,2022-03-18
