[{"district":"宝山区","address":"上海市宝山区菊太路999弄","lng":121.3688,"lat":31.3562,"date":"2022-03-09"},{"district":"宝山区","address":"上海市宝山区友谊路1869弄","lng":121.4543,"lat":31.402,"date":"2022-03-09"},{"district":"奉贤区","address":"上海市奉贤区百团路198弄","lng":121.524,"lat":30.9608,"date":"2022-03-09"},{"district":"虹口区","address":"上海市NA","lng":121.4805,"lat":31.2359,"date":"2022-03-09"},{"district":"虹口区","address":"上海市虹口区广灵二路商业二村","lng":121.4849,"lat":31.2918,"date":"2022-03-09"},{"district":"虹口区","address":"上海市虹口区曲阳路440号","lng":121.498,"lat":31.28,"date":"2022-03-09"},{"district":"虹口区","address":"上海市虹口区天宝路1088号","lng":121.5052,"lat":31.2807,"date":"2022-03-09"},{"district":"黄浦区","address":"上海市黄浦区瞿溪路811弄","lng":121.4881,"lat":31.2071,"date":"2022-03-09"},{"district":"嘉定区","address":"上海市嘉定区宝安公路2444号","lng":121.3381,"lat":31.3538,"date":"2022-03-09"},{"district":"嘉定区","address":"上海市嘉定区宝安公路2948号","lng":121.3025,"lat":31.3413,"date":"2022-03-09"},{"district":"嘉定区","address":"上海市嘉定区宝安公路3705弄","lng":121.3134,"lat":31.3453,"date":"2022-03-09"},{"district":"嘉定区","address":"上海市嘉定区崇文路1855号","lng":121.2714,"lat":31.3239,"date":"2022-03-09"},{"district":"嘉定区","address":"上海市嘉定区海蓝路98弄","lng":121.3549,"lat":31.267,"date":"2022-03-09"},{"district":"嘉定区","address":"上海市嘉定区沪宜公路2800弄","lng":121.2756,"lat":31.3611,"date":"2022-03-09"},{"district":"嘉定区","address":"上海市嘉定区康年路208弄","lng":121.2805,"lat":31.3253,"date":"2022-03-09"},{"district":"嘉定区","address":"上海市嘉定区秋竹路655弄","lng":121.2257,"lat":31.3857,"date":"2022-03-09"},{"district":"嘉定区","address":"上海市嘉定区双单路1509弄龙湖郦城","lng":121.2615,"lat":31.3322,"date":"2022-03-09"},{"district":"嘉定区","address":"上海市嘉定区玉桂路74弄","lng":121.2894,"lat":31.3354,"date":"2022-03-09"},{"district":"嘉定区","address":"上海市嘉定区裕民南路336弄","lng":121.2823,"lat":31.3411,"date":"2022-03-09"},{"district":"静安区","address":"上海市静安区宝昌路659弄","lng":121.4784,"lat":31.2682,"date":"2022-03-09"},{"district":"静安区","address":"上海市静安区沪太路1329弄","lng":121.4303,"lat":31.2882,"date":"2022-03-09"},{"district":"静安区","address":"上海市静安区塘沽路933号","lng":121.4842,"lat":31.2516,"date":"2022-03-09"},{"district":"闵行区","address":"上海市闵行区保乐路666弄","lng":121.2902,"lat":31.2071,"date":"2022-03-09"},{"district":"闵行区","address":"上海市闵行区昌林路430号","lng":121.524,"lat":31.0707,"date":"2022-03-09"},{"district":"闵行区","address":"上海市闵行区古美西路86弄","lng":121.4072,"lat":31.1419,"date":"2022-03-09"},{"district":"闵行区","address":"上海市闵行区虹梅南路1008号","lng":121.4309,"lat":31.1299,"date":"2022-03-09"},{"district":"闵行区","address":"上海市闵行区虹梅南路1555弄","lng":121.433,"lat":31.1238,"date":"2022-03-09"},{"district":"闵行区","address":"上海市闵行区虹梅南路1578号","lng":121.4341,"lat":31.1227,"date":"2022-03-09"},{"district":"闵行区","address":"上海市闵行区虹梅南路1781弄","lng":121.4341,"lat":31.1135,"date":"2022-03-09"},{"district":"闵行区","address":"上海市闵行区纪东村","lng":121.2841,"lat":31.2519,"date":"2022-03-09"},{"district":"闵行区","address":"上海市闵行区龙茗路513弄","lng":121.3919,"lat":31.1334,"date":"2022-03-09"},{"district":"闵行区","address":"上海市闵行区罗秀路1385号","lng":121.4239,"lat":31.1345,"date":"2022-03-09"},{"district":"闵行区","address":"上海市闵行区梅富路366号","lng":121.4225,"lat":31.1174,"date":"2022-03-09"},{"district":"闵行区","address":"上海市闵行区浦星公路568弄","lng":121.5036,"lat":31.1242,"date":"2022-03-09"},{"district":"闵行区","address":"上海市闵行区普洱路88弄","lng":121.3958,"lat":31.1043,"date":"2022-03-09"},{"district":"闵行区","address":"上海市闵行区普杰路100弄","lng":121.4289,"lat":31.1236,"date":"2022-03-09"},{"district":"闵行区","address":"上海市闵行区七莘路2628弄","lng":121.3633,"lat":31.1515,"date":"2022-03-09"},{"district":"闵行区","address":"上海市闵行区上中西路810弄","lng":121.4215,"lat":31.1369,"date":"2022-03-09"},{"district":"闵行区","address":"上海市闵行区五一村白场浪","lng":121.4413,"lat":31.1153,"date":"2022-03-09"},{"district":"闵行区","address":"上海市闵行区行南村周家塘","lng":121.4799,"lat":31.0381,"date":"2022-03-09"},{"district":"闵行区","address":"上海市闵行区知新村","lng":121.5248,"lat":31.1144,"date":"2022-03-09"},{"district":"闵行区","address":"上海市闵行区中春路6785号","lng":121.3552,"lat":31.1397,"date":"2022-03-09"},{"district":"闵行区","address":"上海市闵行区朱梅路266弄","lng":121.4396,"lat":31.1288,"date":"2022-03-09"},{"district":"浦东新区","address":"上海市NA","lng":121.4805,"lat":31.2359,"date":"2022-03-09"},{"district":"浦东新区","address":"上海市浦东新区博兴路462弄","lng":121.5894,"lat":31.272,"date":"2022-03-09"},{"district":"浦东新区","address":"上海市浦东新区花木路500弄","lng":121.5491,"lat":31.2178,"date":"2022-03-09"},{"district":"浦东新区","address":"上海市浦东新区军港公路326弄","lng":121.856,"lat":31.0757,"date":"2022-03-09"},{"district":"浦东新区","address":"上海市浦东新区柳埠路142弄","lng":121.5889,"lat":31.2693,"date":"2022-03-09"},{"district":"浦东新区","address":"上海市浦东新区牟平路384弄","lng":121.5896,"lat":31.2816,"date":"2022-03-09"},{"district":"浦东新区","address":"上海市浦东新区棋杆村","lng":121.6654,"lat":31.1659,"date":"2022-03-09"},{"district":"浦东新区","address":"上海市浦东新区台儿庄路663弄","lng":121.6003,"lat":31.265,"date":"2022-03-09"},{"district":"浦东新区","address":"上海市浦东新区五莲路780弄","lng":121.5971,"lat":31.2743,"date":"2022-03-09"},{"district":"普陀区","address":"上海市普陀区桃浦路2055弄","lng":121.3682,"lat":31.2699,"date":"2022-03-09"},{"district":"松江区","address":"上海市松江区北松公路6700弄","lng":121.2748,"lat":31.0099,"date":"2022-03-09"},{"district":"松江区","address":"上海市松江区沪亭北路618弄","lng":121.3225,"lat":31.1543,"date":"2022-03-09"},{"district":"松江区","address":"上海市松江区涞亭北路99弄","lng":121.3272,"lat":31.1637,"date":"2022-03-09"},{"district":"松江区","address":"上海市松江区民乐一村","lng":121.2298,"lat":31.0235,"date":"2022-03-09"},{"district":"松江区","address":"上海市松江区新庙三路916弄","lng":121.2924,"lat":31.0634,"date":"2022-03-09"},{"district":"松江区","address":"上海市松江区长溇村吴家桥","lng":121.2928,"lat":30.9773,"date":"2022-03-09"},{"district":"徐汇区","address":"上海市徐汇区漕溪北路1200号","lng":121.4423,"lat":31.1885,"date":"2022-03-09"},{"district":"徐汇区","address":"上海市徐汇区虹漕路19弄","lng":121.416,"lat":31.1714,"date":"2022-03-09"},{"district":"徐汇区","address":"上海市徐汇区华泾路880弄","lng":121.4545,"lat":31.1253,"date":"2022-03-09"},{"district":"徐汇区","address":"上海市徐汇区钦州北路885弄","lng":121.4198,"lat":31.1866,"date":"2022-03-09"},{"district":"杨浦区","address":"上海市杨浦区国定路277弄","lng":121.5168,"lat":31.3007,"date":"2022-03-09"},{"district":"长宁区","address":"上海市长宁区荣华东道60弄","lng":121.4037,"lat":31.2002,"date":"2022-03-09"},{"district":"宝山区","address":"上海市宝山区共富二村","lng":121.4381,"lat":31.3546,"date":"2022-03-10"},{"district":"宝山区","address":"上海市宝山区聚源桥村严家桥","lng":121.3874,"lat":31.4478,"date":"2022-03-10"},{"district":"宝山区","address":"上海市宝山区沈家桥柏家宅","lng":121.3183,"lat":31.5049,"date":"2022-03-10"},{"district":"宝山区","address":"上海市宝山区淞良路201弄","lng":121.4937,"lat":31.349,"date":"2022-03-10"},{"district":"宝山区","address":"上海市宝山区塘后路285弄","lng":121.5101,"lat":31.4046,"date":"2022-03-10"},{"district":"宝山区","address":"上海市宝山区友谊路1869弄","lng":121.4543,"lat":31.402,"date":"2022-03-10"},{"district":"宝山区","address":"上海市宝山区长江路258号","lng":121.5027,"lat":31.356,"date":"2022-03-10"},{"district":"宝山区","address":"上海市宝山区长江西路53弄","lng":121.4604,"lat":31.3447,"date":"2022-03-10"},{"district":"虹口区","address":"上海市虹口区广灵二路商业二村","lng":121.4849,"lat":31.2918,"date":"2022-03-10"},{"district":"虹口区","address":"上海市虹口区曲阳路440号","lng":121.498,"lat":31.28,"date":"2022-03-10"},{"district":"虹口区","address":"上海市虹口区逸仙路288弄","lng":121.4937,"lat":31.3044,"date":"2022-03-10"},{"district":"黄浦区","address":"上海市黄浦区徐家汇路388号","lng":121.4806,"lat":31.2154,"date":"2022-03-10"},{"district":"嘉定区","address":"上海市嘉定区崇文路1855号","lng":121.2714,"lat":31.3239,"date":"2022-03-10"},{"district":"嘉定区","address":"上海市嘉定区科盛路1065号","lng":121.3331,"lat":31.3513,"date":"2022-03-10"},{"district":"嘉定区","address":"上海市嘉定区秋竹路801弄","lng":121.226,"lat":31.3891,"date":"2022-03-10"},{"district":"嘉定区","address":"上海市嘉定区迎园新村五八坊","lng":121.2732,"lat":31.3893,"date":"2022-03-10"},{"district":"静安区","address":"上海市静安区宝昌路659弄","lng":121.4784,"lat":31.2682,"date":"2022-03-10"},{"district":"静安区","address":"上海市静安区武定路1128弄","lng":121.4464,"lat":31.236,"date":"2022-03-10"},{"district":"闵行区","address":"上海市闵行区春申路1581弄","lng":121.4385,"lat":31.1205,"date":"2022-03-10"},{"district":"闵行区","address":"上海市闵行区春申路1717弄","lng":121.4367,"lat":31.1203,"date":"2022-03-10"},{"district":"闵行区","address":"上海市闵行区春申路1888弄","lng":121.4294,"lat":31.1186,"date":"2022-03-10"},{"district":"闵行区","address":"上海市闵行区东川路800号","lng":121.4433,"lat":31.032,"date":"2022-03-10"},{"district":"闵行区","address":"上海市闵行区虹梅南路1555弄","lng":121.433,"lat":31.1238,"date":"2022-03-10"},{"district":"闵行区","address":"上海市闵行区虹梅南路1770弄","lng":121.4381,"lat":31.1186,"date":"2022-03-10"},{"district":"闵行区","address":"上海市闵行区老沪闵路1351弄","lng":121.4416,"lat":31.1194,"date":"2022-03-10"},{"district":"闵行区","address":"上海市闵行区黎安路486号","lng":121.3785,"lat":31.1359,"date":"2022-03-10"},{"district":"闵行区","address":"上海市闵行区莲花路528弄","lng":121.4074,"lat":31.1497,"date":"2022-03-10"},{"district":"闵行区","address":"上海市闵行区罗秀路1377号","lng":121.424,"lat":31.1346,"date":"2022-03-10"},{"district":"闵行区","address":"上海市闵行区罗秀路1955弄","lng":121.4105,"lat":31.1332,"date":"2022-03-10"},{"district":"闵行区","address":"上海市闵行区沁春路1366弄","lng":121.3831,"lat":31.1011,"date":"2022-03-10"},{"district":"闵行区","address":"上海市闵行区永联村吴介巷","lng":121.4489,"lat":31.1121,"date":"2022-03-10"},{"district":"浦东新区","address":"上海市NA","lng":121.4805,"lat":31.2359},{"district":"浦东新区","address":"上海市浦东新区金工路133弄","lng":121.5896,"lat":31.2816,"date":"2022-03-10"},{"district":"浦东新区","address":"上海市浦东新区巨峰路758弄","lng":121.5896,"lat":31.2816,"date":"2022-03-10"},{"district":"浦东新区","address":"上海市浦东新区龙居路150弄","lng":121.5683,"lat":31.2579,"date":"2022-03-10"},{"district":"浦东新区","address":"上海市浦东新区牟平路384弄","lng":121.5896,"lat":31.2816,"date":"2022-03-10"},{"district":"浦东新区","address":"上海市浦东新区南码头东三街35弄","lng":121.5141,"lat":31.207,"date":"2022-03-10"},{"district":"浦东新区","address":"上海市浦东新区浦东南路2200号","lng":121.5208,"lat":31.2121,"date":"2022-03-10"},{"district":"浦东新区","address":"上海市浦东新区听悦路685弄","lng":121.745,"lat":31.0604,"date":"2022-03-10"},{"district":"浦东新区","address":"上海市浦东新区云山路1395弄","lng":121.5842,"lat":31.2515,"date":"2022-03-10"},{"district":"浦东新区","address":"上海市浦东新区长岛路1201弄","lng":121.5967,"lat":31.2693,"date":"2022-03-10"},{"district":"浦东新区","address":"上海市浦东新区长岛路1280弄","lng":121.5996,"lat":31.2669,"date":"2022-03-10"},{"district":"普陀区","address":"上海市普陀区三源路41弄","lng":121.4144,"lat":31.2664,"date":"2022-03-10"},{"district":"普陀区","address":"上海市普陀区桃浦路2055弄","lng":121.3682,"lat":31.2699,"date":"2022-03-10"},{"district":"普陀区","address":"上海市普陀区中山北路1297弄","lng":121.4488,"lat":31.263,"date":"2022-03-10"},{"district":"青浦区","address":"上海市青浦区城东新村","lng":121.1274,"lat":31.1543,"date":"2022-03-10"},{"district":"青浦区","address":"上海市青浦区华徐公路1199号","lng":121.2698,"lat":31.2064,"date":"2022-03-10"},{"district":"青浦区","address":"上海市青浦区崧润路49弄","lng":121.1653,"lat":31.1503,"date":"2022-03-10"},{"district":"青浦区","address":"上海市青浦区崧润路德康雅苑","lng":121.1653,"lat":31.1503,"date":"2022-03-10"},{"district":"青浦区","address":"上海市青浦区诸光路1355弄","lng":121.3063,"lat":31.1876,"date":"2022-03-10"},{"district":"松江区","address":"上海市松江区陈春公路801弄","lng":121.3427,"lat":31.0782,"date":"2022-03-10"},{"district":"松江区","address":"上海市松江区沪亭北路618弄","lng":121.3225,"lat":31.1543,"date":"2022-03-10"},{"district":"松江区","address":"上海市松江区沪亭南路751弄","lng":121.3415,"lat":31.1244,"date":"2022-03-10"},{"district":"松江区","address":"上海市松江区联阳小区","lng":121.2972,"lat":31.0366,"date":"2022-03-10"},{"district":"松江区","address":"上海市松江区陆家圈路63弄","lng":121.3023,"lat":31.092,"date":"2022-03-10"},{"district":"松江区","address":"上海市松江区新飞路1999弄","lng":121.3232,"lat":31.0557,"date":"2022-03-10"},{"district":"松江区","address":"上海市松江区长溇村吴家桥","lng":121.2928,"lat":30.9773,"date":"2022-03-10"},{"district":"徐汇区","address":"上海市徐汇区漕溪北路1200号","lng":121.4423,"lat":31.1885,"date":"2022-03-10"},{"district":"徐汇区","address":"上海市徐汇区龙州路995-1号","lng":121.4288,"lat":31.1454,"date":"2022-03-10"},{"district":"徐汇区","address":"上海市徐汇区梅陇七村","lng":121.4305,"lat":31.1453,"date":"2022-03-10"},{"district":"徐汇区","address":"上海市徐汇区田林4村","lng":121.4295,"lat":31.1769,"date":"2022-03-10"},{"district":"徐汇区","address":"上海市徐汇区田林四村","lng":121.4295,"lat":31.1769,"date":"2022-03-10"},{"district":"徐汇区","address":"上海市徐汇区永嘉路291弄","lng":121.4654,"lat":31.2146,"date":"2022-03-10"},{"district":"徐汇区","address":"上海市徐汇区长桥三村","lng":121.4483,"lat":31.141,"date":"2022-03-10"},{"district":"长宁区","address":"上海市长宁区淮海西路288弄","lng":121.4356,"lat":31.2064,"date":"2022-03-10"},{"district":"宝山区","address":"上海市宝山区丹霞山路257弄","lng":121.3701,"lat":31.3676,"date":"2022-03-11"},{"district":"宝山区","address":"上海市宝山区四元路126号","lng":121.4367,"lat":31.4196,"date":"2022-03-11"},{"district":"宝山区","address":"上海市宝山区泗塘一村","lng":121.4604,"lat":31.3447,"date":"2022-03-11"},{"district":"宝山区","address":"上海市宝山区永顺路81弄","lng":121.356,"lat":31.4184,"date":"2022-03-11"},{"district":"宝山区","address":"上海市宝山区长江路868号","lng":121.4904,"lat":31.3521,"date":"2022-03-11"},{"district":"奉贤区","address":"上海市奉贤区万顺路2768弄","lng":121.5205,"lat":30.979,"date":"2022-03-11"},{"district":"虹口区","address":"上海市虹口区三门路747弄","lng":121.4868,"lat":31.3178,"date":"2022-03-11"},{"district":"虹口区","address":"上海市虹口区四川北路1545弄","lng":121.4887,"lat":31.2615,"date":"2022-03-11"},{"district":"黄浦区","address":"上海市黄浦区车站东路195号","lng":121.4893,"lat":31.2305,"date":"2022-03-11"},{"district":"黄浦区","address":"上海市黄浦区淮海东路89弄","lng":121.4884,"lat":31.2309,"date":"2022-03-11"},{"district":"黄浦区","address":"上海市黄浦区西藏南路1739弄","lng":121.4982,"lat":31.2045,"date":"2022-03-11"},{"district":"黄浦区","address":"上海市黄浦区徐家汇路388号","lng":121.4806,"lat":31.2154,"date":"2022-03-11"},{"district":"嘉定区","address":"上海市嘉定区宝安公路3705弄","lng":121.3134,"lat":31.3453,"date":"2022-03-11"},{"district":"嘉定区","address":"上海市嘉定区城中路20号","lng":121.2584,"lat":31.3823,"date":"2022-03-11"},{"district":"嘉定区","address":"上海市嘉定区陇南路嘉涛路停车场","lng":121.3306,"lat":31.2784,"date":"2022-03-11"},{"district":"嘉定区","address":"上海市嘉定区娄塘大北街132号","lng":121.2198,"lat":31.4392,"date":"2022-03-11"},{"district":"嘉定区","address":"上海市嘉定区娄塘娄南村","lng":121.2225,"lat":31.4306,"date":"2022-03-11"},{"district":"嘉定区","address":"上海市嘉定区娄塘路626弄","lng":121.2242,"lat":31.4366,"date":"2022-03-11"},{"district":"嘉定区","address":"上海市嘉定区娄塘路658弄","lng":121.2237,"lat":31.4369,"date":"2022-03-11"},{"district":"嘉定区","address":"上海市嘉定区南新路219弄","lng":121.2248,"lat":31.4368,"date":"2022-03-11"},{"district":"嘉定区","address":"上海市嘉定区秋竹路801弄","lng":121.226,"lat":31.3891,"date":"2022-03-11"},{"district":"嘉定区","address":"上海市嘉定区新宝路88弄","lng":121.2009,"lat":31.4072,"date":"2022-03-11"},{"district":"金山区","address":"上海市金山区学府路1811弄","lng":121.3208,"lat":30.7551,"date":"2022-03-11"},{"district":"静安区","address":"上海市静安区灵石路1197号","lng":121.433,"lat":31.279,"date":"2022-03-11"},{"district":"静安区","address":"上海市静安区陆丰路中宝大厦","lng":121.4814,"lat":31.2637,"date":"2022-03-11"},{"district":"静安区","address":"上海市静安区茂名北路93号","lng":121.4663,"lat":31.2314,"date":"2022-03-11"},{"district":"静安区","address":"上海市静安区塘沽路747弄","lng":121.4879,"lat":31.2521,"date":"2022-03-11"},{"district":"闵行区","address":"上海市闵行区德宏路2465号","lng":121.4417,"lat":31.0197,"date":"2022-03-11"},{"district":"闵行区","address":"上海市闵行区华漕纪东","lng":121.2841,"lat":31.2519,"date":"2022-03-11"},{"district":"闵行区","address":"上海市闵行区江川路1565号","lng":121.3792,"lat":30.9972,"date":"2022-03-11"},{"district":"闵行区","address":"上海市闵行区江川路241弄","lng":121.429,"lat":31.0077,"date":"2022-03-11"},{"district":"闵行区","address":"上海市闵行区江川路303弄","lng":121.422,"lat":31.0087,"date":"2022-03-11"},{"district":"闵行区","address":"上海市闵行区晋豪生活广场","lng":121.3557,"lat":31.1765,"date":"2022-03-11"},{"district":"闵行区","address":"上海市闵行区景谷中路58弄","lng":121.4213,"lat":31.0253,"date":"2022-03-11"},{"district":"闵行区","address":"上海市闵行区龙茗路513弄13支弄","lng":121.3954,"lat":31.1342,"date":"2022-03-11"},{"district":"闵行区","address":"上海市闵行区龙吴路5688弄","lng":121.4756,"lat":31.0452,"date":"2022-03-11"},{"district":"闵行区","address":"上海市闵行区鲁康路555弄","lng":121.5242,"lat":31.0342,"date":"2022-03-11"},{"district":"闵行区","address":"上海市闵行区罗秀路1377号","lng":121.424,"lat":31.1346,"date":"2022-03-11"},{"district":"闵行区","address":"上海市闵行区普乐路425弄","lng":121.4309,"lat":31.121,"date":"2022-03-11"},{"district":"闵行区","address":"上海市闵行区申郑路18弄","lng":121.3182,"lat":31.2103,"date":"2022-03-11"},{"district":"闵行区","address":"上海市闵行区同乐路158号","lng":121.4258,"lat":31.131,"date":"2022-03-11"},{"district":"闵行区","address":"上海市闵行区银都路3151弄","lng":121.4043,"lat":31.0969,"date":"2022-03-11"},{"district":"浦东新区","address":"上海市NA","lng":121.4805,"lat":31.2359},{"district":"浦东新区","address":"上海市浦东新区博兴路462弄","lng":121.5894,"lat":31.272,"date":"2022-03-11"},{"district":"浦东新区","address":"上海市浦东新区光辉村","lng":121.7187,"lat":31.0699,"date":"2022-03-11"},{"district":"浦东新区","address":"上海市浦东新区光泽路120弄","lng":121.6231,"lat":31.3364,"date":"2022-03-11"},{"district":"浦东新区","address":"上海市浦东新区栖山路1555弄","lng":121.5723,"lat":31.2644,"date":"2022-03-11"},{"district":"浦东新区","address":"上海市浦东新区听谐路86弄","lng":121.7573,"lat":31.0626,"date":"2022-03-11"},{"district":"浦东新区","address":"上海市浦东新区瓦屑建设路60弄","lng":121.6582,"lat":31.1263,"date":"2022-03-11"},{"district":"浦东新区","address":"上海市浦东新区长清路103弄","lng":121.496,"lat":31.1757,"date":"2022-03-11"},{"district":"青浦区","address":"上海市青浦区徐和路165弄","lng":121.2884,"lat":31.1646,"date":"2022-03-11"},{"district":"松江区","address":"上海市松江区博安路32弄","lng":121.318,"lat":31.1433,"date":"2022-03-11"},{"district":"松江区","address":"上海市松江区沪松公路1100号","lng":121.2667,"lat":31.0406,"date":"2022-03-11"},{"district":"松江区","address":"上海市松江区环城路616弄","lng":121.259,"lat":31.0168,"date":"2022-03-11"},{"district":"松江区","address":"上海市松江区茸惠路858弄","lng":121.2643,"lat":31.0671,"date":"2022-03-11"},{"district":"松江区","address":"上海市松江区王家厍路55弄","lng":121.2546,"lat":31.0983,"date":"2022-03-11"},{"district":"徐汇区","address":"上海市徐汇区华发路368弄","lng":121.454,"lat":31.1343,"date":"2022-03-11"},{"district":"徐汇区","address":"上海市徐汇区华泾路880弄","lng":121.4545,"lat":31.1253,"date":"2022-03-11"},{"district":"徐汇区","address":"上海市徐汇区老沪闵路1039弄","lng":121.4337,"lat":31.1539,"date":"2022-03-11"},{"district":"徐汇区","address":"上海市徐汇区龙吴路1717弄","lng":121.4567,"lat":31.1383,"date":"2022-03-11"},{"district":"徐汇区","address":"上海市徐汇区罗城路470号","lng":121.4467,"lat":31.1574,"date":"2022-03-11"},{"district":"徐汇区","address":"上海市徐汇区梅陇路130号","lng":121.4321,"lat":31.1476,"date":"2022-03-11"},{"district":"徐汇区","address":"上海市徐汇区天等路430弄","lng":121.435,"lat":31.1443,"date":"2022-03-11"},{"district":"徐汇区","address":"上海市徐汇区田林路90弄","lng":121.4256,"lat":31.177,"date":"2022-03-11"},{"district":"徐汇区","address":"上海市徐汇区田林十四村","lng":121.4305,"lat":31.1808,"date":"2022-03-11"},{"district":"徐汇区","address":"上海市徐汇区宜山路600号","lng":121.4306,"lat":31.1854,"date":"2022-03-11"},{"district":"徐汇区","address":"上海市徐汇区宜山路上海精工工地宿舍","lng":121.4478,"lat":31.1944,"date":"2022-03-11"},{"district":"长宁区","address":"上海市长宁区仙霞西路885弄","lng":121.356,"lat":31.2149,"date":"2022-03-11"},{"district":"宝山区","address":"上海市宝山区丹霞山路257弄","lng":121.3701,"lat":31.3676,"date":"2022-03-12"},{"district":"宝山区","address":"上海市宝山区淞发路901弄","lng":121.4881,"lat":31.3453,"date":"2022-03-12"},{"district":"黄浦区","address":"上海市黄浦区南昌路282号","lng":121.4693,"lat":31.2234,"date":"2022-03-12"},{"district":"黄浦区","address":"上海市黄浦区顺昌路612弄","lng":121.4857,"lat":31.2166,"date":"2022-03-12"},{"district":"黄浦区","address":"上海市黄浦区徐家汇路388号","lng":121.4806,"lat":31.2154,"date":"2022-03-12"},{"district":"嘉定区","address":"上海市嘉定区曹南路12弄","lng":121.3598,"lat":31.268,"date":"2022-03-12"},{"district":"嘉定区","address":"上海市嘉定区鹤霞路555弄","lng":121.321,"lat":31.2523,"date":"2022-03-12"},{"district":"金山区","address":"上海市金山区横浦村","lng":121.3023,"lat":30.7512,"date":"2022-03-12"},{"district":"金山区","address":"上海市金山区龙轩路1989弄","lng":121.3261,"lat":30.7496,"date":"2022-03-12"},{"district":"金山区","address":"上海市金山区南阳湾路1288弄","lng":121.3201,"lat":30.7422,"date":"2022-03-12"},{"district":"静安区","address":"上海市静安区塘沽路933号","lng":121.4842,"lat":31.2516,"date":"2022-03-12"},{"district":"静安区","address":"上海市静安区宜川路733弄","lng":121.4453,"lat":31.2768,"date":"2022-03-12"},{"district":"闵行区","address":"上海市闵行区漕宝路1508弄","lng":121.3898,"lat":31.1593,"date":"2022-03-12"},{"district":"闵行区","address":"上海市闵行区春申路1581弄","lng":121.4385,"lat":31.1205,"date":"2022-03-12"},{"district":"闵行区","address":"上海市闵行区东川路800号","lng":121.4433,"lat":31.032},{"district":"闵行区","address":"上海市闵行区虹梅南路1008号","lng":121.4309,"lat":31.1299,"date":"2022-03-12"},{"district":"闵行区","address":"上海市闵行区剑川路中铁四局工地宿舍","lng":121.453,"lat":31.0407,"date":"2022-03-12"},{"district":"闵行区","address":"上海市闵行区罗秀路1377号","lng":121.424,"lat":31.1346,"date":"2022-03-12"},{"district":"浦东新区","address":"上海市浦东新区城南路818号","lng":121.6984,"lat":31.1953,"date":"2022-03-12"},{"district":"浦东新区","address":"上海市浦东新区川沙六团七灶北张家宅","lng":121.7078,"lat":31.2023,"date":"2022-03-12"},{"district":"浦东新区","address":"上海市浦东新区创新西路75弄","lng":121.6637,"lat":31.2097,"date":"2022-03-12"},{"district":"浦东新区","address":"上海市浦东新区芬菊路199号工地宿舍","lng":121.6293,"lat":31.3185,"date":"2022-03-12"},{"district":"浦东新区","address":"上海市浦东新区扶栏村下塘一组","lng":121.7566,"lat":30.9987,"date":"2022-03-12"},{"district":"浦东新区","address":"上海市浦东新区拱海路79弄","lng":121.7468,"lat":31.0755,"date":"2022-03-12"},{"district":"浦东新区","address":"上海市浦东新区拱鸣路60弄","lng":121.7514,"lat":31.0657,"date":"2022-03-12"},{"district":"浦东新区","address":"上海市浦东新区拱鸣路95弄","lng":121.7749,"lat":31.0609,"date":"2022-03-12"},{"district":"浦东新区","address":"上海市浦东新区拱为路2600弄","lng":121.7454,"lat":31.0636,"date":"2022-03-12"},{"district":"浦东新区","address":"上海市浦东新区花木路500弄花木苑","lng":121.5497,"lat":31.2168,"date":"2022-03-12"},{"district":"浦东新区","address":"上海市浦东新区华夏东路1260弄","lng":121.68,"lat":31.2017,"date":"2022-03-12"},{"district":"浦东新区","address":"上海市浦东新区华夏二路200弄","lng":121.6906,"lat":31.2001,"date":"2022-03-12"},{"district":"浦东新区","address":"上海市浦东新区佳林路115弄","lng":121.6159,"lat":31.275,"date":"2022-03-12"},{"district":"浦东新区","address":"上海市浦东新区金工路133弄","lng":121.5896,"lat":31.2816,"date":"2022-03-12"},{"district":"浦东新区","address":"上海市浦东新区巨峰路667弄","lng":121.6028,"lat":31.288,"date":"2022-03-12"},{"district":"浦东新区","address":"上海市浦东新区利津路729弄","lng":121.5966,"lat":31.2807,"date":"2022-03-12"},{"district":"浦东新区","address":"上海市浦东新区牟平路384弄","lng":121.5896,"lat":31.2816,"date":"2022-03-12"},{"district":"浦东新区","address":"上海市浦东新区浦东大道2778弄","lng":121.5814,"lat":31.2757,"date":"2022-03-12"},{"district":"浦东新区","address":"上海市浦东新区勤政路88弄","lng":121.6306,"lat":31.1781,"date":"2022-03-12"},{"district":"浦东新区","address":"上海市浦东新区听潮南路77弄","lng":121.7484,"lat":31.043,"date":"2022-03-12"},{"district":"浦东新区","address":"上海市浦东新区听悦路1205弄","lng":121.7448,"lat":31.0699,"date":"2022-03-12"},{"district":"浦东新区","address":"上海市浦东新区听悦路685弄","lng":121.745,"lat":31.0604,"date":"2022-03-12"},{"district":"浦东新区","address":"上海市浦东新区听悦路960弄","lng":121.7463,"lat":31.0657,"date":"2022-03-12"},{"district":"浦东新区","address":"上海市浦东新区通济路616弄","lng":121.753,"lat":31.0618,"date":"2022-03-12"},{"district":"浦东新区","address":"上海市浦东新区五莲路780弄","lng":121.5971,"lat":31.2743,"date":"2022-03-12"},{"district":"浦东新区","address":"上海市浦东新区迎薰路215弄","lng":121.7442,"lat":31.0422,"date":"2022-03-12"},{"district":"浦东新区","address":"上海市浦东新区园艺村","lng":121.7633,"lat":30.9857,"date":"2022-03-12"},{"district":"浦东新区","address":"上海市浦东新区云台路183弄","lng":121.5106,"lat":31.1834,"date":"2022-03-12"},{"district":"松江区","address":"上海市松江区沪松公路2517弄","lng":121.2939,"lat":31.1199,"date":"2022-03-12"},{"district":"徐汇区","address":"上海市徐汇区田林路118号","lng":121.4229,"lat":31.1766,"date":"2022-03-12"},{"district":"长宁区","address":"上海市长宁区","lng":121.4305,"lat":31.2268},{"district":"长宁区","address":"上海市长宁区茅台路353弄","lng":121.403,"lat":31.2154,"date":"2022-03-12"},{"district":"长宁区","address":"上海市长宁区协和路193号","lng":121.3633,"lat":31.2139,"date":"2022-03-12"},{"district":"宝山区","address":"上海市宝山区泗塘一村","lng":121.4604,"lat":31.3447,"date":"2022-03-13"},{"district":"宝山区","address":"上海市宝山区杨泰三村","lng":121.4451,"lat":31.3866,"date":"2022-03-13"},{"district":"宝山区","address":"上海市宝山区月浦八村","lng":121.4327,"lat":31.4233,"date":"2022-03-13"},{"district":"奉贤区","address":"上海市奉贤区万顺路2768弄","lng":121.5205,"lat":30.979,"date":"2022-03-13"},{"district":"奉贤区","address":"上海市奉贤区悦达南郊华都","lng":121.4719,"lat":30.9774,"date":"2022-03-13"},{"district":"虹口区","address":"上海市虹口区广灵四路280弄","lng":121.4806,"lat":31.2933,"date":"2022-03-13"},{"district":"虹口区","address":"上海市虹口区瑞虹路233弄","lng":121.5065,"lat":31.27,"date":"2022-03-13"},{"district":"虹口区","address":"上海市虹口区瑞虹路368弄","lng":121.5066,"lat":31.2716,"date":"2022-03-13"},{"district":"虹口区","address":"上海市虹口区武进路577号","lng":121.4867,"lat":31.2557,"date":"2022-03-13"},{"district":"黄浦区","address":"上海市黄浦区淮海东路89弄","lng":121.4884,"lat":31.2309,"date":"2022-03-13"},{"district":"黄浦区","address":"上海市黄浦区局门后路9号","lng":121.4872,"lat":31.215,"date":"2022-03-13"},{"district":"黄浦区","address":"上海市黄浦区局门路241弄","lng":121.4876,"lat":31.212,"date":"2022-03-13"},{"district":"黄浦区","address":"上海市黄浦区丽园路842弄","lng":121.4836,"lat":31.2114,"date":"2022-03-13"},{"district":"黄浦区","address":"上海市黄浦区南昌路282号","lng":121.4693,"lat":31.2234,"date":"2022-03-13"},{"district":"黄浦区","address":"上海市黄浦区西藏南路1129弄","lng":121.4935,"lat":31.2166,"date":"2022-03-13"},{"district":"黄浦区","address":"上海市黄浦区徐家汇路1弄","lng":121.4884,"lat":31.2166,"date":"2022-03-13"},{"district":"黄浦区","address":"上海市黄浦区徐家汇路378号","lng":121.4809,"lat":31.2153,"date":"2022-03-13"},{"district":"黄浦区","address":"上海市黄浦区徐家汇路515弄","lng":121.4827,"lat":31.2147,"date":"2022-03-13"},{"district":"黄浦区","address":"上海市黄浦区肇周路179号","lng":121.4876,"lat":31.222,"date":"2022-03-13"},{"district":"黄浦区","address":"上海市黄浦区中山南一路251号","lng":121.4927,"lat":31.2065,"date":"2022-03-13"},{"district":"嘉定区","address":"上海市嘉定区宝安公路3705号","lng":121.275,"lat":31.3311,"date":"2022-03-13"},{"district":"嘉定区","address":"上海市嘉定区草庵村","lng":121.2209,"lat":31.4566,"date":"2022-03-13"},{"district":"嘉定区","address":"上海市嘉定区大北街129弄","lng":121.2214,"lat":31.4371,"date":"2022-03-13"},{"district":"嘉定区","address":"上海市嘉定区娄东村","lng":121.2387,"lat":31.4406,"date":"2022-03-13"},{"district":"嘉定区","address":"上海市嘉定区娄陆公路831号","lng":121.2049,"lat":31.4623,"date":"2022-03-13"},{"district":"嘉定区","address":"上海市嘉定区娄南地园","lng":121.2256,"lat":31.4337,"date":"2022-03-13"},{"district":"嘉定区","address":"上海市嘉定区娄塘大东街63号","lng":121.2246,"lat":31.4386,"date":"2022-03-13"},{"district":"嘉定区","address":"上海市嘉定区娄塘路747弄","lng":121.2222,"lat":31.4378,"date":"2022-03-13"},{"district":"嘉定区","address":"上海市嘉定区娄塘路760弄","lng":121.2222,"lat":31.4381,"date":"2022-03-13"},{"district":"嘉定区","address":"上海市嘉定区陆渡村","lng":121.2041,"lat":31.4684,"date":"2022-03-13"},{"district":"嘉定区","address":"上海市嘉定区南新路307弄","lng":121.2243,"lat":31.4353,"date":"2022-03-13"},{"district":"嘉定区","address":"上海市嘉定区南新路317号","lng":121.224,"lat":31.4351,"date":"2022-03-13"},{"district":"嘉定区","address":"上海市嘉定区南新路429弄","lng":121.2227,"lat":31.4334,"date":"2022-03-13"},{"district":"嘉定区","address":"上海市嘉定区南新路471弄","lng":121.2221,"lat":31.4328,"date":"2022-03-13"},{"district":"嘉定区","address":"上海市嘉定区沙霞路95弄","lng":121.2595,"lat":31.3843,"date":"2022-03-13"},{"district":"嘉定区","address":"上海市嘉定区星桥村","lng":121.284,"lat":31.4502,"date":"2022-03-13"},{"district":"金山区","address":"上海市金山区海丰路85号","lng":121.3571,"lat":30.7627,"date":"2022-03-13"},{"district":"金山区","address":"上海市金山区海盛路500弄","lng":121.3586,"lat":30.7593,"date":"2022-03-13"},{"district":"金山区","address":"上海市金山区横浦村","lng":121.3023,"lat":30.7512,"date":"2022-03-13"},{"district":"金山区","address":"上海市金山区龙航路1638弄","lng":121.3234,"lat":30.7569,"date":"2022-03-13"},{"district":"金山区","address":"上海市金山区龙轩路2208弄","lng":121.3202,"lat":30.7504,"date":"2022-03-13"},{"district":"金山区","address":"上海市金山区龙宇路999弄","lng":121.3639,"lat":30.7489,"date":"2022-03-13"},{"district":"静安区","address":"上海市静安区广延路1188弄","lng":121.4617,"lat":31.2977,"date":"2022-03-13"},{"district":"静安区","address":"上海市静安区广中西路911弄","lng":121.444,"lat":31.2844,"date":"2022-03-13"},{"district":"静安区","address":"上海市静安区沪太路1170弄","lng":121.4339,"lat":31.2833,"date":"2022-03-13"},{"district":"静安区","address":"上海市静安区康宁路852号","lng":121.4409,"lat":31.3112,"date":"2022-03-13"},{"district":"静安区","address":"上海市静安区柳营路1025弄","lng":121.4566,"lat":31.2683,"date":"2022-03-13"},{"district":"静安区","address":"上海市静安区万荣路959号","lng":121.4488,"lat":31.2943,"date":"2022-03-13"},{"district":"静安区","address":"上海市静安区西藏北路970弄","lng":121.4739,"lat":31.2657,"date":"2022-03-13"},{"district":"静安区","address":"上海市静安区延长中路451弄","lng":121.4585,"lat":31.2767,"date":"2022-03-13"},{"district":"静安区","address":"上海市静安区止园路400弄","lng":121.4742,"lat":31.2665,"date":"2022-03-13"},{"district":"静安区","address":"上海市静安区中山北路805弄","lng":121.4643,"lat":31.2677,"date":"2022-03-13"},{"district":"闵行区","address":"上海市闵行区报春路863弄","lng":121.3819,"lat":31.1252,"date":"2022-03-13"},{"district":"闵行区","address":"上海市闵行区昌林路430号","lng":121.524,"lat":31.0707,"date":"2022-03-13"},{"district":"闵行区","address":"上海市闵行区东川路800号","lng":121.4433,"lat":31.032,"date":"2022-03-13"},{"district":"闵行区","address":"上海市闵行区都会路258号","lng":121.4382,"lat":31.0427,"date":"2022-03-13"},{"district":"闵行区","address":"上海市闵行区放鹤路2号","lng":121.4836,"lat":31.0568,"date":"2022-03-13"},{"district":"闵行区","address":"上海市闵行区高兴路666弄","lng":121.4026,"lat":31.1154,"date":"2022-03-13"},{"district":"闵行区","address":"上海市闵行区共和村","lng":121.4712,"lat":31.0558,"date":"2022-03-13"},{"district":"闵行区","address":"上海市闵行区虹梅南路1578号","lng":121.4341,"lat":31.1227,"date":"2022-03-13"},{"district":"闵行区","address":"上海市闵行区剑川路818弄","lng":121.4347,"lat":31.0372,"date":"2022-03-13"},{"district":"闵行区","address":"上海市闵行区剑川路中铁四局工地宿舍","lng":121.453,"lat":31.0407,"date":"2022-03-13"},{"district":"闵行区","address":"上海市闵行区江川路1565弄","lng":121.3786,"lat":30.9984,"date":"2022-03-13"},{"district":"闵行区","address":"上海市闵行区金都路2239弄","lng":121.4169,"lat":31.0922,"date":"2022-03-13"},{"district":"闵行区","address":"上海市闵行区罗秀路887号","lng":121.4266,"lat":31.1351,"date":"2022-03-13"},{"district":"闵行区","address":"上海市闵行区浦星公路568弄","lng":121.5036,"lat":31.1242,"date":"2022-03-13"},{"district":"闵行区","address":"上海市闵行区普乐路425弄","lng":121.4309,"lat":31.121,"date":"2022-03-13"},{"district":"闵行区","address":"上海市闵行区沁春路1366弄","lng":121.3831,"lat":31.1011,"date":"2022-03-13"},{"district":"闵行区","address":"上海市闵行区莘朱路879弄","lng":121.414,"lat":31.1193,"date":"2022-03-13"},{"district":"闵行区","address":"上海市闵行区疏影路1280号","lng":121.3603,"lat":31.1213,"date":"2022-03-13"},{"district":"闵行区","address":"上海市闵行区疏影路1315号","lng":121.359,"lat":31.1205,"date":"2022-03-13"},{"district":"闵行区","address":"上海市闵行区同心村","lng":121.3516,"lat":30.9982,"date":"2022-03-13"},{"district":"闵行区","address":"上海市闵行区银春路2200弄","lng":121.3924,"lat":31.0309,"date":"2022-03-13"},{"district":"闵行区","address":"上海市闵行区朱行路12号","lng":121.4324,"lat":31.1328,"date":"2022-03-13"},{"district":"浦东新区","address":"上海市浦东新区碧云路199弄","lng":121.5797,"lat":31.2428,"date":"2022-03-13"},{"district":"浦东新区","address":"上海市浦东新区博华路999弄","lng":121.5571,"lat":31.1768,"date":"2022-03-13"},{"district":"浦东新区","address":"上海市浦东新区创新西路333弄","lng":121.6581,"lat":31.2073,"date":"2022-03-13"},{"district":"浦东新区","address":"上海市浦东新区大团中心村","lng":121.7065,"lat":31.0121,"date":"2022-03-13"},{"district":"浦东新区","address":"上海市浦东新区东波路585弄","lng":121.5929,"lat":31.29,"date":"2022-03-13"},{"district":"浦东新区","address":"上海市浦东新区东波路58弄","lng":121.5838,"lat":31.2899,"date":"2022-03-13"},{"district":"浦东新区","address":"上海市浦东新区高科西路2111弄","lng":121.5423,"lat":31.1942,"date":"2022-03-13"},{"district":"浦东新区","address":"上海市浦东新区观海路999弄","lng":121.7888,"lat":31.0611,"date":"2022-03-13"},{"district":"浦东新区","address":"上海市浦东新区鹤韵路550弄","lng":121.6021,"lat":31.0812,"date":"2022-03-13"},{"district":"浦东新区","address":"上海市浦东新区红枫路108弄","lng":121.5945,"lat":31.2506,"date":"2022-03-13"},{"district":"浦东新区","address":"上海市浦东新区沪南公路5397号","lng":121.6006,"lat":31.05,"date":"2022-03-13"},{"district":"浦东新区","address":"上海市浦东新区花木路718弄","lng":121.5557,"lat":31.2155,"date":"2022-03-13"},{"district":"浦东新区","address":"上海市浦东新区交通新村","lng":121.7694,"lat":31.0423,"date":"2022-03-13"},{"district":"浦东新区","address":"上海市浦东新区金葵路945弄","lng":121.6021,"lat":31.2443,"date":"2022-03-13"},{"district":"浦东新区","address":"上海市浦东新区金桥路301弄","lng":121.5786,"lat":31.2729,"date":"2022-03-13"},{"district":"浦东新区","address":"上海市浦东新区凌兆路127弄","lng":121.5,"lat":31.1478,"date":"2022-03-13"},{"district":"浦东新区","address":"上海市浦东新区六灶湾村","lng":121.7728,"lat":31.0206,"date":"2022-03-13"},{"district":"浦东新区","address":"上海市浦东新区龙东大道1号","lng":121.5892,"lat":31.2186,"date":"2022-03-13"},{"district":"浦东新区","address":"上海市浦东新区马樱丹路127弄","lng":121.9256,"lat":30.8891,"date":"2022-03-13"},{"district":"浦东新区","address":"上海市浦东新区南团公路35弄","lng":121.7705,"lat":31.0461,"date":"2022-03-13"},{"district":"浦东新区","address":"上海市浦东新区鹏岳路152弄","lng":121.5609,"lat":31.1772,"date":"2022-03-13"},{"district":"浦东新区","address":"上海市浦东新区浦东大道140弄","lng":121.5217,"lat":31.244,"date":"2022-03-13"},{"district":"浦东新区","address":"上海市浦东新区浦东大道2778弄","lng":121.5814,"lat":31.2757,"date":"2022-03-13"},{"district":"浦东新区","address":"上海市浦东新区栖山路1489弄","lng":121.571,"lat":31.2638,"date":"2022-03-13"},{"district":"浦东新区","address":"上海市浦东新区栖山路1555弄","lng":121.5723,"lat":31.2644,"date":"2022-03-13"},{"district":"浦东新区","address":"上海市浦东新区前哨路288弄","lng":121.73,"lat":31.246,"date":"2022-03-13"},{"district":"浦东新区","address":"上海市浦东新区三灶路451弄","lng":121.6474,"lat":31.1854,"date":"2022-03-13"},{"district":"浦东新区","address":"上海市浦东新区上游村卢家宅","lng":121.7094,"lat":31.1153,"date":"2022-03-13"},{"district":"浦东新区","address":"上海市浦东新区听悦路1200弄","lng":121.7453,"lat":31.0699,"date":"2022-03-13"},{"district":"浦东新区","address":"上海市浦东新区五莲路1424弄","lng":121.6069,"lat":31.2818,"date":"2022-03-13"},{"district":"浦东新区","address":"上海市浦东新区西三里桥路6号","lng":121.5137,"lat":31.2051,"date":"2022-03-13"},{"district":"浦东新区","address":"上海市浦东新区行泰路281弄","lng":121.5896,"lat":31.2816,"date":"2022-03-13"},{"district":"浦东新区","address":"上海市浦东新区秀沿路867弄","lng":121.5849,"lat":31.1201,"date":"2022-03-13"},{"district":"浦东新区","address":"上海市浦东新区云山路1395弄","lng":121.5842,"lat":31.2515,"date":"2022-03-13"},{"district":"浦东新区","address":"上海市浦东新区长岛路1201弄","lng":121.5967,"lat":31.2693,"date":"2022-03-13"},{"district":"浦东新区","address":"上海市浦东新区长岛路728弄","lng":121.5896,"lat":31.2816,"date":"2022-03-13"},{"district":"浦东新区","address":"上海市浦东新区长清路103弄","lng":121.496,"lat":31.1757,"date":"2022-03-13"},{"district":"普陀区","address":"上海市普陀区光复西路133弄","lng":121.4397,"lat":31.2546,"date":"2022-03-13"},{"district":"普陀区","address":"上海市普陀区黄陵路200弄","lng":121.435,"lat":31.2692,"date":"2022-03-13"},{"district":"普陀区","address":"上海市普陀区灵石路1669弄","lng":121.4286,"lat":31.272,"date":"2022-03-13"},{"district":"普陀区","address":"上海市普陀区千阳南路88弄","lng":121.3751,"lat":31.2341,"date":"2022-03-13"},{"district":"普陀区","address":"上海市普陀区石泉路18弄","lng":121.4358,"lat":31.2601,"date":"2022-03-13"},{"district":"普陀区","address":"上海市普陀区真华路36弄","lng":121.4167,"lat":31.2684,"date":"2022-03-13"},{"district":"青浦区","address":"上海市青浦区郏店村","lng":121.1932,"lat":31.1837,"date":"2022-03-13"},{"district":"青浦区","address":"上海市青浦区莫家圩","lng":120.9758,"lat":31.024,"date":"2022-03-13"},{"district":"青浦区","address":"上海市青浦区前云路148弄","lng":121.2753,"lat":31.1527,"date":"2022-03-13"},{"district":"青浦区","address":"上海市青浦区尚茂路226弄","lng":121.2559,"lat":31.1862,"date":"2022-03-13"},{"district":"松江区","address":"上海市松江区古楼公路659弄","lng":121.2564,"lat":31.111,"date":"2022-03-13"},{"district":"松江区","address":"上海市松江区沪松公路2517弄","lng":121.2939,"lat":31.1199,"date":"2022-03-13"},{"district":"松江区","address":"上海市松江区沪亭北路618弄","lng":121.3225,"lat":31.1543,"date":"2022-03-13"},{"district":"松江区","address":"上海市松江区龙源路555号","lng":121.207,"lat":31.0618,"date":"2022-03-13"},{"district":"松江区","address":"上海市松江区荣乐中路800弄","lng":121.2223,"lat":31.0234,"date":"2022-03-13"},{"district":"松江区","address":"上海市松江区新飞路1999弄","lng":121.3232,"lat":31.0557,"date":"2022-03-13"},{"district":"松江区","address":"上海市松江区玉阳苑","lng":121.2436,"lat":31.0024,"date":"2022-03-13"},{"district":"松江区","address":"上海市松江区中山二路658号","lng":121.2271,"lat":31.0165,"date":"2022-03-13"},{"district":"徐汇区","address":"上海市徐汇区茶陵路75弄","lng":121.4745,"lat":31.2014,"date":"2022-03-13"},{"district":"徐汇区","address":"上海市徐汇区大木桥路450弄","lng":121.4688,"lat":31.2018,"date":"2022-03-13"},{"district":"徐汇区","address":"上海市徐汇区东安路230弄","lng":121.459,"lat":31.1993,"date":"2022-03-13"},{"district":"徐汇区","address":"上海市徐汇区桂林东街99弄","lng":121.4321,"lat":31.1619,"date":"2022-03-13"},{"district":"徐汇区","address":"上海市徐汇区华发路406弄","lng":121.4546,"lat":31.1333,"date":"2022-03-13"},{"district":"徐汇区","address":"上海市徐汇区华济路2弄","lng":121.4434,"lat":31.1946,"date":"2022-03-13"},{"district":"徐汇区","address":"上海市徐汇区汇成二村","lng":121.4415,"lat":31.1525,"date":"2022-03-13"},{"district":"徐汇区","address":"上海市徐汇区龙吴路1343弄","lng":121.4573,"lat":31.1426,"date":"2022-03-13"},{"district":"徐汇区","address":"上海市徐汇区罗城路490号","lng":121.4462,"lat":31.1571,"date":"2022-03-13"},{"district":"徐汇区","address":"上海市徐汇区罗秀路955弄","lng":121.4376,"lat":31.1372,"date":"2022-03-13"},{"district":"徐汇区","address":"上海市徐汇区梅陇六村","lng":121.426,"lat":31.1386,"date":"2022-03-13"},{"district":"徐汇区","address":"上海市徐汇区钦州北路485号","lng":121.4218,"lat":31.1866,"date":"2022-03-13"},{"district":"徐汇区","address":"上海市徐汇区小木桥路440弄","lng":121.4649,"lat":31.2006,"date":"2022-03-13"},{"district":"杨浦区","address":"上海市杨浦区国伟路100弄","lng":121.5426,"lat":31.3404,"date":"2022-03-13"},{"district":"杨浦区","address":"上海市杨浦区平凉路2545弄","lng":121.5458,"lat":31.2725,"date":"2022-03-13"},{"district":"杨浦区","address":"上海市杨浦区延吉五村","lng":121.5441,"lat":31.2969,"date":"2022-03-13"},{"district":"长宁区","address":"上海市长宁区北虹路978号","lng":121.3833,"lat":31.2186,"date":"2022-03-13"},{"district":"长宁区","address":"上海市长宁区芙蓉江路555弄","lng":121.4032,"lat":31.2235,"date":"2022-03-13"},{"district":"长宁区","address":"上海市长宁区水城路728弄","lng":121.3986,"lat":31.2185,"date":"2022-03-13"},{"district":"长宁区","address":"上海市长宁区天山路202弄","lng":121.389,"lat":31.223,"date":"2022-03-13"},{"district":"宝山区","address":"上海市宝山区场北路399弄","lng":121.4442,"lat":31.3413,"date":"2022-03-14"},{"district":"宝山区","address":"上海市宝山区新沪路475弄","lng":121.4251,"lat":31.2771,"date":"2022-03-14"},{"district":"奉贤区","address":"上海市奉贤区港坤路399弄","lng":121.7422,"lat":30.938,"date":"2022-03-14"},{"district":"奉贤区","address":"上海市奉贤区万顺路2768弄","lng":121.5205,"lat":30.979,"date":"2022-03-14"},{"district":"奉贤区","address":"上海市奉贤区新四平公路467弄","lng":121.7457,"lat":30.8983,"date":"2022-03-14"},{"district":"虹口区","address":"上海市虹口区广灵四路280弄","lng":121.4806,"lat":31.2933,"date":"2022-03-14"},{"district":"虹口区","address":"上海市虹口区新市南路1148弄","lng":121.4869,"lat":31.3054,"date":"2022-03-14"},{"district":"虹口区","address":"上海市虹口区逸仙路288弄","lng":121.4937,"lat":31.3044,"date":"2022-03-14"},{"district":"黄浦区","address":"上海市黄浦区大沽路183弄","lng":121.4777,"lat":31.2319,"date":"2022-03-14"},{"district":"黄浦区","address":"上海市黄浦区陆家浜路1398号","lng":121.4887,"lat":31.2169,"date":"2022-03-14"},{"district":"黄浦区","address":"上海市黄浦区南苏州路933号","lng":121.4812,"lat":31.2466,"date":"2022-03-14"},{"district":"黄浦区","address":"上海市黄浦区南塘浜路119号","lng":121.4794,"lat":31.2095,"date":"2022-03-14"},{"district":"黄浦区","address":"上海市黄浦区顺昌路580号","lng":121.4861,"lat":31.2173,"date":"2022-03-14"},{"district":"黄浦区","address":"上海市黄浦区顺昌路598号","lng":121.4862,"lat":31.217,"date":"2022-03-14"},{"district":"黄浦区","address":"上海市黄浦区顺昌路612弄","lng":121.4857,"lat":31.2166,"date":"2022-03-14"},{"district":"黄浦区","address":"上海市黄浦区西藏南路1129弄","lng":121.4935,"lat":31.2166,"date":"2022-03-14"},{"district":"黄浦区","address":"上海市黄浦区永年路54号","lng":121.4871,"lat":31.2182,"date":"2022-03-14"},{"district":"黄浦区","address":"上海市黄浦区浙江中路188弄","lng":121.4865,"lat":31.2394,"date":"2022-03-14"},{"district":"嘉定区","address":"上海市嘉定区宝安公路3705弄","lng":121.3134,"lat":31.3453,"date":"2022-03-14"},{"district":"嘉定区","address":"上海市嘉定区崇教路267号对面工地宿舍","lng":121.279,"lat":31.3251,"date":"2022-03-14"},{"district":"嘉定区","address":"上海市嘉定区封周路885弄","lng":121.27,"lat":31.3333,"date":"2022-03-14"},{"district":"嘉定区","address":"上海市嘉定区海川路108号","lng":121.3565,"lat":31.2702,"date":"2022-03-14"},{"district":"嘉定区","address":"上海市嘉定区红石路699弄","lng":121.2306,"lat":31.3915,"date":"2022-03-14"},{"district":"嘉定区","address":"上海市嘉定区汇旺东路1295弄","lng":121.2124,"lat":31.4064,"date":"2022-03-14"},{"district":"嘉定区","address":"上海市嘉定区临夏路98弄","lng":121.3435,"lat":31.2646,"date":"2022-03-14"},{"district":"嘉定区","address":"上海市嘉定区娄塘村","lng":121.2198,"lat":31.4392,"date":"2022-03-14"},{"district":"嘉定区","address":"上海市嘉定区梅园路300弄","lng":121.2498,"lat":31.3923,"date":"2022-03-14"},{"district":"嘉定区","address":"上海市嘉定区南新路317号","lng":121.224,"lat":31.4351,"date":"2022-03-14"},{"district":"嘉定区","address":"上海市嘉定区南新路626弄","lng":121.2222,"lat":31.4335,"date":"2022-03-14"},{"district":"嘉定区","address":"上海市嘉定区三里村","lng":121.2061,"lat":31.4593,"date":"2022-03-14"},{"district":"嘉定区","address":"上海市嘉定区小东街","lng":121.2239,"lat":31.4396,"date":"2022-03-14"},{"district":"嘉定区","address":"上海市嘉定区张掖路355号","lng":121.3413,"lat":31.2657,"date":"2022-03-14"},{"district":"嘉定区","address":"上海市嘉定区中大街128号","lng":121.2235,"lat":31.4373,"date":"2022-03-14"},{"district":"金山区","address":"上海市金山区海盛路500弄","lng":121.3586,"lat":30.7593,"date":"2022-03-14"},{"district":"金山区","address":"上海市金山区恒顺路216弄","lng":121.3437,"lat":30.861,"date":"2022-03-14"},{"district":"金山区","address":"上海市金山区建农村","lng":121.2996,"lat":30.7834,"date":"2022-03-14"},{"district":"金山区","address":"上海市金山区学府路2208弄","lng":121.3226,"lat":30.7555,"date":"2022-03-14"},{"district":"静安区","address":"上海市静安区沪太路1170弄","lng":121.4339,"lat":31.2833,"date":"2022-03-14"},{"district":"静安区","address":"上海市静安区沪太路1329弄","lng":121.4303,"lat":31.2882,"date":"2022-03-14"},{"district":"静安区","address":"上海市静安区临汾路894弄","lng":121.4562,"lat":31.3172,"date":"2022-03-14"},{"district":"静安区","address":"上海市静安区茂名北路93号","lng":121.4663,"lat":31.2314,"date":"2022-03-14"},{"district":"静安区","address":"上海市静安区西藏北路970弄","lng":121.4739,"lat":31.2657,"date":"2022-03-14"},{"district":"闵行区","address":"上海市闵行区安乐村","lng":121.4194,"lat":31.0397,"date":"2022-03-14"},{"district":"闵行区","address":"上海市闵行区昌林路430号","lng":121.524,"lat":31.0707,"date":"2022-03-14"},{"district":"闵行区","address":"上海市闵行区东川路800号","lng":121.4433,"lat":31.032,"date":"2022-03-14"},{"district":"闵行区","address":"上海市闵行区都会路3552号","lng":121.4179,"lat":31.0897,"date":"2022-03-14"},{"district":"闵行区","address":"上海市闵行区虹梅南路1781弄","lng":121.4341,"lat":31.1135,"date":"2022-03-14"},{"district":"闵行区","address":"上海市闵行区汇红村","lng":121.5506,"lat":31.0252,"date":"2022-03-14"},{"district":"闵行区","address":"上海市闵行区剑川路中铁四局工地宿舍","lng":121.453,"lat":31.0407,"date":"2022-03-14"},{"district":"闵行区","address":"上海市闵行区江川路633弄","lng":121.4103,"lat":31.0066,"date":"2022-03-14"},{"district":"闵行区","address":"上海市闵行区龙吴路5395号","lng":121.4725,"lat":31.0537,"date":"2022-03-14"},{"district":"闵行区","address":"上海市闵行区申北路168弄","lng":121.3907,"lat":31.0972,"date":"2022-03-14"},{"district":"闵行区","address":"上海市闵行区石屏路399弄","lng":121.4266,"lat":31.0219,"date":"2022-03-14"},{"district":"浦东新区","address":"上海市浦东新区高宝路68弄","lng":121.6273,"lat":31.2974,"date":"2022-03-14"},{"district":"浦东新区","address":"上海市浦东新区古棕路168弄","lng":121.9239,"lat":30.8903,"date":"2022-03-14"},{"district":"浦东新区","address":"上海市浦东新区鹤沙路588弄","lng":121.6015,"lat":31.088,"date":"2022-03-14"},{"district":"浦东新区","address":"上海市浦东新区金桥路301弄","lng":121.5786,"lat":31.2729,"date":"2022-03-14"},{"district":"浦东新区","address":"上海市浦东新区兰城路115弄","lng":121.5855,"lat":31.2725,"date":"2022-03-14"},{"district":"浦东新区","address":"上海市浦东新区兰谷路1888弄","lng":121.5985,"lat":31.3041,"date":"2022-03-14"},{"district":"浦东新区","address":"上海市浦东新区妙境路124弄","lng":121.6951,"lat":31.2023,"date":"2022-03-14"},{"district":"浦东新区","address":"上海市浦东新区南塘村","lng":121.5747,"lat":31.3454,"date":"2022-03-14"},{"district":"浦东新区","address":"上海市浦东新区浦东大道2778弄","lng":121.5814,"lat":31.2757,"date":"2022-03-14"},{"district":"浦东新区","address":"上海市浦东新区听悦路685弄","lng":121.745,"lat":31.0604,"date":"2022-03-14"},{"district":"浦东新区","address":"上海市浦东新区听悦路960弄","lng":121.7463,"lat":31.0657,"date":"2022-03-14"},{"district":"浦东新区","address":"上海市浦东新区西门路588弄","lng":121.7439,"lat":31.0523,"date":"2022-03-14"},{"district":"浦东新区","address":"上海市浦东新区新行路433弄","lng":121.5896,"lat":31.2816,"date":"2022-03-14"},{"district":"浦东新区","address":"上海市浦东新区行泰路281弄","lng":121.5896,"lat":31.2816,"date":"2022-03-14"},{"district":"浦东新区","address":"上海市浦东新区赵高路968弄","lng":121.6528,"lat":31.2905,"date":"2022-03-14"},{"district":"松江区","address":"上海市松江区仓汇路401弄","lng":121.2089,"lat":31.0155,"date":"2022-03-14"},{"district":"松江区","address":"上海市松江区谷水苑","lng":121.2471,"lat":31.0269,"date":"2022-03-14"},{"district":"松江区","address":"上海市松江区龙源路555号","lng":121.207,"lat":31.0618,"date":"2022-03-14"},{"district":"松江区","address":"上海市松江区泗宝路458弄","lng":121.2621,"lat":31.1207,"date":"2022-03-14"},{"district":"松江区","address":"上海市松江区通波路725弄","lng":121.2448,"lat":31.0466,"date":"2022-03-14"},{"district":"松江区","address":"上海市松江区王家厍路55弄","lng":121.2546,"lat":31.0983,"date":"2022-03-14"},{"district":"松江区","address":"上海市松江区新飞路1999弄","lng":121.3232,"lat":31.0557,"date":"2022-03-14"},{"district":"松江区","address":"上海市松江区新松江路259弄","lng":121.2402,"lat":31.0438,"date":"2022-03-14"},{"district":"松江区","address":"上海市松江区中山西路1号","lng":121.2125,"lat":31.0127,"date":"2022-03-14"},{"district":"徐汇区","address":"上海市徐汇区","lng":121.4434,"lat":31.1946,"date":"2022-03-14"},{"district":"徐汇区","address":"上海市徐汇区东泉路50弄","lng":121.4494,"lat":31.1617,"date":"2022-03-14"},{"district":"徐汇区","address":"上海市徐汇区华发路406弄","lng":121.4546,"lat":31.1333,"date":"2022-03-14"},{"district":"徐汇区","address":"上海市徐汇区凯滨路19弄","lng":121.4673,"lat":31.1855,"date":"2022-03-14"},{"district":"徐汇区","address":"上海市徐汇区龙华路2518弄","lng":121.4589,"lat":31.1848,"date":"2022-03-14"},{"district":"徐汇区","address":"上海市徐汇区龙水南路385弄","lng":121.4596,"lat":31.1601,"date":"2022-03-14"},{"district":"徐汇区","address":"上海市徐汇区龙吴路1343弄","lng":121.4573,"lat":31.1426,"date":"2022-03-14"},{"district":"徐汇区","address":"上海市徐汇区梅陇九村","lng":121.4292,"lat":31.1367,"date":"2022-03-14"},{"district":"徐汇区","address":"上海市徐汇区钦州北路158弄","lng":121.4286,"lat":31.1866,"date":"2022-03-14"},{"district":"徐汇区","address":"上海市徐汇区日晖六村","lng":121.4662,"lat":31.2012,"date":"2022-03-14"},{"district":"徐汇区","address":"上海市徐汇区上中西路151弄","lng":121.4336,"lat":31.1387,"date":"2022-03-14"},{"district":"徐汇区","address":"上海市徐汇区中山南二路945弄","lng":121.4555,"lat":31.189,"date":"2022-03-14"},{"district":"徐汇区","address":"上海市徐汇区中山西路1788弄","lng":121.4276,"lat":31.19,"date":"2022-03-14"},{"district":"杨浦区","address":"上海市杨浦区沈阳路41弄","lng":121.5398,"lat":31.2656,"date":"2022-03-14"},{"district":"长宁区","address":"上海市长宁区淞虹路800弄","lng":121.3719,"lat":31.2129,"date":"2022-03-14"},{"district":"宝山区","address":"上海市宝山区共富路183弄","lng":121.4375,"lat":31.3568,"date":"2022-03-15"},{"district":"宝山区","address":"上海市宝山区呼玛二村","lng":121.4533,"lat":31.3473,"date":"2022-03-15"},{"district":"宝山区","address":"上海市宝山区岭南路1288弄","lng":121.4634,"lat":31.332,"date":"2022-03-15"},{"district":"宝山区","address":"上海市宝山区祁连二村","lng":121.3841,"lat":31.3207,"date":"2022-03-15"},{"district":"宝山区","address":"上海市宝山区双城路803弄","lng":121.4935,"lat":31.3933,"date":"2022-03-15"},{"district":"宝山区","address":"上海市宝山区泗塘五村","lng":121.4666,"lat":31.3401,"date":"2022-03-15"},{"district":"宝山区","address":"上海市宝山区永顺路81弄","lng":121.356,"lat":31.4184,"date":"2022-03-15"},{"district":"宝山区","address":"上海市宝山区长江路868号","lng":121.4904,"lat":31.3521,"date":"2022-03-15"},{"district":"宝山区","address":"上海市宝山区真华路1030弄","lng":121.4179,"lat":31.2807,"date":"2022-03-15"},{"district":"奉贤区","address":"上海市奉贤区多元工贸城","lng":121.4753,"lat":30.9749,"date":"2022-03-15"},{"district":"奉贤区","address":"上海市奉贤区横桥村","lng":121.7825,"lat":30.9265,"date":"2022-03-15"},{"district":"奉贤区","address":"上海市奉贤区万顺路2768弄","lng":121.5205,"lat":30.979,"date":"2022-03-15"},{"district":"奉贤区","address":"上海市奉贤区五宅村","lng":121.4942,"lat":30.9985,"date":"2022-03-15"},{"district":"奉贤区","address":"上海市奉贤区新四平公路467弄","lng":121.7457,"lat":30.8983,"date":"2022-03-15"},{"district":"虹口区","address":"上海市虹口区虬江支路181号","lng":121.4897,"lat":31.2599,"date":"2022-03-15"},{"district":"虹口区","address":"上海市虹口区三门支路738弄","lng":121.487,"lat":31.3206,"date":"2022-03-15"},{"district":"虹口区","address":"上海市虹口区四川北路1006号","lng":121.4891,"lat":31.2628,"date":"2022-03-15"},{"district":"虹口区","address":"上海市虹口区逸仙路288弄","lng":121.4937,"lat":31.3044,"date":"2022-03-15"},{"district":"黄浦区","address":"上海市黄浦区淡水路214弄","lng":121.479,"lat":31.2234,"date":"2022-03-15"},{"district":"黄浦区","address":"上海市黄浦区广东路543号","lng":121.4876,"lat":31.2378,"date":"2022-03-15"},{"district":"黄浦区","address":"上海市黄浦区蒙自路481弄","lng":121.4861,"lat":31.2081,"date":"2022-03-15"},{"district":"黄浦区","address":"上海市黄浦区顺昌路612弄","lng":121.4857,"lat":31.2166,"date":"2022-03-15"},{"district":"黄浦区","address":"上海市黄浦区思南路26弄","lng":121.4722,"lat":31.2249,"date":"2022-03-15"},{"district":"黄浦区","address":"上海市黄浦区五里桥路39弄","lng":121.4898,"lat":31.2102,"date":"2022-03-15"},{"district":"黄浦区","address":"上海市黄浦区徐家汇路101号","lng":121.4872,"lat":31.2157,"date":"2022-03-15"},{"district":"黄浦区","address":"上海市黄浦区徐家汇路388号","lng":121.4806,"lat":31.2154,"date":"2022-03-15"},{"district":"黄浦区","address":"上海市黄浦区中山南路1358弄","lng":121.5062,"lat":31.2162,"date":"2022-03-15"},{"district":"黄浦区","address":"上海市黄浦区重庆北路212号","lng":121.4764,"lat":31.2331,"date":"2022-03-15"},{"district":"嘉定区","address":"上海市嘉定区北大街108弄","lng":121.2555,"lat":31.3927,"date":"2022-03-15"},{"district":"嘉定区","address":"上海市嘉定区博园路7578号","lng":121.1766,"lat":31.2879,"date":"2022-03-15"},{"district":"嘉定区","address":"上海市嘉定区城中路29弄","lng":121.2601,"lat":31.3818,"date":"2022-03-15"},{"district":"嘉定区","address":"上海市嘉定区崇教路267号对面工地宿舍","lng":121.279,"lat":31.3251,"date":"2022-03-15"},{"district":"嘉定区","address":"上海市嘉定区金园一路1359弄","lng":121.3254,"lat":31.2488,"date":"2022-03-15"},{"district":"嘉定区","address":"上海市嘉定区梅园路300弄","lng":121.2498,"lat":31.3923,"date":"2022-03-15"},{"district":"嘉定区","address":"上海市嘉定区人民街24弄","lng":121.3157,"lat":31.2977,"date":"2022-03-15"},{"district":"嘉定区","address":"上海市嘉定区沙霞路95弄","lng":121.2595,"lat":31.3843,"date":"2022-03-15"},{"district":"嘉定区","address":"上海市嘉定区桃园新村","lng":121.2525,"lat":31.3945,"date":"2022-03-15"},{"district":"嘉定区","address":"上海市嘉定区温宿路45号","lng":121.2541,"lat":31.3935,"date":"2022-03-15"},{"district":"嘉定区","address":"上海市嘉定区星桥村","lng":121.284,"lat":31.4502,"date":"2022-03-15"},{"district":"嘉定区","address":"上海市嘉定区伊宁路合作路工地","lng":121.2603,"lat":31.346,"date":"2022-03-15"},{"district":"金山区","address":"上海市金山区板桥东路1200弄","lng":121.362,"lat":30.7442,"date":"2022-03-15"},{"district":"金山区","address":"上海市金山区龙航路718号","lng":121.3497,"lat":30.7678,"date":"2022-03-15"},{"district":"金山区","address":"上海市金山区龙山路518弄","lng":121.3457,"lat":30.7509,"date":"2022-03-15"},{"district":"金山区","address":"上海市金山区龙轩路1998弄","lng":121.3254,"lat":30.7516,"date":"2022-03-15"},{"district":"金山区","address":"上海市金山区龙轩路2208弄","lng":121.3202,"lat":30.7504,"date":"2022-03-15"},{"district":"金山区","address":"上海市金山区龙宇路999弄","lng":121.3639,"lat":30.7489,"date":"2022-03-15"},{"district":"金山区","address":"上海市金山区南阳湾路1288弄","lng":121.3201,"lat":30.7422,"date":"2022-03-15"},{"district":"静安区","address":"上海市静安区昌平路923弄","lng":121.4455,"lat":31.2394,"date":"2022-03-15"},{"district":"静安区","address":"上海市静安区广延路1188弄","lng":121.4617,"lat":31.2977,"date":"2022-03-15"},{"district":"静安区","address":"上海市静安区沪太路941弄","lng":121.4373,"lat":31.2802,"date":"2022-03-15"},{"district":"静安区","address":"上海市静安区临汾路300弄","lng":121.4686,"lat":31.3182,"date":"2022-03-15"},{"district":"静安区","address":"上海市静安区灵石路1197号","lng":121.433,"lat":31.279,"date":"2022-03-15"},{"district":"静安区","address":"上海市静安区彭江路199号","lng":121.463,"lat":31.2916,"date":"2022-03-15"},{"district":"静安区","address":"上海市静安区万荣路1199弄","lng":121.4482,"lat":31.2989,"date":"2022-03-15"},{"district":"静安区","address":"上海市静安区万荣路959号","lng":121.4488,"lat":31.2943,"date":"2022-03-15"},{"district":"静安区","address":"上海市静安区银都一村","lng":121.4486,"lat":31.3238,"date":"2022-03-15"},{"district":"闵行区","address":"上海市闵行区北翟路3318弄","lng":121.3209,"lat":31.2298,"date":"2022-03-15"},{"district":"闵行区","address":"上海市闵行区北江燕路228弄","lng":121.5077,"lat":31.0855,"date":"2022-03-15"},{"district":"闵行区","address":"上海市闵行区东川路800号","lng":121.4433,"lat":31.032,"date":"2022-03-15"},{"district":"闵行区","address":"上海市闵行区放鹤路2813号","lng":121.4178,"lat":31.0502,"date":"2022-03-15"},{"district":"闵行区","address":"上海市闵行区虹梅南路1008号","lng":121.4309,"lat":31.1299,"date":"2022-03-15"},{"district":"闵行区","address":"上海市闵行区华漕新村","lng":121.3349,"lat":31.2332,"date":"2022-03-15"},{"district":"闵行区","address":"上海市闵行区剑川路100弄","lng":121.4786,"lat":31.0506,"date":"2022-03-15"},{"district":"闵行区","address":"上海市闵行区剑川路中铁四局工地宿舍","lng":121.453,"lat":31.0407,"date":"2022-03-15"},{"district":"闵行区","address":"上海市闵行区金平路788弄","lng":121.4137,"lat":31.0268,"date":"2022-03-15"},{"district":"闵行区","address":"上海市闵行区景谷中路58弄","lng":121.4213,"lat":31.0253,"date":"2022-03-15"},{"district":"闵行区","address":"上海市闵行区浦航路36弄","lng":121.5521,"lat":31.0501,"date":"2022-03-15"},{"district":"闵行区","address":"上海市闵行区普乐二村","lng":121.4303,"lat":31.121,"date":"2022-03-15"},{"district":"闵行区","address":"上海市闵行区普乐三村","lng":121.433,"lat":31.1238,"date":"2022-03-15"},{"district":"闵行区","address":"上海市闵行区沁春路1366弄","lng":121.3831,"lat":31.1011,"date":"2022-03-15"},{"district":"闵行区","address":"上海市闵行区瑞丽路768弄","lng":121.4105,"lat":31.0217,"date":"2022-03-15"},{"district":"闵行区","address":"上海市闵行区莘建东路399弄12支弄","lng":121.3897,"lat":31.1149,"date":"2022-03-15"},{"district":"闵行区","address":"上海市闵行区莘建路290弄","lng":121.3816,"lat":31.11,"date":"2022-03-15"},{"district":"浦东新区","address":"上海市浦东新区博兴路462弄","lng":121.5894,"lat":31.272,"date":"2022-03-15"},{"district":"浦东新区","address":"上海市浦东新区城南路41弄","lng":121.7113,"lat":31.1987,"date":"2022-03-15"},{"district":"浦东新区","address":"上海市浦东新区东靖路1900弄","lng":121.6136,"lat":31.2973,"date":"2022-03-15"},{"district":"浦东新区","address":"上海市浦东新区东绣路99弄","lng":121.5477,"lat":31.22,"date":"2022-03-15"},{"district":"浦东新区","address":"上海市浦东新区扶栏村","lng":121.7584,"lat":31.0008,"date":"2022-03-15"},{"district":"浦东新区","address":"上海市浦东新区拱乐路2100弄","lng":121.7496,"lat":31.0675,"date":"2022-03-15"},{"district":"浦东新区","address":"上海市浦东新区拱乐路2400弄","lng":121.7496,"lat":31.0675,"date":"2022-03-15"},{"district":"浦东新区","address":"上海市浦东新区拱鸣路60弄","lng":121.7514,"lat":31.0657,"date":"2022-03-15"},{"district":"浦东新区","address":"上海市浦东新区顾家圩杨家宅","lng":121.5653,"lat":31.3719,"date":"2022-03-15"},{"district":"浦东新区","address":"上海市浦东新区海阳路654弄","lng":121.5035,"lat":31.1612,"date":"2022-03-15"},{"district":"浦东新区","address":"上海市浦东新区鹤沙路588弄","lng":121.6015,"lat":31.088,"date":"2022-03-15"},{"district":"浦东新区","address":"上海市浦东新区华夏东路1036弄","lng":121.6761,"lat":31.2013,"date":"2022-03-15"},{"district":"浦东新区","address":"上海市浦东新区华夏东路2345弄","lng":121.7046,"lat":31.2065,"date":"2022-03-15"},{"district":"浦东新区","address":"上海市浦东新区华夏东路860弄","lng":121.6723,"lat":31.2003,"date":"2022-03-15"},{"district":"浦东新区","address":"上海市浦东新区华夏二路200弄","lng":121.6906,"lat":31.2001,"date":"2022-03-15"},{"district":"浦东新区","address":"上海市浦东新区华夏三路85弄","lng":121.6835,"lat":31.2023,"date":"2022-03-15"},{"district":"浦东新区","address":"上海市浦东新区华绣路179弄","lng":121.532,"lat":31.1908,"date":"2022-03-15"},{"district":"浦东新区","address":"上海市浦东新区金汇广场","lng":121.5104,"lat":30.9954,"date":"2022-03-15"},{"district":"浦东新区","address":"上海市浦东新区丽正路1059弄","lng":121.8706,"lat":30.9856,"date":"2022-03-15"},{"district":"浦东新区","address":"上海市浦东新区联勤村","lng":121.5572,"lat":31.1732,"date":"2022-03-15"},{"district":"浦东新区","address":"上海市浦东新区临沂路181弄","lng":121.5207,"lat":31.1976,"date":"2022-03-15"},{"district":"浦东新区","address":"上海市浦东新区龙东大道1号","lng":121.5892,"lat":31.2186,"date":"2022-03-15"},{"district":"浦东新区","address":"上海市浦东新区龙居路150弄","lng":121.5683,"lat":31.2579,"date":"2022-03-15"},{"district":"浦东新区","address":"上海市浦东新区洛神花路6号","lng":121.9473,"lat":30.9273,"date":"2022-03-15"},{"district":"浦东新区","address":"上海市浦东新区牌楼村","lng":121.5656,"lat":31.0591,"date":"2022-03-15"},{"district":"浦东新区","address":"上海市浦东新区鹏岳路152弄","lng":121.5609,"lat":31.1772,"date":"2022-03-15"},{"district":"浦东新区","address":"上海市浦东新区浦东南路3905弄","lng":121.5082,"lat":31.1889,"date":"2022-03-15"},{"district":"浦东新区","address":"上海市浦东新区浦建路60弄","lng":121.5245,"lat":31.2132,"date":"2022-03-15"},{"district":"浦东新区","address":"上海市浦东新区三林世博家园A区","lng":121.5421,"lat":31.1737,"date":"2022-03-15"},{"district":"浦东新区","address":"上海市浦东新区桃林路299弄","lng":121.5438,"lat":31.2452,"date":"2022-03-15"},{"district":"浦东新区","address":"上海市浦东新区听潮南路77弄","lng":121.7484,"lat":31.043,"date":"2022-03-15"},{"district":"浦东新区","address":"上海市浦东新区听谐路73弄","lng":121.759,"lat":31.0636,"date":"2022-03-15"},{"district":"浦东新区","address":"上海市浦东新区听悦路1205弄","lng":121.7448,"lat":31.0699,"date":"2022-03-15"},{"district":"浦东新区","address":"上海市浦东新区听悦路685弄","lng":121.745,"lat":31.0604,"date":"2022-03-15"},{"district":"浦东新区","address":"上海市浦东新区夏碧路80弄","lng":121.5949,"lat":31.3476,"date":"2022-03-15"},{"district":"浦东新区","address":"上海市浦东新区行泰路281弄","lng":121.5896,"lat":31.2816,"date":"2022-03-15"},{"district":"浦东新区","address":"上海市浦东新区玉盘北路288弄","lng":121.6788,"lat":31.232,"date":"2022-03-15"},{"district":"浦东新区","address":"上海市浦东新区云山路1395弄","lng":121.5842,"lat":31.2515,"date":"2022-03-15"},{"district":"浦东新区","address":"上海市浦东新区张杨路1515弄","lng":121.5421,"lat":31.2403,"date":"2022-03-15"},{"district":"浦东新区","address":"上海市浦东新区长清路103弄","lng":121.496,"lat":31.1757,"date":"2022-03-15"},{"district":"普陀区","address":"上海市普陀区澳门路58弄","lng":121.4541,"lat":31.2524,"date":"2022-03-15"},{"district":"普陀区","address":"上海市普陀区祁连山南路999弄","lng":121.3757,"lat":31.2494,"date":"2022-03-15"},{"district":"普陀区","address":"上海市普陀区千阳南路88弄","lng":121.3751,"lat":31.2341,"date":"2022-03-15"},{"district":"普陀区","address":"上海市普陀区新村路349弄","lng":121.4409,"lat":31.2741,"date":"2022-03-15"},{"district":"普陀区","address":"上海市普陀区宜川五村","lng":121.4505,"lat":31.2675,"date":"2022-03-15"},{"district":"普陀区","address":"上海市普陀区枣阳路465弄","lng":121.4084,"lat":31.2358,"date":"2022-03-15"},{"district":"普陀区","address":"上海市普陀区真光路1058弄","lng":121.3878,"lat":31.2481,"date":"2022-03-15"},{"district":"普陀区","address":"上海市普陀区真如西村","lng":121.4058,"lat":31.2523,"date":"2022-03-15"},{"district":"青浦区","address":"上海市青浦区凤马塘路205弄","lng":121.2359,"lat":31.1875,"date":"2022-03-15"},{"district":"青浦区","address":"上海市青浦区凤强塘路1000弄","lng":121.2383,"lat":31.1941,"date":"2022-03-15"},{"district":"青浦区","address":"上海市青浦区青松路129弄","lng":121.123,"lat":31.1515,"date":"2022-03-15"},{"district":"青浦区","address":"上海市青浦区新府中路1331弄","lng":121.2369,"lat":31.2311,"date":"2022-03-15"},{"district":"松江区","address":"上海市松江区龙源路1208弄","lng":121.2113,"lat":31.0684,"date":"2022-03-15"},{"district":"松江区","address":"上海市松江区泗陈公路518弄","lng":121.2724,"lat":31.1294,"date":"2022-03-15"},{"district":"松江区","address":"上海市松江区泗凯路291弄","lng":121.2408,"lat":31.1188,"date":"2022-03-15"},{"district":"松江区","address":"上海市松江区外婆泾299弄","lng":121.3246,"lat":31.0696,"date":"2022-03-15"},{"district":"松江区","address":"上海市松江区外婆泾路299弄","lng":121.2651,"lat":31.1202,"date":"2022-03-15"},{"district":"松江区","address":"上海市松江区文诚路2159弄","lng":121.1889,"lat":31.0329,"date":"2022-03-15"},{"district":"松江区","address":"上海市松江区新飞路1999弄","lng":121.3232,"lat":31.0557,"date":"2022-03-15"},{"district":"松江区","address":"上海市松江区勋业东路300弄","lng":121.2254,"lat":31.1338,"date":"2022-03-15"},{"district":"徐汇区","address":"上海市徐汇区漕溪北路1200号","lng":121.4423,"lat":31.1885,"date":"2022-03-15"},{"district":"徐汇区","address":"上海市徐汇区大木桥路450弄","lng":121.4688,"lat":31.2018,"date":"2022-03-15"},{"district":"徐汇区","address":"上海市徐汇区东安路230弄","lng":121.459,"lat":31.1993,"date":"2022-03-15"},{"district":"徐汇区","address":"上海市徐汇区华发路406弄","lng":121.4546,"lat":31.1333,"date":"2022-03-15"},{"district":"徐汇区","address":"上海市徐汇区江南一村","lng":121.4694,"lat":31.1982,"date":"2022-03-15"},{"district":"徐汇区","address":"上海市徐汇区凯浜路19弄","lng":121.4434,"lat":31.1946,"date":"2022-03-15"},{"district":"徐汇区","address":"上海市徐汇区乐山支路4弄","lng":121.4434,"lat":31.1946,"date":"2022-03-15"},{"district":"徐汇区","address":"上海市徐汇区龙吴路1717弄","lng":121.4567,"lat":31.1383,"date":"2022-03-15"},{"district":"徐汇区","address":"上海市徐汇区龙吴路2888弄","lng":121.4616,"lat":31.1155,"date":"2022-03-15"},{"district":"徐汇区","address":"上海市徐汇区龙州路450弄","lng":121.434,"lat":31.1365,"date":"2022-03-15"},{"district":"徐汇区","address":"上海市徐汇区罗秀路930弄","lng":121.4328,"lat":31.1375,"date":"2022-03-15"},{"district":"徐汇区","address":"上海市徐汇区罗秀路955弄","lng":121.4376,"lat":31.1372,"date":"2022-03-15"},{"district":"徐汇区","address":"上海市徐汇区梅陇11村","lng":121.4336,"lat":31.1387,"date":"2022-03-15"},{"district":"徐汇区","address":"上海市徐汇区梅陇六村","lng":121.426,"lat":31.1386,"date":"2022-03-15"},{"district":"徐汇区","address":"上海市徐汇区梅陇五村","lng":121.4292,"lat":31.1401,"date":"2022-03-15"},{"district":"徐汇区","address":"上海市徐汇区上中路400弄","lng":121.442,"lat":31.1466,"date":"2022-03-15"},{"district":"徐汇区","address":"上海市徐汇区云锦路50弄","lng":121.4624,"lat":31.1799,"date":"2022-03-15"},{"district":"徐汇区","address":"上海市徐汇区长桥四村","lng":121.446,"lat":31.1399,"date":"2022-03-15"},{"district":"杨浦区","address":"上海市杨浦区敦化路163号","lng":121.5449,"lat":31.2972,"date":"2022-03-15"},{"district":"杨浦区","address":"上海市杨浦区霍山路1191弄","lng":121.5335,"lat":31.2707,"date":"2022-03-15"},{"district":"长宁区","address":"上海市长宁区水城路728弄","lng":121.3986,"lat":31.2185,"date":"2022-03-15"},{"district":"长宁区","address":"上海市长宁区天山五村","lng":121.4044,"lat":31.217,"date":"2022-03-15"},{"district":"长宁区","address":"上海市长宁区长宁路405弄","lng":121.4343,"lat":31.2295,"date":"2022-03-15"},{"district":"宝山区","address":"上海市宝山区场北路399弄","lng":121.4442,"lat":31.3413,"date":"2022-03-16"},{"district":"宝山区","address":"上海市宝山区菊联路89弄","lng":121.3743,"lat":31.3539,"date":"2022-03-16"},{"district":"宝山区","address":"上海市宝山区罗和路935弄","lng":121.3403,"lat":31.3992,"date":"2022-03-16"},{"district":"宝山区","address":"上海市宝山区泗塘五村","lng":121.4666,"lat":31.3401,"date":"2022-03-16"},{"district":"宝山区","address":"上海市宝山区淞南四村","lng":121.4991,"lat":31.3514,"date":"2022-03-16"},{"district":"宝山区","address":"上海市宝山区新村路681号","lng":121.4257,"lat":31.2716,"date":"2022-03-16"},{"district":"宝山区","address":"上海市宝山区友谊西路富桥路工地宿舍","lng":121.4264,"lat":31.3611,"date":"2022-03-16"},{"district":"宝山区","address":"上海市宝山区云西路168弄","lng":121.4822,"lat":31.3231,"date":"2022-03-16"},{"district":"奉贤区","address":"上海市奉贤区新四平公路467弄","lng":121.7457,"lat":30.8983,"date":"2022-03-16"},{"district":"虹口区","address":"上海市虹口区宝山路888弄","lng":121.486,"lat":31.2698,"date":"2022-03-16"},{"district":"虹口区","address":"上海市虹口区车站北路732弄","lng":121.4729,"lat":31.3034,"date":"2022-03-16"},{"district":"虹口区","address":"上海市虹口区辉河路25弄","lng":121.505,"lat":31.2932,"date":"2022-03-16"},{"district":"虹口区","address":"上海市虹口区水电路818弄","lng":121.4831,"lat":31.292,"date":"2022-03-16"},{"district":"虹口区","address":"上海市虹口区四川北路1906号","lng":121.4907,"lat":31.2677,"date":"2022-03-16"},{"district":"虹口区","address":"上海市虹口区四川北路1906弄","lng":121.4919,"lat":31.2679,"date":"2022-03-16"},{"district":"虹口区","address":"上海市虹口区逸仙路288弄","lng":121.4937,"lat":31.3044,"date":"2022-03-16"},{"district":"黄浦区","address":"上海市黄浦区河南南路1001弄","lng":121.4998,"lat":31.2195,"date":"2022-03-16"},{"district":"黄浦区","address":"上海市黄浦区进贤路158号","lng":121.4656,"lat":31.2278,"date":"2022-03-16"},{"district":"黄浦区","address":"上海市黄浦区静修路50弄","lng":121.4946,"lat":31.2252,"date":"2022-03-16"},{"district":"黄浦区","address":"上海市黄浦区陆家浜路1398号","lng":121.4887,"lat":31.2169,"date":"2022-03-16"},{"district":"黄浦区","address":"上海市黄浦区瞿溪路904弄","lng":121.4856,"lat":31.2058,"date":"2022-03-16"},{"district":"黄浦区","address":"上海市黄浦区顺昌路612弄","lng":121.4857,"lat":31.2166,"date":"2022-03-16"},{"district":"黄浦区","address":"上海市黄浦区斜土东路197号","lng":121.495,"lat":31.214,"date":"2022-03-16"},{"district":"嘉定区","address":"上海市嘉定区安新村","lng":121.3194,"lat":31.4593,"date":"2022-03-16"},{"district":"嘉定区","address":"上海市嘉定区草庵村","lng":121.2209,"lat":31.4566,"date":"2022-03-16"},{"district":"嘉定区","address":"上海市嘉定区陈周村","lng":121.197,"lat":31.3554,"date":"2022-03-16"},{"district":"嘉定区","address":"上海市嘉定区崇教路267号对面工地宿舍","lng":121.279,"lat":31.3251,"date":"2022-03-16"},{"district":"嘉定区","address":"上海市嘉定区鹤望路365号","lng":121.3317,"lat":31.2521,"date":"2022-03-16"},{"district":"嘉定区","address":"上海市嘉定区鹤望路365弄","lng":121.3319,"lat":31.2521,"date":"2022-03-16"},{"district":"嘉定区","address":"上海市嘉定区鹤友路336弄","lng":121.3293,"lat":31.2423,"date":"2022-03-16"},{"district":"嘉定区","address":"上海市嘉定区环城路762弄","lng":121.2558,"lat":31.4005,"date":"2022-03-16"},{"district":"嘉定区","address":"上海市嘉定区汇善路1333弄","lng":121.2034,"lat":31.407,"date":"2022-03-16"},{"district":"嘉定区","address":"上海市嘉定区嘉新公路668弄","lng":121.2767,"lat":31.3676,"date":"2022-03-16"},{"district":"嘉定区","address":"上海市嘉定区金沙江路2823弄","lng":121.3658,"lat":31.2464,"date":"2022-03-16"},{"district":"嘉定区","address":"上海市嘉定区连俊村","lng":121.2442,"lat":31.4747,"date":"2022-03-16"},{"district":"嘉定区","address":"上海市嘉定区娄塘路763号","lng":121.222,"lat":31.4381,"date":"2022-03-16"},{"district":"嘉定区","address":"上海市嘉定区南新路170弄","lng":121.2257,"lat":31.4382,"date":"2022-03-16"},{"district":"嘉定区","address":"上海市嘉定区南新路219弄","lng":121.2248,"lat":31.4368,"date":"2022-03-16"},{"district":"嘉定区","address":"上海市嘉定区三里村","lng":121.2061,"lat":31.4593,"date":"2022-03-16"},{"district":"嘉定区","address":"上海市嘉定区双单路德立路工地宿舍","lng":121.313,"lat":31.3602,"date":"2022-03-16"},{"district":"嘉定区","address":"上海市嘉定区塔城路470弄","lng":121.251,"lat":31.384,"date":"2022-03-16"},{"district":"嘉定区","address":"上海市嘉定区塔城路850弄","lng":121.2435,"lat":31.3789,"date":"2022-03-16"},{"district":"嘉定区","address":"上海市嘉定区桃园小区","lng":121.2514,"lat":31.3937,"date":"2022-03-16"},{"district":"嘉定区","address":"上海市嘉定区桃园新村","lng":121.2525,"lat":31.3945,"date":"2022-03-16"},{"district":"嘉定区","address":"上海市嘉定区温宿路45号","lng":121.2541,"lat":31.3935,"date":"2022-03-16"},{"district":"嘉定区","address":"上海市嘉定区小东街","lng":121.2239,"lat":31.4396,"date":"2022-03-16"},{"district":"静安区","address":"上海市静安区谈家桥路80弄","lng":121.4586,"lat":31.2673,"date":"2022-03-16"},{"district":"静安区","address":"上海市静安区万荣路1199弄","lng":121.4482,"lat":31.2989,"date":"2022-03-16"},{"district":"静安区","address":"上海市静安区芷江西路453弄","lng":121.4638,"lat":31.2632,"date":"2022-03-16"},{"district":"闵行区","address":"上海市闵行区北翟路1554弄","lng":121.3448,"lat":31.2333,"date":"2022-03-16"},{"district":"闵行区","address":"上海市闵行区古美七村","lng":121.415,"lat":31.15,"date":"2022-03-16"},{"district":"闵行区","address":"上海市闵行区虹梅南路1728弄","lng":121.4351,"lat":31.12,"date":"2022-03-16"},{"district":"闵行区","address":"上海市闵行区虹莘路3333弄天安豪园","lng":121.3782,"lat":31.1651,"date":"2022-03-16"},{"district":"闵行区","address":"上海市闵行区沪闵路280号","lng":121.4282,"lat":31.0146,"date":"2022-03-16"},{"district":"闵行区","address":"上海市闵行区建设路16弄","lng":121.4319,"lat":31.006,"date":"2022-03-16"},{"district":"闵行区","address":"上海市闵行区江川路街道剑川路综合服务中心工地宿舍","lng":121.453,"lat":31.0407,"date":"2022-03-16"},{"district":"闵行区","address":"上海市闵行区兰坪路301弄","lng":121.4255,"lat":31.013,"date":"2022-03-16"},{"district":"闵行区","address":"上海市闵行区联青路51弄","lng":121.3956,"lat":31.048,"date":"2022-03-16"},{"district":"闵行区","address":"上海市闵行区浦申路1288弄","lng":121.5063,"lat":31.1005,"date":"2022-03-16"},{"district":"闵行区","address":"上海市闵行区申北路135弄","lng":121.391,"lat":31.0966,"date":"2022-03-16"},{"district":"闵行区","address":"上海市闵行区王泥浜村","lng":121.3201,"lat":31.232,"date":"2022-03-16"},{"district":"闵行区","address":"上海市闵行区业祥路111弄","lng":121.4406,"lat":31.1298,"date":"2022-03-16"},{"district":"闵行区","address":"上海市闵行区银春路2200弄","lng":121.3924,"lat":31.0309,"date":"2022-03-16"},{"district":"浦东新区","address":"上海市浦东新区城南路110号","lng":121.6435,"lat":30.9104,"date":"2022-03-16"},{"district":"浦东新区","address":"上海市浦东新区船厂街27号","lng":121.5868,"lat":31.119,"date":"2022-03-16"},{"district":"浦东新区","address":"上海市浦东新区东沟六村","lng":121.5838,"lat":31.2954,"date":"2022-03-16"},{"district":"浦东新区","address":"上海市浦东新区东靖路2250弄","lng":121.6201,"lat":31.2984,"date":"2022-03-16"},{"district":"浦东新区","address":"上海市浦东新区芳草路258号","lng":121.563,"lat":31.1995,"date":"2022-03-16"},{"district":"浦东新区","address":"上海市浦东新区芳甸路333弄","lng":121.5297,"lat":31.2072,"date":"2022-03-16"},{"district":"浦东新区","address":"上海市浦东新区高城路200弄","lng":121.5807,"lat":31.3402,"date":"2022-03-16"},{"district":"浦东新区","address":"上海市浦东新区国展路1756号","lng":121.5297,"lat":31.2072,"date":"2022-03-16"},{"district":"浦东新区","address":"上海市浦东新区国展路1760号","lng":121.5297,"lat":31.2072,"date":"2022-03-16"},{"district":"浦东新区","address":"上海市浦东新区和佳路105弄","lng":121.5203,"lat":31.1333,"date":"2022-03-16"},{"district":"浦东新区","address":"上海市浦东新区华鹏路390弄","lng":121.5323,"lat":31.1783,"date":"2022-03-16"},{"district":"浦东新区","address":"上海市浦东新区华佗路280弄","lng":121.5971,"lat":31.1991,"date":"2022-03-16"},{"district":"浦东新区","address":"上海市浦东新区汇南村","lng":121.749,"lat":31.0414,"date":"2022-03-16"},{"district":"浦东新区","address":"上海市浦东新区惠东村","lng":121.7831,"lat":31.0463,"date":"2022-03-16"},{"district":"浦东新区","address":"上海市浦东新区俱进路505弄","lng":121.5896,"lat":31.2816,"date":"2022-03-16"},{"district":"浦东新区","address":"上海市浦东新区联勤村","lng":121.5572,"lat":31.1732,"date":"2022-03-16"},{"district":"浦东新区","address":"上海市浦东新区临沂一村","lng":121.5194,"lat":31.2048,"date":"2022-03-16"},{"district":"浦东新区","address":"上海市浦东新区龙东大道1号","lng":121.5892,"lat":31.2186,"date":"2022-03-16"},{"district":"浦东新区","address":"上海市浦东新区芦云路200弄","lng":121.865,"lat":30.8791,"date":"2022-03-16"},{"district":"浦东新区","address":"上海市浦东新区浦建路60弄","lng":121.5245,"lat":31.2132,"date":"2022-03-16"},{"district":"浦东新区","address":"上海市浦东新区钱堂村","lng":121.6147,"lat":31.1632,"date":"2022-03-16"},{"district":"浦东新区","address":"上海市浦东新区勤丰村","lng":121.7746,"lat":31.0534,"date":"2022-03-16"},{"district":"浦东新区","address":"上海市浦东新区三三公路5020弄","lng":121.8799,"lat":30.9813,"date":"2022-03-16"},{"district":"浦东新区","address":"上海市浦东新区上游村","lng":121.6475,"lat":31.317,"date":"2022-03-16"},{"district":"浦东新区","address":"上海市浦东新区四灶村","lng":121.6583,"lat":31.1968,"date":"2022-03-16"},{"district":"浦东新区","address":"上海市浦东新区孙环路366弄","lng":121.6452,"lat":31.1862,"date":"2022-03-16"},{"district":"浦东新区","address":"上海市浦东新区听悦路685弄","lng":121.745,"lat":31.0604,"date":"2022-03-16"},{"district":"浦东新区","address":"上海市浦东新区听悦路960弄","lng":121.7463,"lat":31.0657,"date":"2022-03-16"},{"district":"浦东新区","address":"上海市浦东新区外灶里灶村","lng":121.5505,"lat":31.2273,"date":"2022-03-16"},{"district":"浦东新区","address":"上海市浦东新区微山新村","lng":121.5219,"lat":31.2152,"date":"2022-03-16"},{"district":"浦东新区","address":"上海市浦东新区五莲路780弄","lng":121.5971,"lat":31.2743,"date":"2022-03-16"},{"district":"浦东新区","address":"上海市浦东新区西门路588弄","lng":121.7439,"lat":31.0523,"date":"2022-03-16"},{"district":"浦东新区","address":"上海市浦东新区欣连佳苑","lng":121.6247,"lat":31.3362,"date":"2022-03-16"},{"district":"浦东新区","address":"上海市浦东新区新龙路69弄","lng":121.6344,"lat":31.3235,"date":"2022-03-16"},{"district":"浦东新区","address":"上海市浦东新区新行路433弄","lng":121.5896,"lat":31.2816,"date":"2022-03-16"},{"district":"浦东新区","address":"上海市浦东新区行泰路150弄","lng":121.6143,"lat":31.2952,"date":"2022-03-16"},{"district":"浦东新区","address":"上海市浦东新区宣镇东路788弄","lng":121.7076,"lat":31.0292,"date":"2022-03-16"},{"district":"浦东新区","address":"上海市浦东新区英雄村","lng":121.7597,"lat":31.0341,"date":"2022-03-16"},{"district":"浦东新区","address":"上海市浦东新区永泰路630弄","lng":121.5241,"lat":31.1454,"date":"2022-03-16"},{"district":"普陀区","address":"上海市普陀区定边路377弄","lng":121.3711,"lat":31.2661,"date":"2022-03-16"},{"district":"普陀区","address":"上海市普陀区古浪路55弄","lng":121.4061,"lat":31.2857,"date":"2022-03-16"},{"district":"普陀区","address":"上海市普陀区武威东路478弄","lng":121.4076,"lat":31.2822,"date":"2022-03-16"},{"district":"青浦区","address":"上海市青浦区龙联路660弄","lng":121.2929,"lat":31.1988,"date":"2022-03-16"},{"district":"松江区","address":"上海市松江区龙源路555号","lng":121.207,"lat":31.0618,"date":"2022-03-16"},{"district":"松江区","address":"上海市松江区茸惠路858弄","lng":121.2643,"lat":31.0671,"date":"2022-03-16"},{"district":"松江区","address":"上海市松江区外婆泾路299弄","lng":121.2651,"lat":31.1202,"date":"2022-03-16"},{"district":"松江区","address":"上海市松江区新南街625弄","lng":121.3161,"lat":31.0677,"date":"2022-03-16"},{"district":"徐汇区","address":"上海市徐汇区桂林西街11弄","lng":121.4226,"lat":31.1632,"date":"2022-03-16"},{"district":"徐汇区","address":"上海市徐汇区江南一村","lng":121.4694,"lat":31.1982,"date":"2022-03-16"},{"district":"徐汇区","address":"上海市徐汇区零陵路231号","lng":121.4655,"lat":31.199,"date":"2022-03-16"},{"district":"徐汇区","address":"上海市徐汇区龙华西路101号乙","lng":121.46,"lat":31.1773,"date":"2022-03-16"},{"district":"徐汇区","address":"上海市徐汇区梅陇十村","lng":121.4312,"lat":31.1362,"date":"2022-03-16"},{"district":"徐汇区","address":"上海市徐汇区田林八村","lng":121.4284,"lat":31.178,"date":"2022-03-16"},{"district":"徐汇区","address":"上海市徐汇区田林十三村","lng":121.4319,"lat":31.18,"date":"2022-03-16"},{"district":"杨浦区","address":"上海市杨浦区控江路1209号","lng":121.5331,"lat":31.2836,"date":"2022-03-16"},{"district":"杨浦区","address":"上海市杨浦区政通路118弄","lng":121.5221,"lat":31.3101,"date":"2022-03-16"},{"district":"长宁区","address":"上海市长宁区番禺路222弄","lng":121.4349,"lat":31.2133,"date":"2022-03-16"},{"district":"长宁区","address":"上海市长宁区虹桥路977号","lng":121.4234,"lat":31.2026,"date":"2022-03-16"},{"district":"长宁区","address":"上海市长宁区华阳路70号","lng":121.4278,"lat":31.2303,"date":"2022-03-16"},{"district":"长宁区","address":"上海市长宁区长宁路405弄","lng":121.4343,"lat":31.2295,"date":"2022-03-16"},{"district":"宝山区","address":"上海市宝山区大华路869弄","lng":121.4232,"lat":31.2817,"date":"2022-03-17"},{"district":"宝山区","address":"上海市宝山区华灵路1681弄","lng":121.4157,"lat":31.2867,"date":"2022-03-17"},{"district":"宝山区","address":"上海市宝山区环镇北路500弄","lng":121.4121,"lat":31.3132,"date":"2022-03-17"},{"district":"宝山区","address":"上海市宝山区菊太路999弄","lng":121.3688,"lat":31.3562,"date":"2022-03-17"},{"district":"宝山区","address":"上海市宝山区祁华路655号","lng":121.3801,"lat":31.3255,"date":"2022-03-17"},{"district":"宝山区","address":"上海市宝山区上大路2弄","lng":121.4966,"lat":31.4103,"date":"2022-03-17"},{"district":"宝山区","address":"上海市宝山区淞南四村","lng":121.4991,"lat":31.3514,"date":"2022-03-17"},{"district":"宝山区","address":"上海市宝山区泰和西路3511弄","lng":121.4067,"lat":31.3534,"date":"2022-03-17"},{"district":"宝山区","address":"上海市宝山区新村路789弄","lng":121.425,"lat":31.2724,"date":"2022-03-17"},{"district":"宝山区","address":"上海市宝山区怡华苑路188弄","lng":121.4267,"lat":31.2781,"date":"2022-03-17"},{"district":"宝山区","address":"上海市宝山区真华路1030弄","lng":121.4179,"lat":31.2807,"date":"2022-03-17"},{"district":"宝山区","address":"上海市宝山区竹韵路58弄","lng":121.4526,"lat":31.3713,"date":"2022-03-17"},{"district":"崇明区","address":"上海市崇明区猛东村","lng":121.3821,"lat":31.7443,"date":"2022-03-17"},{"district":"崇明区","address":"上海市崇明区西部生活区","lng":121.7439,"lat":31.3759,"date":"2022-03-17"},{"district":"奉贤区","address":"上海市奉贤区南桥韩村路85号","lng":121.4704,"lat":30.9463,"date":"2022-03-17"},{"district":"奉贤区","address":"上海市奉贤区泰南新村","lng":121.5673,"lat":30.9864,"date":"2022-03-17"},{"district":"虹口区","address":"上海市虹口区宝山路888弄","lng":121.486,"lat":31.2698,"date":"2022-03-17"},{"district":"虹口区","address":"上海市虹口区车站北路732弄","lng":121.4729,"lat":31.3034,"date":"2022-03-17"},{"district":"虹口区","address":"上海市虹口区广灵二路385号","lng":121.4775,"lat":31.2879,"date":"2022-03-17"},{"district":"虹口区","address":"上海市虹口区广中路680弄","lng":121.47,"lat":31.2829,"date":"2022-03-17"},{"district":"虹口区","address":"上海市虹口区凉城四村","lng":121.4787,"lat":31.299,"date":"2022-03-17"},{"district":"虹口区","address":"上海市虹口区四川北路1906弄","lng":121.4919,"lat":31.2679,"date":"2022-03-17"},{"district":"虹口区","address":"上海市虹口区四达路58弄","lng":121.4972,"lat":31.2731,"date":"2022-03-17"},{"district":"黄浦区","address":"上海市黄浦区黄陂南路783号","lng":121.4842,"lat":31.2183,"date":"2022-03-17"},{"district":"黄浦区","address":"上海市黄浦区济南路181弄","lng":121.457,"lat":31.2357,"date":"2022-03-17"},{"district":"黄浦区","address":"上海市黄浦区建德路4号","lng":121.475,"lat":31.2158,"date":"2022-03-17"},{"district":"黄浦区","address":"上海市黄浦区顺昌路550弄","lng":121.4856,"lat":31.2177,"date":"2022-03-17"},{"district":"黄浦区","address":"上海市黄浦区顺昌路590号","lng":121.4862,"lat":31.2172,"date":"2022-03-17"},{"district":"黄浦区","address":"上海市黄浦区顺昌路600号","lng":121.4862,"lat":31.217,"date":"2022-03-17"},{"district":"黄浦区","address":"上海市黄浦区顺昌路612弄","lng":121.4857,"lat":31.2166,"date":"2022-03-17"},{"district":"黄浦区","address":"上海市黄浦区西藏南路688弄","lng":121.4896,"lat":31.2227,"date":"2022-03-17"},{"district":"黄浦区","address":"上海市黄浦区徐家汇路515弄","lng":121.4827,"lat":31.2147,"date":"2022-03-17"},{"district":"黄浦区","address":"上海市黄浦区永年路149弄","lng":121.4851,"lat":31.2171,"date":"2022-03-17"},{"district":"黄浦区","address":"上海市黄浦区制造局路后街28号","lng":121.4889,"lat":31.216,"date":"2022-03-17"},{"district":"黄浦区","address":"上海市黄浦区中山南路1358弄","lng":121.5062,"lat":31.2162,"date":"2022-03-17"},{"district":"黄浦区","address":"上海市黄浦区中山南一路247弄","lng":121.493,"lat":31.2063,"date":"2022-03-17"},{"district":"嘉定区","address":"上海市嘉定区崇教路267号对面工地宿舍","lng":121.279,"lat":31.3251,"date":"2022-03-17"},{"district":"嘉定区","address":"上海市嘉定区鹤望路365号","lng":121.3317,"lat":31.2521,"date":"2022-03-17"},{"district":"嘉定区","address":"上海市嘉定区华江支路677弄","lng":121.3451,"lat":31.2726,"date":"2022-03-17"},{"district":"嘉定区","address":"上海市嘉定区嘉美路1050弄","lng":121.283,"lat":31.3069,"date":"2022-03-17"},{"district":"嘉定区","address":"上海市嘉定区嘉涛路60弄","lng":121.338,"lat":31.2719,"date":"2022-03-17"},{"district":"嘉定区","address":"上海市嘉定区嘉涌路88弄","lng":121.3446,"lat":31.275,"date":"2022-03-17"},{"district":"嘉定区","address":"上海市嘉定区江桥大宅五四村","lng":121.3336,"lat":31.2532,"date":"2022-03-17"},{"district":"嘉定区","address":"上海市嘉定区江桥五四村","lng":121.3336,"lat":31.2532,"date":"2022-03-17"},{"district":"嘉定区","address":"上海市嘉定区金园一路1118弄","lng":121.3198,"lat":31.2538,"date":"2022-03-17"},{"district":"嘉定区","address":"上海市嘉定区金园一路555号","lng":121.3238,"lat":31.2624,"date":"2022-03-17"},{"district":"嘉定区","address":"上海市嘉定区临夏路801弄","lng":121.3345,"lat":31.2633,"date":"2022-03-17"},{"district":"嘉定区","address":"上海市嘉定区娄南村","lng":121.2225,"lat":31.4306,"date":"2022-03-17"},{"district":"嘉定区","address":"上海市嘉定区娄塘路548号","lng":121.2252,"lat":31.4364,"date":"2022-03-17"},{"district":"嘉定区","address":"上海市嘉定区梅园路300弄","lng":121.2498,"lat":31.3923,"date":"2022-03-17"},{"district":"嘉定区","address":"上海市嘉定区清河路205弄","lng":121.2476,"lat":31.3863,"date":"2022-03-17"},{"district":"嘉定区","address":"上海市嘉定区秋竹路1001弄","lng":121.224,"lat":31.3922,"date":"2022-03-17"},{"district":"嘉定区","address":"上海市嘉定区三里村","lng":121.2061,"lat":31.4593,"date":"2022-03-17"},{"district":"嘉定区","address":"上海市嘉定区桃园小区","lng":121.2514,"lat":31.3937,"date":"2022-03-17"},{"district":"嘉定区","address":"上海市嘉定区温宿路39弄","lng":121.2544,"lat":31.3934,"date":"2022-03-17"},{"district":"嘉定区","address":"上海市嘉定区温宿路45号","lng":121.2541,"lat":31.3935,"date":"2022-03-17"},{"district":"嘉定区","address":"上海市嘉定区温宿路50弄","lng":121.2534,"lat":31.3935,"date":"2022-03-17"},{"district":"嘉定区","address":"上海市嘉定区战斗村","lng":121.241,"lat":31.4277,"date":"2022-03-17"},{"district":"金山区","address":"上海市金山区龙皓路1565弄","lng":121.3338,"lat":30.7568,"date":"2022-03-17"},{"district":"静安区","address":"上海市静安区南京西路770号","lng":121.4683,"lat":31.2376,"date":"2022-03-17"},{"district":"静安区","address":"上海市静安区万荣路948号","lng":121.4484,"lat":31.2932,"date":"2022-03-17"},{"district":"静安区","address":"上海市静安区阳曲路650弄","lng":121.4671,"lat":31.3229,"date":"2022-03-17"},{"district":"静安区","address":"上海市静安区永兴小马路70号","lng":121.4709,"lat":31.2575,"date":"2022-03-17"},{"district":"闵行区","address":"上海市闵行区春申路1580弄","lng":121.4385,"lat":31.122,"date":"2022-03-17"},{"district":"闵行区","address":"上海市闵行区春申路1888弄","lng":121.4294,"lat":31.1186,"date":"2022-03-17"},{"district":"闵行区","address":"上海市闵行区东川路800号","lng":121.4433,"lat":31.032,"date":"2022-03-17"},{"district":"闵行区","address":"上海市闵行区东风村","lng":121.5511,"lat":31.1089,"date":"2022-03-17"},{"district":"闵行区","address":"上海市闵行区放鹤路2号","lng":121.4836,"lat":31.0568,"date":"2022-03-17"},{"district":"闵行区","address":"上海市闵行区华茂路1036弄","lng":121.3562,"lat":31.1473,"date":"2022-03-17"},{"district":"闵行区","address":"上海市闵行区纪东村","lng":121.2841,"lat":31.2519,"date":"2022-03-17"},{"district":"闵行区","address":"上海市闵行区江川路街道剑川路综合服务中心工地宿舍","lng":121.453,"lat":31.0407,"date":"2022-03-17"},{"district":"闵行区","address":"上海市闵行区龙吴路永德小区","lng":121.4719,"lat":31.0504,"date":"2022-03-17"},{"district":"闵行区","address":"上海市闵行区罗秀路1339弄","lng":121.4255,"lat":31.1348,"date":"2022-03-17"},{"district":"闵行区","address":"上海市闵行区普杰路100弄","lng":121.4289,"lat":31.1236,"date":"2022-03-17"},{"district":"闵行区","address":"上海市闵行区普乐路665弄","lng":121.4275,"lat":31.1241,"date":"2022-03-17"},{"district":"闵行区","address":"上海市闵行区申北路135弄","lng":121.391,"lat":31.0966,"date":"2022-03-17"},{"district":"闵行区","address":"上海市闵行区莘朱路1977号","lng":121.4294,"lat":31.1286,"date":"2022-03-17"},{"district":"闵行区","address":"上海市闵行区盛帆沁春园二村","lng":121.3844,"lat":31.1011,"date":"2022-03-17"},{"district":"闵行区","address":"上海市闵行区杨家巷村","lng":121.3085,"lat":31.2302,"date":"2022-03-17"},{"district":"闵行区","address":"上海市闵行区业祥路111弄","lng":121.4406,"lat":31.1298,"date":"2022-03-17"},{"district":"闵行区","address":"上海市闵行区银春路2200弄","lng":121.3924,"lat":31.0309,"date":"2022-03-17"},{"district":"浦东新区","address":"上海市浦东新区北项湾","lng":121.5602,"lat":31.3677,"date":"2022-03-17"},{"district":"浦东新区","address":"上海市浦东新区创新西路75弄","lng":121.6637,"lat":31.2097,"date":"2022-03-17"},{"district":"浦东新区","address":"上海市浦东新区德州三村","lng":121.496,"lat":31.175,"date":"2022-03-17"},{"district":"浦东新区","address":"上海市浦东新区关岳西路151弄","lng":121.5846,"lat":31.1251,"date":"2022-03-17"},{"district":"浦东新区","address":"上海市浦东新区光辉村","lng":121.7187,"lat":31.0699,"date":"2022-03-17"},{"district":"浦东新区","address":"上海市浦东新区光明村","lng":121.6649,"lat":31.2966,"date":"2022-03-17"},{"district":"浦东新区","address":"上海市浦东新区鹤沙路588弄","lng":121.6015,"lat":31.088,"date":"2022-03-17"},{"district":"浦东新区","address":"上海市浦东新区鹤沙路688弄","lng":121.5965,"lat":31.0877,"date":"2022-03-17"},{"district":"浦东新区","address":"上海市浦东新区华夏东路1036弄","lng":121.6761,"lat":31.2013,"date":"2022-03-17"},{"district":"浦东新区","address":"上海市浦东新区华夏东路1152弄","lng":121.6806,"lat":31.2026,"date":"2022-03-17"},{"district":"浦东新区","address":"上海市浦东新区华夏东路1668弄","lng":121.6878,"lat":31.2034,"date":"2022-03-17"},{"district":"浦东新区","address":"上海市浦东新区华夏东路860弄","lng":121.6723,"lat":31.2003,"date":"2022-03-17"},{"district":"浦东新区","address":"上海市浦东新区建光村","lng":121.7537,"lat":31.2184,"date":"2022-03-17"},{"district":"浦东新区","address":"上海市浦东新区锦绣东郊","lng":121.7717,"lat":31.1768,"date":"2022-03-17"},{"district":"浦东新区","address":"上海市浦东新区龙博公寓","lng":121.5614,"lat":31.185,"date":"2022-03-17"},{"district":"浦东新区","address":"上海市浦东新区龙居路1号","lng":121.5648,"lat":31.2625,"date":"2022-03-17"},{"district":"浦东新区","address":"上海市浦东新区妙境路124弄","lng":121.6951,"lat":31.2023,"date":"2022-03-17"},{"district":"浦东新区","address":"上海市浦东新区浦东大道580号","lng":121.5285,"lat":31.2461,"date":"2022-03-17"},{"district":"浦东新区","address":"上海市浦东新区浦建路60弄","lng":121.5245,"lat":31.2132,"date":"2022-03-17"},{"district":"浦东新区","address":"上海市浦东新区栖山路1700弄","lng":121.5758,"lat":31.2654,"date":"2022-03-17"},{"district":"浦东新区","address":"上海市浦东新区人民西路128弄","lng":121.7592,"lat":31.0549,"date":"2022-03-17"},{"district":"浦东新区","address":"上海市浦东新区三三公路5020弄","lng":121.8799,"lat":30.9813,"date":"2022-03-17"},{"district":"浦东新区","address":"上海市浦东新区商城路108弄","lng":121.5159,"lat":31.2339,"date":"2022-03-17"},{"district":"浦东新区","address":"上海市浦东新区商城路1317弄","lng":121.5377,"lat":31.2426,"date":"2022-03-17"},{"district":"浦东新区","address":"上海市浦东新区上游村","lng":121.6475,"lat":31.317,"date":"2022-03-17"},{"district":"浦东新区","address":"上海市浦东新区邵村村","lng":121.7396,"lat":31.014,"date":"2022-03-17"},{"district":"浦东新区","address":"上海市浦东新区盛荣路288弄","lng":121.6363,"lat":31.1944,"date":"2022-03-17"},{"district":"浦东新区","address":"上海市浦东新区天花庵村","lng":121.5319,"lat":31.1285,"date":"2022-03-17"},{"district":"浦东新区","address":"上海市浦东新区团新村","lng":121.7597,"lat":31.0208,"date":"2022-03-17"},{"district":"浦东新区","address":"上海市浦东新区新德路835弄","lng":121.6945,"lat":31.202,"date":"2022-03-17"},{"district":"浦东新区","address":"上海市浦东新区新艺路53号","lng":121.6493,"lat":31.0262,"date":"2022-03-17"},{"district":"浦东新区","address":"上海市浦东新区英雄村","lng":121.7597,"lat":31.0341,"date":"2022-03-17"},{"district":"浦东新区","address":"上海市浦东新区枣庄路399弄","lng":121.5847,"lat":31.2619,"date":"2022-03-17"},{"district":"浦东新区","address":"上海市浦东新区中心村养正宅","lng":121.8435,"lat":30.8887,"date":"2022-03-17"},{"district":"普陀区","address":"上海市普陀区白玉新村","lng":121.4217,"lat":31.239,"date":"2022-03-17"},{"district":"普陀区","address":"上海市普陀区沪太路765弄","lng":121.4504,"lat":31.2703,"date":"2022-03-17"},{"district":"普陀区","address":"上海市普陀区金汤路353弄","lng":121.3858,"lat":31.2562,"date":"2022-03-17"},{"district":"普陀区","address":"上海市普陀区泸定路555弄","lng":121.3945,"lat":31.235,"date":"2022-03-17"},{"district":"普陀区","address":"上海市普陀区梅岭北路1258弄","lng":121.399,"lat":31.2487,"date":"2022-03-17"},{"district":"普陀区","address":"上海市普陀区西康路1288弄","lng":121.4439,"lat":31.2498,"date":"2022-03-17"},{"district":"普陀区","address":"上海市普陀区长征金江工业园区宿舍","lng":121.3772,"lat":31.2381,"date":"2022-03-17"},{"district":"青浦区","address":"上海市青浦区新府中路1331弄","lng":121.2369,"lat":31.2311,"date":"2022-03-17"},{"district":"松江区","address":"上海市松江区仓汇路401弄","lng":121.2089,"lat":31.0155,"date":"2022-03-17"},{"district":"松江区","address":"上海市松江区古楼公路656弄","lng":121.2641,"lat":31.1119,"date":"2022-03-17"},{"district":"松江区","address":"上海市松江区九新公路2335弄","lng":121.3209,"lat":31.0772,"date":"2022-03-17"},{"district":"松江区","address":"上海市松江区涞亭南路888弄","lng":121.3486,"lat":31.1297,"date":"2022-03-17"},{"district":"松江区","address":"上海市松江区泗泾镇古楼公路659弄","lng":121.2564,"lat":31.111,"date":"2022-03-17"},{"district":"松江区","address":"上海市松江区泗泾镇泗凯路291弄","lng":121.2408,"lat":31.1188,"date":"2022-03-17"},{"district":"松江区","address":"上海市松江区亭知路651弄","lng":121.3145,"lat":31.1526,"date":"2022-03-17"},{"district":"松江区","address":"上海市松江区外婆泾路299弄","lng":121.2651,"lat":31.1202,"date":"2022-03-17"},{"district":"松江区","address":"上海市松江区王家厍路55弄","lng":121.2546,"lat":31.0983,"date":"2022-03-17"},{"district":"松江区","address":"上海市松江区滟东路62号","lng":121.285,"lat":30.9336,"date":"2022-03-17"},{"district":"徐汇区","address":"上海市徐汇区漕溪路280号","lng":121.4405,"lat":31.1754,"date":"2022-03-17"},{"district":"徐汇区","address":"上海市徐汇区大木桥路450弄","lng":121.4688,"lat":31.2018,"date":"2022-03-17"},{"district":"徐汇区","address":"上海市徐汇区东安一村","lng":121.4638,"lat":31.1954,"date":"2022-03-17"},{"district":"徐汇区","address":"上海市徐汇区东泉路50弄","lng":121.4494,"lat":31.1617,"date":"2022-03-17"},{"district":"徐汇区","address":"上海市徐汇区桂林东街99弄","lng":121.4321,"lat":31.1619,"date":"2022-03-17"},{"district":"徐汇区","address":"上海市徐汇区桂林西街15弄","lng":121.4224,"lat":31.1617,"date":"2022-03-17"},{"district":"徐汇区","address":"上海市徐汇区桂林西街201弄","lng":121.4279,"lat":31.1589,"date":"2022-03-17"},{"district":"徐汇区","address":"上海市徐汇区桂林西街47弄","lng":121.423,"lat":31.1604,"date":"2022-03-17"},{"district":"徐汇区","address":"上海市徐汇区虹漕路19弄","lng":121.416,"lat":31.1714,"date":"2022-03-17"},{"district":"徐汇区","address":"上海市徐汇区湖南路4弄","lng":121.4434,"lat":31.1946,"date":"2022-03-17"},{"district":"徐汇区","address":"上海市徐汇区华发路406弄","lng":121.4546,"lat":31.1333,"date":"2022-03-17"},{"district":"徐汇区","address":"上海市徐汇区康健路105弄","lng":121.4338,"lat":31.172,"date":"2022-03-17"},{"district":"徐汇区","address":"上海市徐汇区老沪闵路1039弄","lng":121.4337,"lat":31.1539,"date":"2022-03-17"},{"district":"徐汇区","address":"上海市徐汇区老沪闵路1290弄","lng":121.4456,"lat":31.1272,"date":"2022-03-17"},{"district":"徐汇区","address":"上海市徐汇区零陵路250弄","lng":121.4658,"lat":31.1976,"date":"2022-03-17"},{"district":"徐汇区","address":"上海市徐汇区零陵路631号","lng":121.4529,"lat":31.1943,"date":"2022-03-17"},{"district":"徐汇区","address":"上海市徐汇区柳州路600弄","lng":121.4265,"lat":31.1841,"date":"2022-03-17"},{"district":"徐汇区","address":"上海市徐汇区龙吴路1717弄","lng":121.4567,"lat":31.1383,"date":"2022-03-17"},{"district":"徐汇区","address":"上海市徐汇区龙吴路2418弄","lng":121.4691,"lat":31.1254,"date":"2022-03-17"},{"district":"徐汇区","address":"上海市徐汇区龙吴路555弄","lng":121.456,"lat":31.1632,"date":"2022-03-17"},{"district":"徐汇区","address":"上海市徐汇区龙吟路452弄","lng":121.4646,"lat":31.1257,"date":"2022-03-17"},{"district":"徐汇区","address":"上海市徐汇区龙州路425弄","lng":121.4331,"lat":31.1355,"date":"2022-03-17"},{"district":"徐汇区","address":"上海市徐汇区梅陇十村","lng":121.4312,"lat":31.1362,"date":"2022-03-17"},{"district":"徐汇区","address":"上海市徐汇区平江路170弄","lng":121.4604,"lat":31.2062,"date":"2022-03-17"},{"district":"徐汇区","address":"上海市徐汇区天等路259弄","lng":121.4341,"lat":31.1424,"date":"2022-03-17"},{"district":"徐汇区","address":"上海市徐汇区天钥新村","lng":121.4529,"lat":31.1921,"date":"2022-03-17"},{"district":"徐汇区","address":"上海市徐汇区宛平南路517号","lng":121.4551,"lat":31.1954,"date":"2022-03-17"},{"district":"徐汇区","address":"上海市徐汇区长桥七村","lng":121.4439,"lat":31.1374,"date":"2022-03-17"},{"district":"杨浦区","address":"上海市杨浦区延吉五村","lng":121.5441,"lat":31.2969,"date":"2022-03-17"},{"district":"长宁区","address":"上海市长宁区虹桥路977号","lng":121.4234,"lat":31.2026,"date":"2022-03-17"},{"district":"浦东新区","address":"上海市浦东新区三三公路5020弄","lng":121.8799,"lat":30.9813,"date":"2022-03-18"},{"district":"浦东新区","address":"上海市浦东新区上南路3520弄","lng":121.507,"lat":31.1597,"date":"2022-03-18"},{"district":"浦东新区","address":"上海市浦东新区北艾路1077弄","lng":121.5405,"lat":31.1863,"date":"2022-03-18"},{"district":"浦东新区","address":"上海市浦东新区蔡伦路1433弄","lng":121.5986,"lat":31.1967,"date":"2022-03-18"},{"district":"浦东新区","address":"上海市浦东新区齐爱路168弄","lng":121.6363,"lat":31.1944,"date":"2022-03-18"},{"district":"浦东新区","address":"上海市浦东新区定水路50弄","lng":121.5567,"lat":31.2487,"date":"2022-03-18"},{"district":"浦东新区","address":"上海市浦东新区新德路835弄","lng":121.6945,"lat":31.202,"date":"2022-03-18"},{"district":"浦东新区","address":"上海市浦东新区华夏东路1668弄","lng":121.6878,"lat":31.2034,"date":"2022-03-18"},{"district":"浦东新区","address":"上海市浦东新区芳芯路251弄","lng":121.563,"lat":31.1985,"date":"2022-03-18"},{"district":"浦东新区","address":"上海市浦东新区浦三路635弄","lng":121.5251,"lat":31.1951,"date":"2022-03-18"},{"district":"浦东新区","address":"上海市浦东新区江东支路南项湾","lng":121.5598,"lat":31.3671,"date":"2022-03-18"},{"district":"浦东新区","address":"上海市浦东新区观海路1118弄","lng":121.791,"lat":31.0646,"date":"2022-03-18"},{"district":"浦东新区","address":"上海市浦东新区芦云路200弄","lng":121.865,"lat":30.8791,"date":"2022-03-18"},{"district":"浦东新区","address":"上海市浦东新区杨莲路南新村吴家宅","lng":121.5498,"lat":31.1721,"date":"2022-03-18"},{"district":"浦东新区","address":"上海市浦东新区玉兰路81弄","lng":121.5544,"lat":31.2099,"date":"2022-03-18"},{"district":"浦东新区","address":"上海市浦东新区博华路999弄","lng":121.5571,"lat":31.1768,"date":"2022-03-18"},{"district":"浦东新区","address":"上海市浦东新区永泰路595弄","lng":121.5211,"lat":31.1463,"date":"2022-03-18"},{"district":"浦东新区","address":"上海市浦东新区博山路200弄","lng":121.5589,"lat":31.2503,"date":"2022-03-18"},{"district":"浦东新区","address":"上海市浦东新区瑞和路101弄","lng":121.5849,"lat":31.1201,"date":"2022-03-18"},{"district":"浦东新区","address":"上海市浦东新区南林路734弄","lng":121.5322,"lat":31.1444,"date":"2022-03-18"},{"district":"浦东新区","address":"上海市浦东新区华安路24弄","lng":121.522,"lat":31.2174,"date":"2022-03-18"},{"district":"浦东新区","address":"上海市浦东新区锦安东路88弄","lng":121.5474,"lat":31.2109,"date":"2022-03-18"},{"district":"浦东新区","address":"上海市浦东新区浦东大道501弄","lng":121.5251,"lat":31.2485,"date":"2022-03-18"},{"district":"浦东新区","address":"上海市浦东新区人民西路1533弄","lng":121.7337,"lat":31.0533,"date":"2022-03-18"},{"district":"浦东新区","address":"上海市浦东新区栖山路1636弄","lng":121.5738,"lat":31.2648,"date":"2022-03-18"},{"district":"浦东新区","address":"上海市浦东新区枣庄路399弄","lng":121.5847,"lat":31.2619,"date":"2022-03-18"},{"district":"浦东新区","address":"上海市浦东新区枣庄路210弄","lng":121.5774,"lat":31.2644,"date":"2022-03-18"},{"district":"浦东新区","address":"上海市浦东新区金桥路1221弄","lng":121.5896,"lat":31.2816,"date":"2022-03-18"},{"district":"浦东新区","address":"上海市浦东新区云山路835弄","lng":121.579,"lat":31.2596,"date":"2022-03-18"},{"district":"浦东新区","address":"上海市浦东新区博山东路811弄","lng":121.5798,"lat":31.2654,"date":"2022-03-18"},{"district":"浦东新区","address":"上海市浦东新区龙居路191弄","lng":121.5699,"lat":31.2579,"date":"2022-03-18"},{"district":"浦东新区","address":"上海市浦东新区拱为路2600弄","lng":121.7454,"lat":31.0636,"date":"2022-03-18"},{"district":"浦东新区","address":"上海市浦东新区拱乐路2400弄","lng":121.7496,"lat":31.0675,"date":"2022-03-18"},{"district":"浦东新区","address":"上海市浦东新区城南路818号","lng":121.6984,"lat":31.1953,"date":"2022-03-18"},{"district":"浦东新区","address":"上海市浦东新区听谐路73弄","lng":121.759,"lat":31.0636,"date":"2022-03-18"},{"district":"浦东新区","address":"上海市浦东新区迎薰路215弄","lng":121.7442,"lat":31.0422,"date":"2022-03-18"},{"district":"浦东新区","address":"上海市浦东新区听悦路1205弄","lng":121.7448,"lat":31.0699,"date":"2022-03-18"},{"district":"浦东新区","address":"上海市浦东新区拱鸣路60弄","lng":121.7514,"lat":31.0657,"date":"2022-03-18"},{"district":"浦东新区","address":"上海市浦东新区新德路1058弄","lng":121.6891,"lat":31.2014,"date":"2022-03-18"},{"district":"浦东新区","address":"上海市浦东新区秀浦路10号","lng":121.5923,"lat":31.1363,"date":"2022-03-18"},{"district":"浦东新区","address":"上海市浦东新区南园路455弄","lng":121.7532,"lat":31.031,"date":"2022-03-18"},{"district":"浦东新区","address":"上海市浦东新区彩虹雅苑东苑10号","lng":121.7466,"lat":31.06,"date":"2022-03-18"},{"district":"浦东新区","address":"上海市浦东新区行泰路150弄","lng":121.6143,"lat":31.2952,"date":"2022-03-18"},{"district":"浦东新区","address":"上海市浦东新区东波路58弄","lng":121.5838,"lat":31.2899,"date":"2022-03-18"},{"district":"浦东新区","address":"上海市浦东新区柳埠路135弄","lng":121.5889,"lat":31.2689,"date":"2022-03-18"},{"district":"浦东新区","address":"上海市浦东新区柳杉路12号","lng":121.6021,"lat":31.2443,"date":"2022-03-18"},{"district":"浦东新区","address":"上海市浦东新区联勤村李家宅","lng":121.5572,"lat":31.1732,"date":"2022-03-18"},{"district":"浦东新区","address":"上海市浦东新区世博大道94弄","lng":121.4995,"lat":31.1874,"date":"2022-03-18"},{"district":"浦东新区","address":"上海市浦东新区上南路51号","lng":121.5849,"lat":31.1201,"date":"2022-03-18"},{"district":"浦东新区","address":"上海市浦东新区成山路1728弄","lng":121.5355,"lat":31.1818,"date":"2022-03-18"},{"district":"浦东新区","address":"上海市浦东新区崂山路551弄","lng":121.5288,"lat":31.2326,"date":"2022-03-18"},{"district":"浦东新区","address":"上海市浦东新区栖山路1700弄","lng":121.5758,"lat":31.2654,"date":"2022-03-18"},{"district":"浦东新区","address":"上海市浦东新区鹤驰路99弄","lng":121.5997,"lat":31.085,"date":"2022-03-18"},{"district":"浦东新区","address":"上海市浦东新区亦园路75弄","lng":121.7203,"lat":31.0753,"date":"2022-03-18"},{"district":"浦东新区","address":"上海市浦东新区栖山路1555弄","lng":121.5723,"lat":31.2644,"date":"2022-03-18"},{"district":"浦东新区","address":"上海市浦东新区龙居路1号","lng":121.5648,"lat":31.2625,"date":"2022-03-18"},{"district":"浦东新区","address":"上海市浦东新区龙居路150弄","lng":121.5683,"lat":31.2579,"date":"2022-03-18"},{"district":"浦东新区","address":"上海市浦东新区东波路585弄","lng":121.5929,"lat":31.29,"date":"2022-03-18"},{"district":"浦东新区","address":"上海市浦东新区高科西路3060弄","lng":121.5707,"lat":31.1959,"date":"2022-03-18"},{"district":"浦东新区","address":"上海市浦东新区绿林路333号","lng":121.5553,"lat":31.1764,"date":"2022-03-18"},{"district":"浦东新区","address":"上海市浦东新区灵岩南路1399弄","lng":121.5091,"lat":31.1431,"date":"2022-03-18"},{"district":"黄浦区","address":"上海市黄浦区鲁班路721弄","lng":121.4847,"lat":31.2025,"date":"2022-03-18"},{"district":"黄浦区","address":"上海市黄浦区淡水路225弄","lng":121.4799,"lat":31.2228,"date":"2022-03-18"},{"district":"黄浦区","address":"上海市黄浦区河南南路368弄","lng":121.4951,"lat":31.2298,"date":"2022-03-18"},{"district":"黄浦区","address":"上海市黄浦区斜土路486弄","lng":121.484,"lat":31.2084,"date":"2022-03-18"},{"district":"黄浦区","address":"上海市黄浦区淮海东路89弄","lng":121.4884,"lat":31.2309,"date":"2022-03-18"},{"district":"黄浦区","address":"上海市黄浦区广东路138号","lng":121.4947,"lat":31.2391,"date":"2022-03-18"},{"district":"黄浦区","address":"上海市黄浦区五里桥路39弄","lng":121.4898,"lat":31.2102,"date":"2022-03-18"},{"district":"黄浦区","address":"上海市黄浦区河南南路398弄","lng":121.4957,"lat":31.2286,"date":"2022-03-18"},{"district":"黄浦区","address":"上海市黄浦区新昌路477弄","lng":121.4733,"lat":31.2446,"date":"2022-03-18"},{"district":"黄浦区","address":"上海市黄浦区中山南路1887弄","lng":121.4991,"lat":31.2078,"date":"2022-03-18"},{"district":"黄浦区","address":"上海市黄浦区斜土路80弄","lng":121.4905,"lat":31.2107,"date":"2022-03-18"},{"district":"静安区","address":"上海市静安区茂名北路93号","lng":121.4663,"lat":31.2314,"date":"2022-03-18"},{"district":"静安区","address":"上海市静安区临汾路300弄","lng":121.4686,"lat":31.3182,"date":"2022-03-18"},{"district":"静安区","address":"上海市静安区中山北路197弄","lng":121.4766,"lat":31.2714,"date":"2022-03-18"},{"district":"静安区","address":"上海市静安区万荣路948号","lng":121.4484,"lat":31.2932,"date":"2022-03-18"},{"district":"静安区","address":"上海市静安区沪太路1329弄","lng":121.4303,"lat":31.2882,"date":"2022-03-18"},{"district":"静安区","address":"上海市静安区海防路100弄","lng":121.4562,"lat":31.2474,"date":"2022-03-18"},{"district":"静安区","address":"上海市静安区平型关路801弄","lng":121.4656,"lat":31.2848,"date":"2022-03-18"},{"district":"静安区","address":"上海市静安区长宁路209弄","lng":121.4346,"lat":31.2324,"date":"2022-03-18"},{"district":"静安区","address":"上海市静安区万荣路959号","lng":121.4488,"lat":31.2943,"date":"2022-03-18"},{"district":"徐汇区","address":"上海市徐汇区虹漕南路99弄","lng":121.4201,"lat":31.1689,"date":"2022-03-18"},{"district":"徐汇区","address":"上海市徐汇区龙南五村","lng":121.4605,"lat":31.1614,"date":"2022-03-18"},{"district":"徐汇区","address":"上海市徐汇区罗秀路930弄","lng":121.4328,"lat":31.1375,"date":"2022-03-18"},{"district":"徐汇区","address":"上海市徐汇区龙华路2518弄","lng":121.4589,"lat":31.1848,"date":"2022-03-18"},{"district":"徐汇区","address":"上海市徐汇区桂林西街47弄","lng":121.423,"lat":31.1604,"date":"2022-03-18"},{"district":"徐汇区","address":"上海市徐汇区大木桥路450弄","lng":121.4688,"lat":31.2018,"date":"2022-03-18"},{"district":"徐汇区","address":"上海市徐汇区湖南路4弄","lng":121.4434,"lat":31.1946,"date":"2022-03-18"},{"district":"徐汇区","address":"上海市徐汇区虹梅南路698弄","lng":121.4279,"lat":31.1341,"date":"2022-03-18"},{"district":"徐汇区","address":"上海市徐汇区龙吴路2588弄","lng":121.4629,"lat":31.1201,"date":"2022-03-18"},{"district":"徐汇区","address":"上海市徐汇区田林十三村","lng":121.4319,"lat":31.18,"date":"2022-03-18"},{"district":"徐汇区","address":"上海市徐汇区汇成二村","lng":121.4415,"lat":31.1525,"date":"2022-03-18"},{"district":"徐汇区","address":"上海市徐汇区老沪闵路1068弄","lng":121.4441,"lat":31.1364,"date":"2022-03-18"},{"district":"徐汇区","address":"上海市徐汇区华济路1号北二","lng":121.4667,"lat":31.1222,"date":"2022-03-18"},{"district":"徐汇区","address":"上海市徐汇区漕溪路251弄","lng":121.4422,"lat":31.1764,"date":"2022-03-18"},{"district":"徐汇区","address":"上海市徐汇区龙吴路1717弄","lng":121.4567,"lat":31.1383,"date":"2022-03-18"},{"district":"徐汇区","address":"上海市徐汇区东安一村","lng":121.4638,"lat":31.1954,"date":"2022-03-18"},{"district":"徐汇区","address":"上海市徐汇区龙州路425弄","lng":121.4331,"lat":31.1355,"date":"2022-03-18"},{"district":"徐汇区","address":"上海市徐汇区百色路451弄","lng":121.4494,"lat":31.1485,"date":"2022-03-18"},{"district":"徐汇区","address":"上海市徐汇区日晖一村","lng":121.4716,"lat":31.2009,"date":"2022-03-18"},{"district":"徐汇区","address":"上海市徐汇区老沪闵路901号","lng":121.4414,"lat":31.1389,"date":"2022-03-18"},{"district":"徐汇区","address":"上海市徐汇区罗秀路1175弄","lng":121.4288,"lat":31.1354,"date":"2022-03-18"},{"district":"徐汇区","address":"上海市徐汇区罗秀路887号","lng":121.4395,"lat":31.1376,"date":"2022-03-18"},{"district":"徐汇区","address":"上海市徐汇区梅陇十一村","lng":121.4336,"lat":31.1387,"date":"2022-03-18"},{"district":"徐汇区","address":"上海市徐汇区凯旋南路31号","lng":121.4512,"lat":31.174,"date":"2022-03-18"},{"district":"徐汇区","address":"上海市徐汇区龙吴路555弄","lng":121.456,"lat":31.1632,"date":"2022-03-18"},{"district":"徐汇区","address":"上海市徐汇区龙吴路2418弄","lng":121.4691,"lat":31.1254,"date":"2022-03-18"},{"district":"徐汇区","address":"上海市徐汇区天钥桥南路1191号","lng":121.4621,"lat":31.1594,"date":"2022-03-18"},{"district":"徐汇区","address":"上海市徐汇区龙华西路21弄","lng":121.4548,"lat":31.1751,"date":"2022-03-18"},{"district":"徐汇区","address":"上海市徐汇区梅陇六村","lng":121.426,"lat":31.1386,"date":"2022-03-18"},{"district":"徐汇区","address":"上海市徐汇区江南一村","lng":121.4694,"lat":31.1982,"date":"2022-03-18"},{"district":"长宁区","address":"上海市长宁区华山路1038弄","lng":121.4424,"lat":31.2188,"date":"2022-03-18"},{"district":"长宁区","address":"上海市长宁区万航渡路1455号","lng":121.4276,"lat":31.2312,"date":"2022-03-18"},{"district":"长宁区","address":"上海市长宁区天山路938弄","lng":121.4135,"lat":31.2169,"date":"2022-03-18"},{"district":"长宁区","address":"上海市长宁区天山路288弄","lng":121.3897,"lat":31.2216,"date":"2022-03-18"},{"district":"长宁区","address":"上海市长宁区茅台路900弄","lng":121.4045,"lat":31.2159,"date":"2022-03-18"},{"district":"长宁区","address":"上海市长宁区金钟路255弄","lng":121.3731,"lat":31.2251,"date":"2022-03-18"},{"district":"普陀区","address":"上海市普陀区普陀区真光路798弄","lng":121.3829,"lat":31.242,"date":"2022-03-18"},{"district":"普陀区","address":"上海市普陀区普陀区定边路377弄","lng":121.3711,"lat":31.2661,"date":"2022-03-18"},{"district":"普陀区","address":"上海市普陀区普陀区平利路21弄","lng":121.4361,"lat":31.276,"date":"2022-03-18"},{"district":"普陀区","address":"上海市普陀区普陀区镇坪路48弄","lng":121.4352,"lat":31.2569,"date":"2022-03-18"},{"district":"普陀区","address":"上海市普陀区普陀区管弄路311弄","lng":121.4302,"lat":31.2604,"date":"2022-03-18"},{"district":"普陀区","address":"上海市普陀区普陀区车站新村","lng":121.4101,"lat":31.2661,"date":"2022-03-18"},{"district":"普陀区","address":"上海市普陀区普陀区新村路1717弄","lng":121.4154,"lat":31.2753,"date":"2022-03-18"},{"district":"普陀区","address":"上海市普陀区普陀区黄陵路200弄","lng":121.435,"lat":31.2692,"date":"2022-03-18"},{"district":"普陀区","address":"上海市普陀区普陀区志丹路500弄","lng":121.4378,"lat":31.2774,"date":"2022-03-18"},{"district":"普陀区","address":"上海市普陀区普陀区金汤路353弄","lng":121.3858,"lat":31.2562,"date":"2022-03-18"},{"district":"普陀区","address":"上海市普陀区普陀区新村路1881弄","lng":121.4105,"lat":31.2763,"date":"2022-03-18"},{"district":"普陀区","address":"上海市普陀区普陀区西康路1288弄","lng":121.4439,"lat":31.2498,"date":"2022-03-18"},